[{"Date":"2019-12-31","Key":"CN","CountryCode":"CN","CountryName":"China","RegionCode":"","RegionName":"","Confirmed":27,"Deaths":0,"Latitude":"35.861660","Longitude":"104.195397","Population":1433783686},{"Date":"2020-01-01","Key":"CN","CountryCode":"CN","CountryName":"China","RegionCode":"","RegionName":"","Confirmed":27,"Deaths":0,"Latitude":"35.861660","Longitude":"104.195397","Population":1433783686},{"Date":"2020-01-02","Key":"CN","CountryCode":"CN","CountryName":"China","RegionCode":"","RegionName":"","Confirmed":27,"Deaths":0,"Latitude":"35.861660","Longitude":"104.195397","Population":1433783686},{"Date":"2020-01-03","Key":"CN","CountryCode":"CN","CountryName":"China","RegionCode":"","RegionName":"","Confirmed":44,"Deaths":0,"Latitude":"35.861660","Longitude":"104.195397","Population":1433783686},{"Date":"2020-01-04","Key":"CN","CountryCode":"CN","CountryName":"China","RegionCode":"","RegionName":"","Confirmed":44,"Deaths":0,"Latitude":"35.861660","Longitude":"104.195397","Population":1433783686},{"Date":"2020-01-05","Key":"CN","CountryCode":"CN","CountryName":"China","RegionCode":"","RegionName":"","Confirmed":59,"Deaths":0,"Latitude":"35.861660","Longitude":"104.195397","Population":1433783686},{"Date":"2020-01-06","Key":"CN","CountryCode":"CN","CountryName":"China","RegionCode":"","RegionName":"","Confirmed":59,"Deaths":0,"Latitude":"35.861660","Longitude":"104.195397","Population":1433783686},{"Date":"2020-01-07","Key":"CN","CountryCode":"CN","CountryName":"China","RegionCode":"","RegionName":"","Confirmed":59,"Deaths":0,"Latitude":"35.861660","Longitude":"104.195397","Population":1433783686},{"Date":"2020-01-08","Key":"CN","CountryCode":"CN","CountryName":"China","RegionCode":"","RegionName":"","Confirmed":59,"Deaths":0,"Latitude":"35.861660","Longitude":"104.195397","Population":1433783686},{"Date":"2020-01-09","Key":"CN","CountryCode":"CN","CountryName":"China","RegionCode":"","RegionName":"","Confirmed":59,"Deaths":0,"Latitude":"35.861660","Longitude":"104.195397","Population":1433783686},{"Date":"2020-01-10","Key":"CN","CountryCode":"CN","CountryName":"China","RegionCode":"","RegionName":"","Confirmed":59,"Deaths":0,"Latitude":"35.861660","Longitude":"104.195397","Population":1433783686},{"Date":"2020-01-11","Key":"CN","CountryCode":"CN","CountryName":"China","RegionCode":"","RegionName":"","Confirmed":59,"Deaths":1,"Latitude":"35.861660","Longitude":"104.195397","Population":1433783686},{"Date":"2020-01-12","Key":"CN","CountryCode":"CN","CountryName":"China","RegionCode":"","RegionName":"","Confirmed":59,"Deaths":1,"Latitude":"35.861660","Longitude":"104.195397","Population":1433783686},{"Date":"2020-01-13","Key":"CN","CountryCode":"CN","CountryName":"China","RegionCode":"","RegionName":"","Confirmed":59,"Deaths":1,"Latitude":"35.861660","Longitude":"104.195397","Population":1433783686},{"Date":"2020-01-14","Key":"CN","CountryCode":"CN","CountryName":"China","RegionCode":"","RegionName":"","Confirmed":59,"Deaths":1,"Latitude":"35.861660","Longitude":"104.195397","Population":1433783686},{"Date":"2020-01-15","Key":"CN","CountryCode":"CN","CountryName":"China","RegionCode":"","RegionName":"","Confirmed":59,"Deaths":2,"Latitude":"35.861660","Longitude":"104.195397","Population":1433783686},{"Date":"2020-01-16","Key":"CN","CountryCode":"CN","CountryName":"China","RegionCode":"","RegionName":"","Confirmed":59,"Deaths":2,"Latitude":"35.861660","Longitude":"104.195397","Population":1433783686},{"Date":"2020-01-17","Key":"CN","CountryCode":"CN","CountryName":"China","RegionCode":"","RegionName":"","Confirmed":63,"Deaths":2,"Latitude":"35.861660","Longitude":"104.195397","Population":1433783686},{"Date":"2020-01-18","Key":"CN","CountryCode":"CN","CountryName":"China","RegionCode":"","RegionName":"","Confirmed":80,"Deaths":2,"Latitude":"35.861660","Longitude":"104.195397","Population":1433783686},{"Date":"2020-01-19","Key":"CN","CountryCode":"CN","CountryName":"China","RegionCode":"","RegionName":"","Confirmed":216,"Deaths":3,"Latitude":"35.861660","Longitude":"104.195397","Population":1433783686},{"Date":"2020-01-20","Key":"CN","CountryCode":"CN","CountryName":"China","RegionCode":"","RegionName":"","Confirmed":235,"Deaths":3,"Latitude":"35.861660","Longitude":"104.195397","Population":1433783686},{"Date":"2020-01-21","Key":"CN","CountryCode":"CN","CountryName":"China","RegionCode":"","RegionName":"","Confirmed":386,"Deaths":6,"Latitude":"35.861660","Longitude":"104.195397","Population":1433783686},{"Date":"2020-01-22","Key":"CN","CountryCode":"CN","CountryName":"China","RegionCode":"","RegionName":"","Confirmed":526,"Deaths":17,"Latitude":"35.861660","Longitude":"104.195397","Population":1433783686},{"Date":"2020-01-22","Key":"CN_AH","CountryCode":"CN","CountryName":"China","RegionCode":"AH","RegionName":"Anhui","Confirmed":1,"Deaths":0,"Latitude":"31.825700","Longitude":"117.226400","Population":null},{"Date":"2020-01-22","Key":"CN_BJ","CountryCode":"CN","CountryName":"China","RegionCode":"BJ","RegionName":"Beijing","Confirmed":10,"Deaths":0,"Latitude":"40.182400","Longitude":"116.414200","Population":null},{"Date":"2020-01-22","Key":"CN_CQ","CountryCode":"CN","CountryName":"China","RegionCode":"CQ","RegionName":"Chongqing","Confirmed":5,"Deaths":0,"Latitude":"30.057200","Longitude":"107.874000","Population":null},{"Date":"2020-01-22","Key":"CN_GD","CountryCode":"CN","CountryName":"China","RegionCode":"GD","RegionName":"Guangdong","Confirmed":26,"Deaths":0,"Latitude":"23.341700","Longitude":"113.424400","Population":null},{"Date":"2020-01-22","Key":"CN_GX","CountryCode":"CN","CountryName":"China","RegionCode":"GX","RegionName":"Guangxi","Confirmed":0,"Deaths":0,"Latitude":"23.829800","Longitude":"108.788100","Population":null},{"Date":"2020-01-22","Key":"CN_GZ","CountryCode":"CN","CountryName":"China","RegionCode":"GZ","RegionName":"Guizhou","Confirmed":0,"Deaths":0,"Latitude":"26.815400","Longitude":"106.874800","Population":null},{"Date":"2020-01-22","Key":"CN_HA","CountryCode":"CN","CountryName":"China","RegionCode":"HA","RegionName":"Henan","Confirmed":4,"Deaths":0,"Latitude":"33.882000","Longitude":"113.614000","Population":null},{"Date":"2020-01-22","Key":"CN_HB","CountryCode":"CN","CountryName":"China","RegionCode":"HB","RegionName":"Hubei","Confirmed":375,"Deaths":9,"Latitude":"30.975600","Longitude":"112.270700","Population":null},{"Date":"2020-01-22","Key":"CN_HI","CountryCode":"CN","CountryName":"China","RegionCode":"HI","RegionName":"Hainan","Confirmed":4,"Deaths":0,"Latitude":"19.195900","Longitude":"109.745300","Population":null},{"Date":"2020-01-22","Key":"CN_HL","CountryCode":"CN","CountryName":"China","RegionCode":"HL","RegionName":"Heilongjiang","Confirmed":0,"Deaths":0,"Latitude":"47.862000","Longitude":"127.761500","Population":null},{"Date":"2020-01-22","Key":"CN_HN","CountryCode":"CN","CountryName":"China","RegionCode":"HN","RegionName":"Hunan","Confirmed":1,"Deaths":0,"Latitude":"27.610400","Longitude":"111.708800","Population":null},{"Date":"2020-01-22","Key":"CN_JL","CountryCode":"CN","CountryName":"China","RegionCode":"JL","RegionName":"Jilin","Confirmed":0,"Deaths":0,"Latitude":"43.666100","Longitude":"126.192300","Population":null},{"Date":"2020-01-22","Key":"CN_JX","CountryCode":"CN","CountryName":"China","RegionCode":"JX","RegionName":"Jiangxi","Confirmed":2,"Deaths":0,"Latitude":"27.614000","Longitude":"115.722100","Population":null},{"Date":"2020-01-22","Key":"CN_LN","CountryCode":"CN","CountryName":"China","RegionCode":"LN","RegionName":"Liaoning","Confirmed":2,"Deaths":0,"Latitude":"41.295600","Longitude":"122.608500","Population":null},{"Date":"2020-01-22","Key":"CN_NX","CountryCode":"CN","CountryName":"China","RegionCode":"NX","RegionName":"Ningxia","Confirmed":0,"Deaths":0,"Latitude":"37.269200","Longitude":"106.165500","Population":null},{"Date":"2020-01-22","Key":"CN_SC","CountryCode":"CN","CountryName":"China","RegionCode":"SC","RegionName":"Sichuan","Confirmed":2,"Deaths":0,"Latitude":"30.617100","Longitude":"102.710300","Population":null},{"Date":"2020-01-22","Key":"CN_SD","CountryCode":"CN","CountryName":"China","RegionCode":"SD","RegionName":"Shandong","Confirmed":1,"Deaths":0,"Latitude":"36.342700","Longitude":"118.149800","Population":null},{"Date":"2020-01-22","Key":"CN_SH","CountryCode":"CN","CountryName":"China","RegionCode":"SH","RegionName":"Shanghai","Confirmed":9,"Deaths":0,"Latitude":"31.202000","Longitude":"121.449100","Population":null},{"Date":"2020-01-22","Key":"CN_SX","CountryCode":"CN","CountryName":"China","RegionCode":"SX","RegionName":"Shanxi","Confirmed":0,"Deaths":0,"Latitude":"37.577700","Longitude":"112.292200","Population":null},{"Date":"2020-01-22","Key":"CN_TJ","CountryCode":"CN","CountryName":"China","RegionCode":"TJ","RegionName":"Tianjin","Confirmed":4,"Deaths":0,"Latitude":"39.305400","Longitude":"117.323000","Population":null},{"Date":"2020-01-22","Key":"CN_YN","CountryCode":"CN","CountryName":"China","RegionCode":"YN","RegionName":"Yunnan","Confirmed":1,"Deaths":0,"Latitude":"24.974000","Longitude":"101.487000","Population":null},{"Date":"2020-01-22","Key":"CN_ZJ","CountryCode":"CN","CountryName":"China","RegionCode":"ZJ","RegionName":"Zhejiang","Confirmed":10,"Deaths":0,"Latitude":"29.183200","Longitude":"120.093400","Population":null},{"Date":"2020-01-23","Key":"CN","CountryCode":"CN","CountryName":"China","RegionCode":"","RegionName":"","Confirmed":623,"Deaths":17,"Latitude":"35.861660","Longitude":"104.195397","Population":1433783686},{"Date":"2020-01-23","Key":"CN_AH","CountryCode":"CN","CountryName":"China","RegionCode":"AH","RegionName":"Anhui","Confirmed":9,"Deaths":0,"Latitude":"31.825700","Longitude":"117.226400","Population":null},{"Date":"2020-01-23","Key":"CN_BJ","CountryCode":"CN","CountryName":"China","RegionCode":"BJ","RegionName":"Beijing","Confirmed":14,"Deaths":0,"Latitude":"40.182400","Longitude":"116.414200","Population":null},{"Date":"2020-01-23","Key":"CN_CQ","CountryCode":"CN","CountryName":"China","RegionCode":"CQ","RegionName":"Chongqing","Confirmed":9,"Deaths":0,"Latitude":"30.057200","Longitude":"107.874000","Population":null},{"Date":"2020-01-23","Key":"CN_FJ","CountryCode":"CN","CountryName":"China","RegionCode":"FJ","RegionName":"Fujian","Confirmed":5,"Deaths":0,"Latitude":"26.078900","Longitude":"117.987400","Population":null},{"Date":"2020-01-23","Key":"CN_GD","CountryCode":"CN","CountryName":"China","RegionCode":"GD","RegionName":"Guangdong","Confirmed":32,"Deaths":0,"Latitude":"23.341700","Longitude":"113.424400","Population":null},{"Date":"2020-01-23","Key":"CN_GS","CountryCode":"CN","CountryName":"China","RegionCode":"GS","RegionName":"Gansu","Confirmed":0,"Deaths":0,"Latitude":"37.809900","Longitude":"101.058300","Population":null},{"Date":"2020-01-23","Key":"CN_GX","CountryCode":"CN","CountryName":"China","RegionCode":"GX","RegionName":"Guangxi","Confirmed":5,"Deaths":0,"Latitude":"23.829800","Longitude":"108.788100","Population":null},{"Date":"2020-01-23","Key":"CN_GZ","CountryCode":"CN","CountryName":"China","RegionCode":"GZ","RegionName":"Guizhou","Confirmed":3,"Deaths":0,"Latitude":"26.815400","Longitude":"106.874800","Population":null},{"Date":"2020-01-23","Key":"CN_HA","CountryCode":"CN","CountryName":"China","RegionCode":"HA","RegionName":"Henan","Confirmed":5,"Deaths":0,"Latitude":"33.882000","Longitude":"113.614000","Population":null},{"Date":"2020-01-23","Key":"CN_HB","CountryCode":"CN","CountryName":"China","RegionCode":"HB","RegionName":"Hubei","Confirmed":444,"Deaths":17,"Latitude":"30.975600","Longitude":"112.270700","Population":null},{"Date":"2020-01-23","Key":"CN_HE","CountryCode":"CN","CountryName":"China","RegionCode":"HE","RegionName":"Hebei","Confirmed":1,"Deaths":0,"Latitude":"39.549000","Longitude":"116.130600","Population":null},{"Date":"2020-01-23","Key":"CN_HI","CountryCode":"CN","CountryName":"China","RegionCode":"HI","RegionName":"Hainan","Confirmed":5,"Deaths":0,"Latitude":"19.195900","Longitude":"109.745300","Population":null},{"Date":"2020-01-23","Key":"CN_HL","CountryCode":"CN","CountryName":"China","RegionCode":"HL","RegionName":"Heilongjiang","Confirmed":1,"Deaths":0,"Latitude":"47.862000","Longitude":"127.761500","Population":null},{"Date":"2020-01-23","Key":"CN_HN","CountryCode":"CN","CountryName":"China","RegionCode":"HN","RegionName":"Hunan","Confirmed":9,"Deaths":0,"Latitude":"27.610400","Longitude":"111.708800","Population":null},{"Date":"2020-01-23","Key":"CN_JL","CountryCode":"CN","CountryName":"China","RegionCode":"JL","RegionName":"Jilin","Confirmed":1,"Deaths":0,"Latitude":"43.666100","Longitude":"126.192300","Population":null},{"Date":"2020-01-23","Key":"CN_JS","CountryCode":"CN","CountryName":"China","RegionCode":"JS","RegionName":"Jiangsu","Confirmed":1,"Deaths":0,"Latitude":"32.971100","Longitude":"119.455000","Population":null},{"Date":"2020-01-23","Key":"CN_JX","CountryCode":"CN","CountryName":"China","RegionCode":"JX","RegionName":"Jiangxi","Confirmed":3,"Deaths":0,"Latitude":"27.614000","Longitude":"115.722100","Population":null},{"Date":"2020-01-23","Key":"CN_LN","CountryCode":"CN","CountryName":"China","RegionCode":"LN","RegionName":"Liaoning","Confirmed":3,"Deaths":0,"Latitude":"41.295600","Longitude":"122.608500","Population":null},{"Date":"2020-01-23","Key":"CN_NX","CountryCode":"CN","CountryName":"China","RegionCode":"NX","RegionName":"Ningxia","Confirmed":1,"Deaths":0,"Latitude":"37.269200","Longitude":"106.165500","Population":null},{"Date":"2020-01-23","Key":"CN_SC","CountryCode":"CN","CountryName":"China","RegionCode":"SC","RegionName":"Sichuan","Confirmed":8,"Deaths":0,"Latitude":"30.617100","Longitude":"102.710300","Population":null},{"Date":"2020-01-23","Key":"CN_SD","CountryCode":"CN","CountryName":"China","RegionCode":"SD","RegionName":"Shandong","Confirmed":6,"Deaths":0,"Latitude":"36.342700","Longitude":"118.149800","Population":null},{"Date":"2020-01-23","Key":"CN_SH","CountryCode":"CN","CountryName":"China","RegionCode":"SH","RegionName":"Shanghai","Confirmed":16,"Deaths":0,"Latitude":"31.202000","Longitude":"121.449100","Population":null},{"Date":"2020-01-23","Key":"CN_SN","CountryCode":"CN","CountryName":"China","RegionCode":"SN","RegionName":"Shaanxi","Confirmed":0,"Deaths":0,"Latitude":"35.191700","Longitude":"108.870100","Population":null},{"Date":"2020-01-23","Key":"CN_SX","CountryCode":"CN","CountryName":"China","RegionCode":"SX","RegionName":"Shanxi","Confirmed":1,"Deaths":0,"Latitude":"37.577700","Longitude":"112.292200","Population":null},{"Date":"2020-01-23","Key":"CN_ZJ","CountryCode":"CN","CountryName":"China","RegionCode":"ZJ","RegionName":"Zhejiang","Confirmed":27,"Deaths":0,"Latitude":"29.183200","Longitude":"120.093400","Population":null},{"Date":"2020-01-24","Key":"CN","CountryCode":"CN","CountryName":"China","RegionCode":"","RegionName":"","Confirmed":882,"Deaths":26,"Latitude":"35.861660","Longitude":"104.195397","Population":1433783686},{"Date":"2020-01-24","Key":"CN_AH","CountryCode":"CN","CountryName":"China","RegionCode":"AH","RegionName":"Anhui","Confirmed":15,"Deaths":0,"Latitude":"31.825700","Longitude":"117.226400","Population":null},{"Date":"2020-01-24","Key":"CN_BJ","CountryCode":"CN","CountryName":"China","RegionCode":"BJ","RegionName":"Beijing","Confirmed":29,"Deaths":0,"Latitude":"40.182400","Longitude":"116.414200","Population":null},{"Date":"2020-01-24","Key":"CN_CQ","CountryCode":"CN","CountryName":"China","RegionCode":"CQ","RegionName":"Chongqing","Confirmed":27,"Deaths":0,"Latitude":"30.057200","Longitude":"107.874000","Population":null},{"Date":"2020-01-24","Key":"CN_FJ","CountryCode":"CN","CountryName":"China","RegionCode":"FJ","RegionName":"Fujian","Confirmed":10,"Deaths":0,"Latitude":"26.078900","Longitude":"117.987400","Population":null},{"Date":"2020-01-24","Key":"CN_GD","CountryCode":"CN","CountryName":"China","RegionCode":"GD","RegionName":"Guangdong","Confirmed":53,"Deaths":0,"Latitude":"23.341700","Longitude":"113.424400","Population":null},{"Date":"2020-01-24","Key":"CN_GS","CountryCode":"CN","CountryName":"China","RegionCode":"GS","RegionName":"Gansu","Confirmed":2,"Deaths":0,"Latitude":"37.809900","Longitude":"101.058300","Population":null},{"Date":"2020-01-24","Key":"CN_GX","CountryCode":"CN","CountryName":"China","RegionCode":"GX","RegionName":"Guangxi","Confirmed":13,"Deaths":0,"Latitude":"23.829800","Longitude":"108.788100","Population":null},{"Date":"2020-01-24","Key":"CN_GZ","CountryCode":"CN","CountryName":"China","RegionCode":"GZ","RegionName":"Guizhou","Confirmed":3,"Deaths":0,"Latitude":"26.815400","Longitude":"106.874800","Population":null},{"Date":"2020-01-24","Key":"CN_HA","CountryCode":"CN","CountryName":"China","RegionCode":"HA","RegionName":"Henan","Confirmed":9,"Deaths":0,"Latitude":"33.882000","Longitude":"113.614000","Population":null},{"Date":"2020-01-24","Key":"CN_HB","CountryCode":"CN","CountryName":"China","RegionCode":"HB","RegionName":"Hubei","Confirmed":549,"Deaths":24,"Latitude":"30.975600","Longitude":"112.270700","Population":null},{"Date":"2020-01-24","Key":"CN_HE","CountryCode":"CN","CountryName":"China","RegionCode":"HE","RegionName":"Hebei","Confirmed":2,"Deaths":1,"Latitude":"39.549000","Longitude":"116.130600","Population":null},{"Date":"2020-01-24","Key":"CN_HI","CountryCode":"CN","CountryName":"China","RegionCode":"HI","RegionName":"Hainan","Confirmed":8,"Deaths":0,"Latitude":"19.195900","Longitude":"109.745300","Population":null},{"Date":"2020-01-24","Key":"CN_HL","CountryCode":"CN","CountryName":"China","RegionCode":"HL","RegionName":"Heilongjiang","Confirmed":4,"Deaths":1,"Latitude":"47.862000","Longitude":"127.761500","Population":null},{"Date":"2020-01-24","Key":"CN_HN","CountryCode":"CN","CountryName":"China","RegionCode":"HN","RegionName":"Hunan","Confirmed":24,"Deaths":0,"Latitude":"27.610400","Longitude":"111.708800","Population":null},{"Date":"2020-01-24","Key":"CN_JL","CountryCode":"CN","CountryName":"China","RegionCode":"JL","RegionName":"Jilin","Confirmed":3,"Deaths":0,"Latitude":"43.666100","Longitude":"126.192300","Population":null},{"Date":"2020-01-24","Key":"CN_JS","CountryCode":"CN","CountryName":"China","RegionCode":"JS","RegionName":"Jiangsu","Confirmed":9,"Deaths":0,"Latitude":"32.971100","Longitude":"119.455000","Population":null},{"Date":"2020-01-24","Key":"CN_JX","CountryCode":"CN","CountryName":"China","RegionCode":"JX","RegionName":"Jiangxi","Confirmed":7,"Deaths":0,"Latitude":"27.614000","Longitude":"115.722100","Population":null},{"Date":"2020-01-24","Key":"CN_LN","CountryCode":"CN","CountryName":"China","RegionCode":"LN","RegionName":"Liaoning","Confirmed":4,"Deaths":0,"Latitude":"41.295600","Longitude":"122.608500","Population":null},{"Date":"2020-01-24","Key":"CN_NX","CountryCode":"CN","CountryName":"China","RegionCode":"NX","RegionName":"Ningxia","Confirmed":2,"Deaths":0,"Latitude":"37.269200","Longitude":"106.165500","Population":null},{"Date":"2020-01-24","Key":"CN_SC","CountryCode":"CN","CountryName":"China","RegionCode":"SC","RegionName":"Sichuan","Confirmed":15,"Deaths":0,"Latitude":"30.617100","Longitude":"102.710300","Population":null},{"Date":"2020-01-24","Key":"CN_SD","CountryCode":"CN","CountryName":"China","RegionCode":"SD","RegionName":"Shandong","Confirmed":15,"Deaths":0,"Latitude":"36.342700","Longitude":"118.149800","Population":null},{"Date":"2020-01-24","Key":"CN_SH","CountryCode":"CN","CountryName":"China","RegionCode":"SH","RegionName":"Shanghai","Confirmed":20,"Deaths":0,"Latitude":"31.202000","Longitude":"121.449100","Population":null},{"Date":"2020-01-24","Key":"CN_SN","CountryCode":"CN","CountryName":"China","RegionCode":"SN","RegionName":"Shaanxi","Confirmed":3,"Deaths":0,"Latitude":"35.191700","Longitude":"108.870100","Population":null},{"Date":"2020-01-24","Key":"CN_SX","CountryCode":"CN","CountryName":"China","RegionCode":"SX","RegionName":"Shanxi","Confirmed":1,"Deaths":0,"Latitude":"37.577700","Longitude":"112.292200","Population":null},{"Date":"2020-01-24","Key":"CN_TJ","CountryCode":"CN","CountryName":"China","RegionCode":"TJ","RegionName":"Tianjin","Confirmed":7,"Deaths":0,"Latitude":"39.305400","Longitude":"117.323000","Population":null},{"Date":"2020-01-24","Key":"CN_XJ","CountryCode":"CN","CountryName":"China","RegionCode":"XJ","RegionName":"Xinjiang","Confirmed":2,"Deaths":0,"Latitude":"41.112900","Longitude":"85.240100","Population":null},{"Date":"2020-01-24","Key":"CN_YN","CountryCode":"CN","CountryName":"China","RegionCode":"YN","RegionName":"Yunnan","Confirmed":2,"Deaths":0,"Latitude":"24.974000","Longitude":"101.487000","Population":null},{"Date":"2020-01-24","Key":"CN_ZJ","CountryCode":"CN","CountryName":"China","RegionCode":"ZJ","RegionName":"Zhejiang","Confirmed":43,"Deaths":0,"Latitude":"29.183200","Longitude":"120.093400","Population":null},{"Date":"2020-01-25","Key":"CN","CountryCode":"CN","CountryName":"China","RegionCode":"","RegionName":"","Confirmed":1323,"Deaths":41,"Latitude":"35.861660","Longitude":"104.195397","Population":1433783686},{"Date":"2020-01-25","Key":"CN_AH","CountryCode":"CN","CountryName":"China","RegionCode":"AH","RegionName":"Anhui","Confirmed":39,"Deaths":0,"Latitude":"31.825700","Longitude":"117.226400","Population":null},{"Date":"2020-01-25","Key":"CN_BJ","CountryCode":"CN","CountryName":"China","RegionCode":"BJ","RegionName":"Beijing","Confirmed":36,"Deaths":0,"Latitude":"40.182400","Longitude":"116.414200","Population":null},{"Date":"2020-01-25","Key":"CN_CQ","CountryCode":"CN","CountryName":"China","RegionCode":"CQ","RegionName":"Chongqing","Confirmed":57,"Deaths":0,"Latitude":"30.057200","Longitude":"107.874000","Population":null},{"Date":"2020-01-25","Key":"CN_FJ","CountryCode":"CN","CountryName":"China","RegionCode":"FJ","RegionName":"Fujian","Confirmed":18,"Deaths":0,"Latitude":"26.078900","Longitude":"117.987400","Population":null},{"Date":"2020-01-25","Key":"CN_GD","CountryCode":"CN","CountryName":"China","RegionCode":"GD","RegionName":"Guangdong","Confirmed":78,"Deaths":0,"Latitude":"23.341700","Longitude":"113.424400","Population":null},{"Date":"2020-01-25","Key":"CN_GS","CountryCode":"CN","CountryName":"China","RegionCode":"GS","RegionName":"Gansu","Confirmed":4,"Deaths":0,"Latitude":"37.809900","Longitude":"101.058300","Population":null},{"Date":"2020-01-25","Key":"CN_GX","CountryCode":"CN","CountryName":"China","RegionCode":"GX","RegionName":"Guangxi","Confirmed":23,"Deaths":0,"Latitude":"23.829800","Longitude":"108.788100","Population":null},{"Date":"2020-01-25","Key":"CN_GZ","CountryCode":"CN","CountryName":"China","RegionCode":"GZ","RegionName":"Guizhou","Confirmed":4,"Deaths":0,"Latitude":"26.815400","Longitude":"106.874800","Population":null},{"Date":"2020-01-25","Key":"CN_HA","CountryCode":"CN","CountryName":"China","RegionCode":"HA","RegionName":"Henan","Confirmed":32,"Deaths":0,"Latitude":"33.882000","Longitude":"113.614000","Population":null},{"Date":"2020-01-25","Key":"CN_HB","CountryCode":"CN","CountryName":"China","RegionCode":"HB","RegionName":"Hubei","Confirmed":729,"Deaths":39,"Latitude":"30.975600","Longitude":"112.270700","Population":null},{"Date":"2020-01-25","Key":"CN_HE","CountryCode":"CN","CountryName":"China","RegionCode":"HE","RegionName":"Hebei","Confirmed":8,"Deaths":1,"Latitude":"39.549000","Longitude":"116.130600","Population":null},{"Date":"2020-01-25","Key":"CN_HI","CountryCode":"CN","CountryName":"China","RegionCode":"HI","RegionName":"Hainan","Confirmed":17,"Deaths":0,"Latitude":"19.195900","Longitude":"109.745300","Population":null},{"Date":"2020-01-25","Key":"CN_HL","CountryCode":"CN","CountryName":"China","RegionCode":"HL","RegionName":"Heilongjiang","Confirmed":9,"Deaths":1,"Latitude":"47.862000","Longitude":"127.761500","Population":null},{"Date":"2020-01-25","Key":"CN_HN","CountryCode":"CN","CountryName":"China","RegionCode":"HN","RegionName":"Hunan","Confirmed":43,"Deaths":0,"Latitude":"27.610400","Longitude":"111.708800","Population":null},{"Date":"2020-01-25","Key":"CN_JL","CountryCode":"CN","CountryName":"China","RegionCode":"JL","RegionName":"Jilin","Confirmed":4,"Deaths":0,"Latitude":"43.666100","Longitude":"126.192300","Population":null},{"Date":"2020-01-25","Key":"CN_JS","CountryCode":"CN","CountryName":"China","RegionCode":"JS","RegionName":"Jiangsu","Confirmed":18,"Deaths":0,"Latitude":"32.971100","Longitude":"119.455000","Population":null},{"Date":"2020-01-25","Key":"CN_JX","CountryCode":"CN","CountryName":"China","RegionCode":"JX","RegionName":"Jiangxi","Confirmed":18,"Deaths":0,"Latitude":"27.614000","Longitude":"115.722100","Population":null},{"Date":"2020-01-25","Key":"CN_LN","CountryCode":"CN","CountryName":"China","RegionCode":"LN","RegionName":"Liaoning","Confirmed":15,"Deaths":0,"Latitude":"41.295600","Longitude":"122.608500","Population":null},{"Date":"2020-01-25","Key":"CN_NX","CountryCode":"CN","CountryName":"China","RegionCode":"NX","RegionName":"Ningxia","Confirmed":3,"Deaths":0,"Latitude":"37.269200","Longitude":"106.165500","Population":null},{"Date":"2020-01-25","Key":"CN_QH","CountryCode":"CN","CountryName":"China","RegionCode":"QH","RegionName":"Qinghai","Confirmed":1,"Deaths":0,"Latitude":"35.745200","Longitude":"95.995600","Population":null},{"Date":"2020-01-25","Key":"CN_SC","CountryCode":"CN","CountryName":"China","RegionCode":"SC","RegionName":"Sichuan","Confirmed":28,"Deaths":0,"Latitude":"30.617100","Longitude":"102.710300","Population":null},{"Date":"2020-01-25","Key":"CN_SD","CountryCode":"CN","CountryName":"China","RegionCode":"SD","RegionName":"Shandong","Confirmed":27,"Deaths":0,"Latitude":"36.342700","Longitude":"118.149800","Population":null},{"Date":"2020-01-25","Key":"CN_SH","CountryCode":"CN","CountryName":"China","RegionCode":"SH","RegionName":"Shanghai","Confirmed":33,"Deaths":0,"Latitude":"31.202000","Longitude":"121.449100","Population":null},{"Date":"2020-01-25","Key":"CN_SN","CountryCode":"CN","CountryName":"China","RegionCode":"SN","RegionName":"Shaanxi","Confirmed":15,"Deaths":0,"Latitude":"35.191700","Longitude":"108.870100","Population":null},{"Date":"2020-01-25","Key":"CN_SX","CountryCode":"CN","CountryName":"China","RegionCode":"SX","RegionName":"Shanxi","Confirmed":6,"Deaths":0,"Latitude":"37.577700","Longitude":"112.292200","Population":null},{"Date":"2020-01-25","Key":"CN_TJ","CountryCode":"CN","CountryName":"China","RegionCode":"TJ","RegionName":"Tianjin","Confirmed":9,"Deaths":0,"Latitude":"39.305400","Longitude":"117.323000","Population":null},{"Date":"2020-01-25","Key":"CN_XJ","CountryCode":"CN","CountryName":"China","RegionCode":"XJ","RegionName":"Xinjiang","Confirmed":3,"Deaths":0,"Latitude":"41.112900","Longitude":"85.240100","Population":null},{"Date":"2020-01-25","Key":"CN_YN","CountryCode":"CN","CountryName":"China","RegionCode":"YN","RegionName":"Yunnan","Confirmed":5,"Deaths":0,"Latitude":"24.974000","Longitude":"101.487000","Population":null},{"Date":"2020-01-25","Key":"CN_ZJ","CountryCode":"CN","CountryName":"China","RegionCode":"ZJ","RegionName":"Zhejiang","Confirmed":62,"Deaths":0,"Latitude":"29.183200","Longitude":"120.093400","Population":null},{"Date":"2020-01-26","Key":"CN","CountryCode":"CN","CountryName":"China","RegionCode":"","RegionName":"","Confirmed":1988,"Deaths":56,"Latitude":"35.861660","Longitude":"104.195397","Population":1433783686},{"Date":"2020-01-26","Key":"CN_AH","CountryCode":"CN","CountryName":"China","RegionCode":"AH","RegionName":"Anhui","Confirmed":60,"Deaths":0,"Latitude":"31.825700","Longitude":"117.226400","Population":null},{"Date":"2020-01-26","Key":"CN_BJ","CountryCode":"CN","CountryName":"China","RegionCode":"BJ","RegionName":"Beijing","Confirmed":54,"Deaths":0,"Latitude":"40.182400","Longitude":"116.414200","Population":null},{"Date":"2020-01-26","Key":"CN_CQ","CountryCode":"CN","CountryName":"China","RegionCode":"CQ","RegionName":"Chongqing","Confirmed":75,"Deaths":0,"Latitude":"30.057200","Longitude":"107.874000","Population":null},{"Date":"2020-01-26","Key":"CN_FJ","CountryCode":"CN","CountryName":"China","RegionCode":"FJ","RegionName":"Fujian","Confirmed":29,"Deaths":0,"Latitude":"26.078900","Longitude":"117.987400","Population":null},{"Date":"2020-01-26","Key":"CN_GD","CountryCode":"CN","CountryName":"China","RegionCode":"GD","RegionName":"Guangdong","Confirmed":98,"Deaths":0,"Latitude":"23.341700","Longitude":"113.424400","Population":null},{"Date":"2020-01-26","Key":"CN_GS","CountryCode":"CN","CountryName":"China","RegionCode":"GS","RegionName":"Gansu","Confirmed":7,"Deaths":0,"Latitude":"37.809900","Longitude":"101.058300","Population":null},{"Date":"2020-01-26","Key":"CN_GX","CountryCode":"CN","CountryName":"China","RegionCode":"GX","RegionName":"Guangxi","Confirmed":36,"Deaths":0,"Latitude":"23.829800","Longitude":"108.788100","Population":null},{"Date":"2020-01-26","Key":"CN_GZ","CountryCode":"CN","CountryName":"China","RegionCode":"GZ","RegionName":"Guizhou","Confirmed":5,"Deaths":0,"Latitude":"26.815400","Longitude":"106.874800","Population":null},{"Date":"2020-01-26","Key":"CN_HA","CountryCode":"CN","CountryName":"China","RegionCode":"HA","RegionName":"Henan","Confirmed":83,"Deaths":1,"Latitude":"33.882000","Longitude":"113.614000","Population":null},{"Date":"2020-01-26","Key":"CN_HB","CountryCode":"CN","CountryName":"China","RegionCode":"HB","RegionName":"Hubei","Confirmed":1058,"Deaths":52,"Latitude":"30.975600","Longitude":"112.270700","Population":null},{"Date":"2020-01-26","Key":"CN_HE","CountryCode":"CN","CountryName":"China","RegionCode":"HE","RegionName":"Hebei","Confirmed":13,"Deaths":1,"Latitude":"39.549000","Longitude":"116.130600","Population":null},{"Date":"2020-01-26","Key":"CN_HI","CountryCode":"CN","CountryName":"China","RegionCode":"HI","RegionName":"Hainan","Confirmed":22,"Deaths":0,"Latitude":"19.195900","Longitude":"109.745300","Population":null},{"Date":"2020-01-26","Key":"CN_HL","CountryCode":"CN","CountryName":"China","RegionCode":"HL","RegionName":"Heilongjiang","Confirmed":15,"Deaths":1,"Latitude":"47.862000","Longitude":"127.761500","Population":null},{"Date":"2020-01-26","Key":"CN_HN","CountryCode":"CN","CountryName":"China","RegionCode":"HN","RegionName":"Hunan","Confirmed":69,"Deaths":0,"Latitude":"27.610400","Longitude":"111.708800","Population":null},{"Date":"2020-01-26","Key":"CN_JS","CountryCode":"CN","CountryName":"China","RegionCode":"JS","RegionName":"Jiangsu","Confirmed":33,"Deaths":0,"Latitude":"32.971100","Longitude":"119.455000","Population":null},{"Date":"2020-01-26","Key":"CN_JX","CountryCode":"CN","CountryName":"China","RegionCode":"JX","RegionName":"Jiangxi","Confirmed":36,"Deaths":0,"Latitude":"27.614000","Longitude":"115.722100","Population":null},{"Date":"2020-01-26","Key":"CN_LN","CountryCode":"CN","CountryName":"China","RegionCode":"LN","RegionName":"Liaoning","Confirmed":21,"Deaths":0,"Latitude":"41.295600","Longitude":"122.608500","Population":null},{"Date":"2020-01-26","Key":"CN_NX","CountryCode":"CN","CountryName":"China","RegionCode":"NX","RegionName":"Ningxia","Confirmed":4,"Deaths":0,"Latitude":"37.269200","Longitude":"106.165500","Population":null},{"Date":"2020-01-26","Key":"CN_SC","CountryCode":"CN","CountryName":"China","RegionCode":"SC","RegionName":"Sichuan","Confirmed":44,"Deaths":0,"Latitude":"30.617100","Longitude":"102.710300","Population":null},{"Date":"2020-01-26","Key":"CN_SD","CountryCode":"CN","CountryName":"China","RegionCode":"SD","RegionName":"Shandong","Confirmed":46,"Deaths":0,"Latitude":"36.342700","Longitude":"118.149800","Population":null},{"Date":"2020-01-26","Key":"CN_SH","CountryCode":"CN","CountryName":"China","RegionCode":"SH","RegionName":"Shanghai","Confirmed":40,"Deaths":1,"Latitude":"31.202000","Longitude":"121.449100","Population":null},{"Date":"2020-01-26","Key":"CN_SN","CountryCode":"CN","CountryName":"China","RegionCode":"SN","RegionName":"Shaanxi","Confirmed":22,"Deaths":0,"Latitude":"35.191700","Longitude":"108.870100","Population":null},{"Date":"2020-01-26","Key":"CN_SX","CountryCode":"CN","CountryName":"China","RegionCode":"SX","RegionName":"Shanxi","Confirmed":9,"Deaths":0,"Latitude":"37.577700","Longitude":"112.292200","Population":null},{"Date":"2020-01-26","Key":"CN_TJ","CountryCode":"CN","CountryName":"China","RegionCode":"TJ","RegionName":"Tianjin","Confirmed":13,"Deaths":0,"Latitude":"39.305400","Longitude":"117.323000","Population":null},{"Date":"2020-01-26","Key":"CN_XJ","CountryCode":"CN","CountryName":"China","RegionCode":"XJ","RegionName":"Xinjiang","Confirmed":4,"Deaths":0,"Latitude":"41.112900","Longitude":"85.240100","Population":null},{"Date":"2020-01-26","Key":"CN_YN","CountryCode":"CN","CountryName":"China","RegionCode":"YN","RegionName":"Yunnan","Confirmed":11,"Deaths":0,"Latitude":"24.974000","Longitude":"101.487000","Population":null},{"Date":"2020-01-26","Key":"CN_ZJ","CountryCode":"CN","CountryName":"China","RegionCode":"ZJ","RegionName":"Zhejiang","Confirmed":104,"Deaths":0,"Latitude":"29.183200","Longitude":"120.093400","Population":null},{"Date":"2020-01-27","Key":"CN","CountryCode":"CN","CountryName":"China","RegionCode":"","RegionName":"","Confirmed":2775,"Deaths":81,"Latitude":"35.861660","Longitude":"104.195397","Population":1433783686},{"Date":"2020-01-27","Key":"CN_AH","CountryCode":"CN","CountryName":"China","RegionCode":"AH","RegionName":"Anhui","Confirmed":70,"Deaths":0,"Latitude":"31.825700","Longitude":"117.226400","Population":null},{"Date":"2020-01-27","Key":"CN_BJ","CountryCode":"CN","CountryName":"China","RegionCode":"BJ","RegionName":"Beijing","Confirmed":72,"Deaths":0,"Latitude":"40.182400","Longitude":"116.414200","Population":null},{"Date":"2020-01-27","Key":"CN_CQ","CountryCode":"CN","CountryName":"China","RegionCode":"CQ","RegionName":"Chongqing","Confirmed":110,"Deaths":0,"Latitude":"30.057200","Longitude":"107.874000","Population":null},{"Date":"2020-01-27","Key":"CN_FJ","CountryCode":"CN","CountryName":"China","RegionCode":"FJ","RegionName":"Fujian","Confirmed":56,"Deaths":0,"Latitude":"26.078900","Longitude":"117.987400","Population":null},{"Date":"2020-01-27","Key":"CN_GD","CountryCode":"CN","CountryName":"China","RegionCode":"GD","RegionName":"Guangdong","Confirmed":146,"Deaths":0,"Latitude":"23.341700","Longitude":"113.424400","Population":null},{"Date":"2020-01-27","Key":"CN_GS","CountryCode":"CN","CountryName":"China","RegionCode":"GS","RegionName":"Gansu","Confirmed":14,"Deaths":0,"Latitude":"37.809900","Longitude":"101.058300","Population":null},{"Date":"2020-01-27","Key":"CN_GX","CountryCode":"CN","CountryName":"China","RegionCode":"GX","RegionName":"Guangxi","Confirmed":46,"Deaths":0,"Latitude":"23.829800","Longitude":"108.788100","Population":null},{"Date":"2020-01-27","Key":"CN_GZ","CountryCode":"CN","CountryName":"China","RegionCode":"GZ","RegionName":"Guizhou","Confirmed":7,"Deaths":0,"Latitude":"26.815400","Longitude":"106.874800","Population":null},{"Date":"2020-01-27","Key":"CN_HA","CountryCode":"CN","CountryName":"China","RegionCode":"HA","RegionName":"Henan","Confirmed":128,"Deaths":1,"Latitude":"33.882000","Longitude":"113.614000","Population":null},{"Date":"2020-01-27","Key":"CN_HB","CountryCode":"CN","CountryName":"China","RegionCode":"HB","RegionName":"Hubei","Confirmed":1423,"Deaths":76,"Latitude":"30.975600","Longitude":"112.270700","Population":null},{"Date":"2020-01-27","Key":"CN_HE","CountryCode":"CN","CountryName":"China","RegionCode":"HE","RegionName":"Hebei","Confirmed":18,"Deaths":1,"Latitude":"39.549000","Longitude":"116.130600","Population":null},{"Date":"2020-01-27","Key":"CN_HI","CountryCode":"CN","CountryName":"China","RegionCode":"HI","RegionName":"Hainan","Confirmed":31,"Deaths":1,"Latitude":"19.195900","Longitude":"109.745300","Population":null},{"Date":"2020-01-27","Key":"CN_HL","CountryCode":"CN","CountryName":"China","RegionCode":"HL","RegionName":"Heilongjiang","Confirmed":21,"Deaths":1,"Latitude":"47.862000","Longitude":"127.761500","Population":null},{"Date":"2020-01-27","Key":"CN_HN","CountryCode":"CN","CountryName":"China","RegionCode":"HN","RegionName":"Hunan","Confirmed":100,"Deaths":0,"Latitude":"27.610400","Longitude":"111.708800","Population":null},{"Date":"2020-01-27","Key":"CN_JL","CountryCode":"CN","CountryName":"China","RegionCode":"JL","RegionName":"Jilin","Confirmed":6,"Deaths":0,"Latitude":"43.666100","Longitude":"126.192300","Population":null},{"Date":"2020-01-27","Key":"CN_JS","CountryCode":"CN","CountryName":"China","RegionCode":"JS","RegionName":"Jiangsu","Confirmed":47,"Deaths":0,"Latitude":"32.971100","Longitude":"119.455000","Population":null},{"Date":"2020-01-27","Key":"CN_JX","CountryCode":"CN","CountryName":"China","RegionCode":"JX","RegionName":"Jiangxi","Confirmed":48,"Deaths":0,"Latitude":"27.614000","Longitude":"115.722100","Population":null},{"Date":"2020-01-27","Key":"CN_LN","CountryCode":"CN","CountryName":"China","RegionCode":"LN","RegionName":"Liaoning","Confirmed":24,"Deaths":0,"Latitude":"41.295600","Longitude":"122.608500","Population":null},{"Date":"2020-01-27","Key":"CN_NX","CountryCode":"CN","CountryName":"China","RegionCode":"NX","RegionName":"Ningxia","Confirmed":7,"Deaths":0,"Latitude":"37.269200","Longitude":"106.165500","Population":null},{"Date":"2020-01-27","Key":"CN_QH","CountryCode":"CN","CountryName":"China","RegionCode":"QH","RegionName":"Qinghai","Confirmed":4,"Deaths":0,"Latitude":"35.745200","Longitude":"95.995600","Population":null},{"Date":"2020-01-27","Key":"CN_SC","CountryCode":"CN","CountryName":"China","RegionCode":"SC","RegionName":"Sichuan","Confirmed":69,"Deaths":0,"Latitude":"30.617100","Longitude":"102.710300","Population":null},{"Date":"2020-01-27","Key":"CN_SD","CountryCode":"CN","CountryName":"China","RegionCode":"SD","RegionName":"Shandong","Confirmed":75,"Deaths":0,"Latitude":"36.342700","Longitude":"118.149800","Population":null},{"Date":"2020-01-27","Key":"CN_SH","CountryCode":"CN","CountryName":"China","RegionCode":"SH","RegionName":"Shanghai","Confirmed":53,"Deaths":1,"Latitude":"31.202000","Longitude":"121.449100","Population":null},{"Date":"2020-01-27","Key":"CN_SN","CountryCode":"CN","CountryName":"China","RegionCode":"SN","RegionName":"Shaanxi","Confirmed":35,"Deaths":0,"Latitude":"35.191700","Longitude":"108.870100","Population":null},{"Date":"2020-01-27","Key":"CN_SX","CountryCode":"CN","CountryName":"China","RegionCode":"SX","RegionName":"Shanxi","Confirmed":13,"Deaths":0,"Latitude":"37.577700","Longitude":"112.292200","Population":null},{"Date":"2020-01-27","Key":"CN_TJ","CountryCode":"CN","CountryName":"China","RegionCode":"TJ","RegionName":"Tianjin","Confirmed":18,"Deaths":0,"Latitude":"39.305400","Longitude":"117.323000","Population":null},{"Date":"2020-01-27","Key":"CN_XJ","CountryCode":"CN","CountryName":"China","RegionCode":"XJ","RegionName":"Xinjiang","Confirmed":5,"Deaths":0,"Latitude":"41.112900","Longitude":"85.240100","Population":null},{"Date":"2020-01-27","Key":"CN_YN","CountryCode":"CN","CountryName":"China","RegionCode":"YN","RegionName":"Yunnan","Confirmed":19,"Deaths":0,"Latitude":"24.974000","Longitude":"101.487000","Population":null},{"Date":"2020-01-27","Key":"CN_ZJ","CountryCode":"CN","CountryName":"China","RegionCode":"ZJ","RegionName":"Zhejiang","Confirmed":128,"Deaths":0,"Latitude":"29.183200","Longitude":"120.093400","Population":null},{"Date":"2020-01-28","Key":"CN","CountryCode":"CN","CountryName":"China","RegionCode":"","RegionName":"","Confirmed":4528,"Deaths":106,"Latitude":"35.861660","Longitude":"104.195397","Population":1433783686},{"Date":"2020-01-28","Key":"CN_AH","CountryCode":"CN","CountryName":"China","RegionCode":"AH","RegionName":"Anhui","Confirmed":106,"Deaths":0,"Latitude":"31.825700","Longitude":"117.226400","Population":null},{"Date":"2020-01-28","Key":"CN_BJ","CountryCode":"CN","CountryName":"China","RegionCode":"BJ","RegionName":"Beijing","Confirmed":91,"Deaths":1,"Latitude":"40.182400","Longitude":"116.414200","Population":null},{"Date":"2020-01-28","Key":"CN_CQ","CountryCode":"CN","CountryName":"China","RegionCode":"CQ","RegionName":"Chongqing","Confirmed":132,"Deaths":0,"Latitude":"30.057200","Longitude":"107.874000","Population":null},{"Date":"2020-01-28","Key":"CN_FJ","CountryCode":"CN","CountryName":"China","RegionCode":"FJ","RegionName":"Fujian","Confirmed":73,"Deaths":0,"Latitude":"26.078900","Longitude":"117.987400","Population":null},{"Date":"2020-01-28","Key":"CN_GD","CountryCode":"CN","CountryName":"China","RegionCode":"GD","RegionName":"Guangdong","Confirmed":188,"Deaths":0,"Latitude":"23.341700","Longitude":"113.424400","Population":null},{"Date":"2020-01-28","Key":"CN_GS","CountryCode":"CN","CountryName":"China","RegionCode":"GS","RegionName":"Gansu","Confirmed":19,"Deaths":0,"Latitude":"37.809900","Longitude":"101.058300","Population":null},{"Date":"2020-01-28","Key":"CN_GX","CountryCode":"CN","CountryName":"China","RegionCode":"GX","RegionName":"Guangxi","Confirmed":51,"Deaths":0,"Latitude":"23.829800","Longitude":"108.788100","Population":null},{"Date":"2020-01-28","Key":"CN_GZ","CountryCode":"CN","CountryName":"China","RegionCode":"GZ","RegionName":"Guizhou","Confirmed":9,"Deaths":0,"Latitude":"26.815400","Longitude":"106.874800","Population":null},{"Date":"2020-01-28","Key":"CN_HA","CountryCode":"CN","CountryName":"China","RegionCode":"HA","RegionName":"Henan","Confirmed":168,"Deaths":1,"Latitude":"33.882000","Longitude":"113.614000","Population":null},{"Date":"2020-01-28","Key":"CN_HB","CountryCode":"CN","CountryName":"China","RegionCode":"HB","RegionName":"Hubei","Confirmed":2714,"Deaths":100,"Latitude":"30.975600","Longitude":"112.270700","Population":null},{"Date":"2020-01-28","Key":"CN_HE","CountryCode":"CN","CountryName":"China","RegionCode":"HE","RegionName":"Hebei","Confirmed":33,"Deaths":1,"Latitude":"39.549000","Longitude":"116.130600","Population":null},{"Date":"2020-01-28","Key":"CN_HI","CountryCode":"CN","CountryName":"China","RegionCode":"HI","RegionName":"Hainan","Confirmed":40,"Deaths":1,"Latitude":"19.195900","Longitude":"109.745300","Population":null},{"Date":"2020-01-28","Key":"CN_HL","CountryCode":"CN","CountryName":"China","RegionCode":"HL","RegionName":"Heilongjiang","Confirmed":30,"Deaths":1,"Latitude":"47.862000","Longitude":"127.761500","Population":null},{"Date":"2020-01-28","Key":"CN_HN","CountryCode":"CN","CountryName":"China","RegionCode":"HN","RegionName":"Hunan","Confirmed":143,"Deaths":0,"Latitude":"27.610400","Longitude":"111.708800","Population":null},{"Date":"2020-01-28","Key":"CN_JL","CountryCode":"CN","CountryName":"China","RegionCode":"JL","RegionName":"Jilin","Confirmed":8,"Deaths":0,"Latitude":"43.666100","Longitude":"126.192300","Population":null},{"Date":"2020-01-28","Key":"CN_JS","CountryCode":"CN","CountryName":"China","RegionCode":"JS","RegionName":"Jiangsu","Confirmed":70,"Deaths":0,"Latitude":"32.971100","Longitude":"119.455000","Population":null},{"Date":"2020-01-28","Key":"CN_JX","CountryCode":"CN","CountryName":"China","RegionCode":"JX","RegionName":"Jiangxi","Confirmed":72,"Deaths":0,"Latitude":"27.614000","Longitude":"115.722100","Population":null},{"Date":"2020-01-28","Key":"CN_LN","CountryCode":"CN","CountryName":"China","RegionCode":"LN","RegionName":"Liaoning","Confirmed":30,"Deaths":0,"Latitude":"41.295600","Longitude":"122.608500","Population":null},{"Date":"2020-01-28","Key":"CN_NX","CountryCode":"CN","CountryName":"China","RegionCode":"NX","RegionName":"Ningxia","Confirmed":11,"Deaths":0,"Latitude":"37.269200","Longitude":"106.165500","Population":null},{"Date":"2020-01-28","Key":"CN_QH","CountryCode":"CN","CountryName":"China","RegionCode":"QH","RegionName":"Qinghai","Confirmed":6,"Deaths":0,"Latitude":"35.745200","Longitude":"95.995600","Population":null},{"Date":"2020-01-28","Key":"CN_SC","CountryCode":"CN","CountryName":"China","RegionCode":"SC","RegionName":"Sichuan","Confirmed":90,"Deaths":0,"Latitude":"30.617100","Longitude":"102.710300","Population":null},{"Date":"2020-01-28","Key":"CN_SD","CountryCode":"CN","CountryName":"China","RegionCode":"SD","RegionName":"Shandong","Confirmed":95,"Deaths":0,"Latitude":"36.342700","Longitude":"118.149800","Population":null},{"Date":"2020-01-28","Key":"CN_SH","CountryCode":"CN","CountryName":"China","RegionCode":"SH","RegionName":"Shanghai","Confirmed":66,"Deaths":1,"Latitude":"31.202000","Longitude":"121.449100","Population":null},{"Date":"2020-01-28","Key":"CN_SN","CountryCode":"CN","CountryName":"China","RegionCode":"SN","RegionName":"Shaanxi","Confirmed":46,"Deaths":0,"Latitude":"35.191700","Longitude":"108.870100","Population":null},{"Date":"2020-01-28","Key":"CN_SX","CountryCode":"CN","CountryName":"China","RegionCode":"SX","RegionName":"Shanxi","Confirmed":20,"Deaths":0,"Latitude":"37.577700","Longitude":"112.292200","Population":null},{"Date":"2020-01-28","Key":"CN_TJ","CountryCode":"CN","CountryName":"China","RegionCode":"TJ","RegionName":"Tianjin","Confirmed":24,"Deaths":0,"Latitude":"39.305400","Longitude":"117.323000","Population":null},{"Date":"2020-01-28","Key":"CN_XJ","CountryCode":"CN","CountryName":"China","RegionCode":"XJ","RegionName":"Xinjiang","Confirmed":10,"Deaths":0,"Latitude":"41.112900","Longitude":"85.240100","Population":null},{"Date":"2020-01-28","Key":"CN_YN","CountryCode":"CN","CountryName":"China","RegionCode":"YN","RegionName":"Yunnan","Confirmed":44,"Deaths":0,"Latitude":"24.974000","Longitude":"101.487000","Population":null},{"Date":"2020-01-28","Key":"CN_ZJ","CountryCode":"CN","CountryName":"China","RegionCode":"ZJ","RegionName":"Zhejiang","Confirmed":173,"Deaths":0,"Latitude":"29.183200","Longitude":"120.093400","Population":null},{"Date":"2020-01-29","Key":"CN","CountryCode":"CN","CountryName":"China","RegionCode":"","RegionName":"","Confirmed":5994,"Deaths":132,"Latitude":"35.861660","Longitude":"104.195397","Population":1433783686},{"Date":"2020-01-29","Key":"CN_AH","CountryCode":"CN","CountryName":"China","RegionCode":"AH","RegionName":"Anhui","Confirmed":152,"Deaths":0,"Latitude":"31.825700","Longitude":"117.226400","Population":null},{"Date":"2020-01-29","Key":"CN_BJ","CountryCode":"CN","CountryName":"China","RegionCode":"BJ","RegionName":"Beijing","Confirmed":102,"Deaths":1,"Latitude":"40.182400","Longitude":"116.414200","Population":null},{"Date":"2020-01-29","Key":"CN_CQ","CountryCode":"CN","CountryName":"China","RegionCode":"CQ","RegionName":"Chongqing","Confirmed":147,"Deaths":0,"Latitude":"30.057200","Longitude":"107.874000","Population":null},{"Date":"2020-01-29","Key":"CN_FJ","CountryCode":"CN","CountryName":"China","RegionCode":"FJ","RegionName":"Fujian","Confirmed":84,"Deaths":0,"Latitude":"26.078900","Longitude":"117.987400","Population":null},{"Date":"2020-01-29","Key":"CN_GD","CountryCode":"CN","CountryName":"China","RegionCode":"GD","RegionName":"Guangdong","Confirmed":272,"Deaths":0,"Latitude":"23.341700","Longitude":"113.424400","Population":null},{"Date":"2020-01-29","Key":"CN_GS","CountryCode":"CN","CountryName":"China","RegionCode":"GS","RegionName":"Gansu","Confirmed":24,"Deaths":0,"Latitude":"37.809900","Longitude":"101.058300","Population":null},{"Date":"2020-01-29","Key":"CN_GX","CountryCode":"CN","CountryName":"China","RegionCode":"GX","RegionName":"Guangxi","Confirmed":58,"Deaths":0,"Latitude":"23.829800","Longitude":"108.788100","Population":null},{"Date":"2020-01-29","Key":"CN_GZ","CountryCode":"CN","CountryName":"China","RegionCode":"GZ","RegionName":"Guizhou","Confirmed":9,"Deaths":0,"Latitude":"26.815400","Longitude":"106.874800","Population":null},{"Date":"2020-01-29","Key":"CN_HA","CountryCode":"CN","CountryName":"China","RegionCode":"HA","RegionName":"Henan","Confirmed":206,"Deaths":2,"Latitude":"33.882000","Longitude":"113.614000","Population":null},{"Date":"2020-01-29","Key":"CN_HB","CountryCode":"CN","CountryName":"China","RegionCode":"HB","RegionName":"Hubei","Confirmed":3554,"Deaths":125,"Latitude":"30.975600","Longitude":"112.270700","Population":null},{"Date":"2020-01-29","Key":"CN_HE","CountryCode":"CN","CountryName":"China","RegionCode":"HE","RegionName":"Hebei","Confirmed":48,"Deaths":1,"Latitude":"39.549000","Longitude":"116.130600","Population":null},{"Date":"2020-01-29","Key":"CN_HI","CountryCode":"CN","CountryName":"China","RegionCode":"HI","RegionName":"Hainan","Confirmed":43,"Deaths":1,"Latitude":"19.195900","Longitude":"109.745300","Population":null},{"Date":"2020-01-29","Key":"CN_HL","CountryCode":"CN","CountryName":"China","RegionCode":"HL","RegionName":"Heilongjiang","Confirmed":38,"Deaths":1,"Latitude":"47.862000","Longitude":"127.761500","Population":null},{"Date":"2020-01-29","Key":"CN_HN","CountryCode":"CN","CountryName":"China","RegionCode":"HN","RegionName":"Hunan","Confirmed":221,"Deaths":0,"Latitude":"27.610400","Longitude":"111.708800","Population":null},{"Date":"2020-01-29","Key":"CN_JL","CountryCode":"CN","CountryName":"China","RegionCode":"JL","RegionName":"Jilin","Confirmed":9,"Deaths":0,"Latitude":"43.666100","Longitude":"126.192300","Population":null},{"Date":"2020-01-29","Key":"CN_JS","CountryCode":"CN","CountryName":"China","RegionCode":"JS","RegionName":"Jiangsu","Confirmed":99,"Deaths":0,"Latitude":"32.971100","Longitude":"119.455000","Population":null},{"Date":"2020-01-29","Key":"CN_JX","CountryCode":"CN","CountryName":"China","RegionCode":"JX","RegionName":"Jiangxi","Confirmed":109,"Deaths":0,"Latitude":"27.614000","Longitude":"115.722100","Population":null},{"Date":"2020-01-29","Key":"CN_LN","CountryCode":"CN","CountryName":"China","RegionCode":"LN","RegionName":"Liaoning","Confirmed":38,"Deaths":0,"Latitude":"41.295600","Longitude":"122.608500","Population":null},{"Date":"2020-01-29","Key":"CN_NX","CountryCode":"CN","CountryName":"China","RegionCode":"NX","RegionName":"Ningxia","Confirmed":12,"Deaths":0,"Latitude":"37.269200","Longitude":"106.165500","Population":null},{"Date":"2020-01-29","Key":"CN_SC","CountryCode":"CN","CountryName":"China","RegionCode":"SC","RegionName":"Sichuan","Confirmed":108,"Deaths":0,"Latitude":"30.617100","Longitude":"102.710300","Population":null},{"Date":"2020-01-29","Key":"CN_SD","CountryCode":"CN","CountryName":"China","RegionCode":"SD","RegionName":"Shandong","Confirmed":130,"Deaths":0,"Latitude":"36.342700","Longitude":"118.149800","Population":null},{"Date":"2020-01-29","Key":"CN_SH","CountryCode":"CN","CountryName":"China","RegionCode":"SH","RegionName":"Shanghai","Confirmed":96,"Deaths":1,"Latitude":"31.202000","Longitude":"121.449100","Population":null},{"Date":"2020-01-29","Key":"CN_SN","CountryCode":"CN","CountryName":"China","RegionCode":"SN","RegionName":"Shaanxi","Confirmed":56,"Deaths":0,"Latitude":"35.191700","Longitude":"108.870100","Population":null},{"Date":"2020-01-29","Key":"CN_SX","CountryCode":"CN","CountryName":"China","RegionCode":"SX","RegionName":"Shanxi","Confirmed":27,"Deaths":0,"Latitude":"37.577700","Longitude":"112.292200","Population":null},{"Date":"2020-01-29","Key":"CN_TJ","CountryCode":"CN","CountryName":"China","RegionCode":"TJ","RegionName":"Tianjin","Confirmed":27,"Deaths":0,"Latitude":"39.305400","Longitude":"117.323000","Population":null},{"Date":"2020-01-29","Key":"CN_XJ","CountryCode":"CN","CountryName":"China","RegionCode":"XJ","RegionName":"Xinjiang","Confirmed":13,"Deaths":0,"Latitude":"41.112900","Longitude":"85.240100","Population":null},{"Date":"2020-01-29","Key":"CN_YN","CountryCode":"CN","CountryName":"China","RegionCode":"YN","RegionName":"Yunnan","Confirmed":55,"Deaths":0,"Latitude":"24.974000","Longitude":"101.487000","Population":null},{"Date":"2020-01-29","Key":"CN_ZJ","CountryCode":"CN","CountryName":"China","RegionCode":"ZJ","RegionName":"Zhejiang","Confirmed":296,"Deaths":0,"Latitude":"29.183200","Longitude":"120.093400","Population":null},{"Date":"2020-01-30","Key":"CN","CountryCode":"CN","CountryName":"China","RegionCode":"","RegionName":"","Confirmed":7734,"Deaths":170,"Latitude":"35.861660","Longitude":"104.195397","Population":1433783686},{"Date":"2020-01-30","Key":"CN_AH","CountryCode":"CN","CountryName":"China","RegionCode":"AH","RegionName":"Anhui","Confirmed":200,"Deaths":0,"Latitude":"31.825700","Longitude":"117.226400","Population":null},{"Date":"2020-01-30","Key":"CN_BJ","CountryCode":"CN","CountryName":"China","RegionCode":"BJ","RegionName":"Beijing","Confirmed":114,"Deaths":1,"Latitude":"40.182400","Longitude":"116.414200","Population":null},{"Date":"2020-01-30","Key":"CN_CQ","CountryCode":"CN","CountryName":"China","RegionCode":"CQ","RegionName":"Chongqing","Confirmed":182,"Deaths":0,"Latitude":"30.057200","Longitude":"107.874000","Population":null},{"Date":"2020-01-30","Key":"CN_FJ","CountryCode":"CN","CountryName":"China","RegionCode":"FJ","RegionName":"Fujian","Confirmed":101,"Deaths":0,"Latitude":"26.078900","Longitude":"117.987400","Population":null},{"Date":"2020-01-30","Key":"CN_GD","CountryCode":"CN","CountryName":"China","RegionCode":"GD","RegionName":"Guangdong","Confirmed":354,"Deaths":0,"Latitude":"23.341700","Longitude":"113.424400","Population":null},{"Date":"2020-01-30","Key":"CN_GS","CountryCode":"CN","CountryName":"China","RegionCode":"GS","RegionName":"Gansu","Confirmed":26,"Deaths":0,"Latitude":"37.809900","Longitude":"101.058300","Population":null},{"Date":"2020-01-30","Key":"CN_GX","CountryCode":"CN","CountryName":"China","RegionCode":"GX","RegionName":"Guangxi","Confirmed":78,"Deaths":0,"Latitude":"23.829800","Longitude":"108.788100","Population":null},{"Date":"2020-01-30","Key":"CN_GZ","CountryCode":"CN","CountryName":"China","RegionCode":"GZ","RegionName":"Guizhou","Confirmed":12,"Deaths":0,"Latitude":"26.815400","Longitude":"106.874800","Population":null},{"Date":"2020-01-30","Key":"CN_HA","CountryCode":"CN","CountryName":"China","RegionCode":"HA","RegionName":"Henan","Confirmed":278,"Deaths":2,"Latitude":"33.882000","Longitude":"113.614000","Population":null},{"Date":"2020-01-30","Key":"CN_HB","CountryCode":"CN","CountryName":"China","RegionCode":"HB","RegionName":"Hubei","Confirmed":4586,"Deaths":162,"Latitude":"30.975600","Longitude":"112.270700","Population":null},{"Date":"2020-01-30","Key":"CN_HE","CountryCode":"CN","CountryName":"China","RegionCode":"HE","RegionName":"Hebei","Confirmed":65,"Deaths":1,"Latitude":"39.549000","Longitude":"116.130600","Population":null},{"Date":"2020-01-30","Key":"CN_HI","CountryCode":"CN","CountryName":"China","RegionCode":"HI","RegionName":"Hainan","Confirmed":46,"Deaths":1,"Latitude":"19.195900","Longitude":"109.745300","Population":null},{"Date":"2020-01-30","Key":"CN_HL","CountryCode":"CN","CountryName":"China","RegionCode":"HL","RegionName":"Heilongjiang","Confirmed":43,"Deaths":1,"Latitude":"47.862000","Longitude":"127.761500","Population":null},{"Date":"2020-01-30","Key":"CN_HN","CountryCode":"CN","CountryName":"China","RegionCode":"HN","RegionName":"Hunan","Confirmed":277,"Deaths":0,"Latitude":"27.610400","Longitude":"111.708800","Population":null},{"Date":"2020-01-30","Key":"CN_JL","CountryCode":"CN","CountryName":"China","RegionCode":"JL","RegionName":"Jilin","Confirmed":14,"Deaths":0,"Latitude":"43.666100","Longitude":"126.192300","Population":null},{"Date":"2020-01-30","Key":"CN_JS","CountryCode":"CN","CountryName":"China","RegionCode":"JS","RegionName":"Jiangsu","Confirmed":129,"Deaths":0,"Latitude":"32.971100","Longitude":"119.455000","Population":null},{"Date":"2020-01-30","Key":"CN_JX","CountryCode":"CN","CountryName":"China","RegionCode":"JX","RegionName":"Jiangxi","Confirmed":162,"Deaths":0,"Latitude":"27.614000","Longitude":"115.722100","Population":null},{"Date":"2020-01-30","Key":"CN_LN","CountryCode":"CN","CountryName":"China","RegionCode":"LN","RegionName":"Liaoning","Confirmed":41,"Deaths":0,"Latitude":"41.295600","Longitude":"122.608500","Population":null},{"Date":"2020-01-30","Key":"CN_NX","CountryCode":"CN","CountryName":"China","RegionCode":"NX","RegionName":"Ningxia","Confirmed":17,"Deaths":0,"Latitude":"37.269200","Longitude":"106.165500","Population":null},{"Date":"2020-01-30","Key":"CN_SC","CountryCode":"CN","CountryName":"China","RegionCode":"SC","RegionName":"Sichuan","Confirmed":142,"Deaths":1,"Latitude":"30.617100","Longitude":"102.710300","Population":null},{"Date":"2020-01-30","Key":"CN_SD","CountryCode":"CN","CountryName":"China","RegionCode":"SD","RegionName":"Shandong","Confirmed":158,"Deaths":0,"Latitude":"36.342700","Longitude":"118.149800","Population":null},{"Date":"2020-01-30","Key":"CN_SH","CountryCode":"CN","CountryName":"China","RegionCode":"SH","RegionName":"Shanghai","Confirmed":112,"Deaths":1,"Latitude":"31.202000","Longitude":"121.449100","Population":null},{"Date":"2020-01-30","Key":"CN_SN","CountryCode":"CN","CountryName":"China","RegionCode":"SN","RegionName":"Shaanxi","Confirmed":63,"Deaths":0,"Latitude":"35.191700","Longitude":"108.870100","Population":null},{"Date":"2020-01-30","Key":"CN_SX","CountryCode":"CN","CountryName":"China","RegionCode":"SX","RegionName":"Shanxi","Confirmed":35,"Deaths":0,"Latitude":"37.577700","Longitude":"112.292200","Population":null},{"Date":"2020-01-30","Key":"CN_TJ","CountryCode":"CN","CountryName":"China","RegionCode":"TJ","RegionName":"Tianjin","Confirmed":29,"Deaths":0,"Latitude":"39.305400","Longitude":"117.323000","Population":null},{"Date":"2020-01-30","Key":"CN_XJ","CountryCode":"CN","CountryName":"China","RegionCode":"XJ","RegionName":"Xinjiang","Confirmed":14,"Deaths":0,"Latitude":"41.112900","Longitude":"85.240100","Population":null},{"Date":"2020-01-30","Key":"CN_YN","CountryCode":"CN","CountryName":"China","RegionCode":"YN","RegionName":"Yunnan","Confirmed":70,"Deaths":0,"Latitude":"24.974000","Longitude":"101.487000","Population":null},{"Date":"2020-01-30","Key":"CN_ZJ","CountryCode":"CN","CountryName":"China","RegionCode":"ZJ","RegionName":"Zhejiang","Confirmed":428,"Deaths":0,"Latitude":"29.183200","Longitude":"120.093400","Population":null},{"Date":"2020-01-31","Key":"CN","CountryCode":"CN","CountryName":"China","RegionCode":"","RegionName":"","Confirmed":9714,"Deaths":213,"Latitude":"35.861660","Longitude":"104.195397","Population":1433783686},{"Date":"2020-01-31","Key":"CN_AH","CountryCode":"CN","CountryName":"China","RegionCode":"AH","RegionName":"Anhui","Confirmed":237,"Deaths":0,"Latitude":"31.825700","Longitude":"117.226400","Population":null},{"Date":"2020-01-31","Key":"CN_BJ","CountryCode":"CN","CountryName":"China","RegionCode":"BJ","RegionName":"Beijing","Confirmed":139,"Deaths":1,"Latitude":"40.182400","Longitude":"116.414200","Population":null},{"Date":"2020-01-31","Key":"CN_CQ","CountryCode":"CN","CountryName":"China","RegionCode":"CQ","RegionName":"Chongqing","Confirmed":211,"Deaths":0,"Latitude":"30.057200","Longitude":"107.874000","Population":null},{"Date":"2020-01-31","Key":"CN_FJ","CountryCode":"CN","CountryName":"China","RegionCode":"FJ","RegionName":"Fujian","Confirmed":120,"Deaths":0,"Latitude":"26.078900","Longitude":"117.987400","Population":null},{"Date":"2020-01-31","Key":"CN_GD","CountryCode":"CN","CountryName":"China","RegionCode":"GD","RegionName":"Guangdong","Confirmed":436,"Deaths":0,"Latitude":"23.341700","Longitude":"113.424400","Population":null},{"Date":"2020-01-31","Key":"CN_GS","CountryCode":"CN","CountryName":"China","RegionCode":"GS","RegionName":"Gansu","Confirmed":29,"Deaths":0,"Latitude":"37.809900","Longitude":"101.058300","Population":null},{"Date":"2020-01-31","Key":"CN_GX","CountryCode":"CN","CountryName":"China","RegionCode":"GX","RegionName":"Guangxi","Confirmed":87,"Deaths":0,"Latitude":"23.829800","Longitude":"108.788100","Population":null},{"Date":"2020-01-31","Key":"CN_GZ","CountryCode":"CN","CountryName":"China","RegionCode":"GZ","RegionName":"Guizhou","Confirmed":29,"Deaths":0,"Latitude":"26.815400","Longitude":"106.874800","Population":null},{"Date":"2020-01-31","Key":"CN_HA","CountryCode":"CN","CountryName":"China","RegionCode":"HA","RegionName":"Henan","Confirmed":352,"Deaths":2,"Latitude":"33.882000","Longitude":"113.614000","Population":null},{"Date":"2020-01-31","Key":"CN_HB","CountryCode":"CN","CountryName":"China","RegionCode":"HB","RegionName":"Hubei","Confirmed":5806,"Deaths":204,"Latitude":"30.975600","Longitude":"112.270700","Population":null},{"Date":"2020-01-31","Key":"CN_HE","CountryCode":"CN","CountryName":"China","RegionCode":"HE","RegionName":"Hebei","Confirmed":82,"Deaths":1,"Latitude":"39.549000","Longitude":"116.130600","Population":null},{"Date":"2020-01-31","Key":"CN_HI","CountryCode":"CN","CountryName":"China","RegionCode":"HI","RegionName":"Hainan","Confirmed":52,"Deaths":1,"Latitude":"19.195900","Longitude":"109.745300","Population":null},{"Date":"2020-01-31","Key":"CN_HL","CountryCode":"CN","CountryName":"China","RegionCode":"HL","RegionName":"Heilongjiang","Confirmed":59,"Deaths":2,"Latitude":"47.862000","Longitude":"127.761500","Population":null},{"Date":"2020-01-31","Key":"CN_HN","CountryCode":"CN","CountryName":"China","RegionCode":"HN","RegionName":"Hunan","Confirmed":332,"Deaths":0,"Latitude":"27.610400","Longitude":"111.708800","Population":null},{"Date":"2020-01-31","Key":"CN_JL","CountryCode":"CN","CountryName":"China","RegionCode":"JL","RegionName":"Jilin","Confirmed":14,"Deaths":0,"Latitude":"43.666100","Longitude":"126.192300","Population":null},{"Date":"2020-01-31","Key":"CN_JS","CountryCode":"CN","CountryName":"China","RegionCode":"JS","RegionName":"Jiangsu","Confirmed":168,"Deaths":0,"Latitude":"32.971100","Longitude":"119.455000","Population":null},{"Date":"2020-01-31","Key":"CN_JX","CountryCode":"CN","CountryName":"China","RegionCode":"JX","RegionName":"Jiangxi","Confirmed":240,"Deaths":0,"Latitude":"27.614000","Longitude":"115.722100","Population":null},{"Date":"2020-01-31","Key":"CN_LN","CountryCode":"CN","CountryName":"China","RegionCode":"LN","RegionName":"Liaoning","Confirmed":48,"Deaths":0,"Latitude":"41.295600","Longitude":"122.608500","Population":null},{"Date":"2020-01-31","Key":"CN_NX","CountryCode":"CN","CountryName":"China","RegionCode":"NX","RegionName":"Ningxia","Confirmed":21,"Deaths":0,"Latitude":"37.269200","Longitude":"106.165500","Population":null},{"Date":"2020-01-31","Key":"CN_QH","CountryCode":"CN","CountryName":"China","RegionCode":"QH","RegionName":"Qinghai","Confirmed":8,"Deaths":0,"Latitude":"35.745200","Longitude":"95.995600","Population":null},{"Date":"2020-01-31","Key":"CN_SC","CountryCode":"CN","CountryName":"China","RegionCode":"SC","RegionName":"Sichuan","Confirmed":177,"Deaths":1,"Latitude":"30.617100","Longitude":"102.710300","Population":null},{"Date":"2020-01-31","Key":"CN_SD","CountryCode":"CN","CountryName":"China","RegionCode":"SD","RegionName":"Shandong","Confirmed":184,"Deaths":0,"Latitude":"36.342700","Longitude":"118.149800","Population":null},{"Date":"2020-01-31","Key":"CN_SH","CountryCode":"CN","CountryName":"China","RegionCode":"SH","RegionName":"Shanghai","Confirmed":135,"Deaths":1,"Latitude":"31.202000","Longitude":"121.449100","Population":null},{"Date":"2020-01-31","Key":"CN_SN","CountryCode":"CN","CountryName":"China","RegionCode":"SN","RegionName":"Shaanxi","Confirmed":87,"Deaths":0,"Latitude":"35.191700","Longitude":"108.870100","Population":null},{"Date":"2020-01-31","Key":"CN_SX","CountryCode":"CN","CountryName":"China","RegionCode":"SX","RegionName":"Shanxi","Confirmed":39,"Deaths":0,"Latitude":"37.577700","Longitude":"112.292200","Population":null},{"Date":"2020-01-31","Key":"CN_TJ","CountryCode":"CN","CountryName":"China","RegionCode":"TJ","RegionName":"Tianjin","Confirmed":32,"Deaths":0,"Latitude":"39.305400","Longitude":"117.323000","Population":null},{"Date":"2020-01-31","Key":"CN_XJ","CountryCode":"CN","CountryName":"China","RegionCode":"XJ","RegionName":"Xinjiang","Confirmed":17,"Deaths":0,"Latitude":"41.112900","Longitude":"85.240100","Population":null},{"Date":"2020-01-31","Key":"CN_YN","CountryCode":"CN","CountryName":"China","RegionCode":"YN","RegionName":"Yunnan","Confirmed":83,"Deaths":0,"Latitude":"24.974000","Longitude":"101.487000","Population":null},{"Date":"2020-01-31","Key":"CN_ZJ","CountryCode":"CN","CountryName":"China","RegionCode":"ZJ","RegionName":"Zhejiang","Confirmed":538,"Deaths":0,"Latitude":"29.183200","Longitude":"120.093400","Population":null},{"Date":"2020-02-01","Key":"CN","CountryCode":"CN","CountryName":"China","RegionCode":"","RegionName":"","Confirmed":11809,"Deaths":259,"Latitude":"35.861660","Longitude":"104.195397","Population":1433783686},{"Date":"2020-02-01","Key":"CN_AH","CountryCode":"CN","CountryName":"China","RegionCode":"AH","RegionName":"Anhui","Confirmed":297,"Deaths":0,"Latitude":"31.825700","Longitude":"117.226400","Population":null},{"Date":"2020-02-01","Key":"CN_BJ","CountryCode":"CN","CountryName":"China","RegionCode":"BJ","RegionName":"Beijing","Confirmed":168,"Deaths":1,"Latitude":"40.182400","Longitude":"116.414200","Population":null},{"Date":"2020-02-01","Key":"CN_CQ","CountryCode":"CN","CountryName":"China","RegionCode":"CQ","RegionName":"Chongqing","Confirmed":247,"Deaths":1,"Latitude":"30.057200","Longitude":"107.874000","Population":null},{"Date":"2020-02-01","Key":"CN_FJ","CountryCode":"CN","CountryName":"China","RegionCode":"FJ","RegionName":"Fujian","Confirmed":144,"Deaths":0,"Latitude":"26.078900","Longitude":"117.987400","Population":null},{"Date":"2020-02-01","Key":"CN_GD","CountryCode":"CN","CountryName":"China","RegionCode":"GD","RegionName":"Guangdong","Confirmed":535,"Deaths":0,"Latitude":"23.341700","Longitude":"113.424400","Population":null},{"Date":"2020-02-01","Key":"CN_GS","CountryCode":"CN","CountryName":"China","RegionCode":"GS","RegionName":"Gansu","Confirmed":35,"Deaths":0,"Latitude":"37.809900","Longitude":"101.058300","Population":null},{"Date":"2020-02-01","Key":"CN_GX","CountryCode":"CN","CountryName":"China","RegionCode":"GX","RegionName":"Guangxi","Confirmed":100,"Deaths":0,"Latitude":"23.829800","Longitude":"108.788100","Population":null},{"Date":"2020-02-01","Key":"CN_GZ","CountryCode":"CN","CountryName":"China","RegionCode":"GZ","RegionName":"Guizhou","Confirmed":29,"Deaths":0,"Latitude":"26.815400","Longitude":"106.874800","Population":null},{"Date":"2020-02-01","Key":"CN_HA","CountryCode":"CN","CountryName":"China","RegionCode":"HA","RegionName":"Henan","Confirmed":422,"Deaths":2,"Latitude":"33.882000","Longitude":"113.614000","Population":null},{"Date":"2020-02-01","Key":"CN_HB","CountryCode":"CN","CountryName":"China","RegionCode":"HB","RegionName":"Hubei","Confirmed":7153,"Deaths":249,"Latitude":"30.975600","Longitude":"112.270700","Population":null},{"Date":"2020-02-01","Key":"CN_HE","CountryCode":"CN","CountryName":"China","RegionCode":"HE","RegionName":"Hebei","Confirmed":96,"Deaths":1,"Latitude":"39.549000","Longitude":"116.130600","Population":null},{"Date":"2020-02-01","Key":"CN_HI","CountryCode":"CN","CountryName":"China","RegionCode":"HI","RegionName":"Hainan","Confirmed":62,"Deaths":1,"Latitude":"19.195900","Longitude":"109.745300","Population":null},{"Date":"2020-02-01","Key":"CN_HL","CountryCode":"CN","CountryName":"China","RegionCode":"HL","RegionName":"Heilongjiang","Confirmed":80,"Deaths":2,"Latitude":"47.862000","Longitude":"127.761500","Population":null},{"Date":"2020-02-01","Key":"CN_HN","CountryCode":"CN","CountryName":"China","RegionCode":"HN","RegionName":"Hunan","Confirmed":389,"Deaths":0,"Latitude":"27.610400","Longitude":"111.708800","Population":null},{"Date":"2020-02-01","Key":"CN_JL","CountryCode":"CN","CountryName":"China","RegionCode":"JL","RegionName":"Jilin","Confirmed":17,"Deaths":0,"Latitude":"43.666100","Longitude":"126.192300","Population":null},{"Date":"2020-02-01","Key":"CN_JS","CountryCode":"CN","CountryName":"China","RegionCode":"JS","RegionName":"Jiangsu","Confirmed":202,"Deaths":0,"Latitude":"32.971100","Longitude":"119.455000","Population":null},{"Date":"2020-02-01","Key":"CN_JX","CountryCode":"CN","CountryName":"China","RegionCode":"JX","RegionName":"Jiangxi","Confirmed":286,"Deaths":0,"Latitude":"27.614000","Longitude":"115.722100","Population":null},{"Date":"2020-02-01","Key":"CN_LN","CountryCode":"CN","CountryName":"China","RegionCode":"LN","RegionName":"Liaoning","Confirmed":63,"Deaths":0,"Latitude":"41.295600","Longitude":"122.608500","Population":null},{"Date":"2020-02-01","Key":"CN_NX","CountryCode":"CN","CountryName":"China","RegionCode":"NX","RegionName":"Ningxia","Confirmed":26,"Deaths":0,"Latitude":"37.269200","Longitude":"106.165500","Population":null},{"Date":"2020-02-01","Key":"CN_QH","CountryCode":"CN","CountryName":"China","RegionCode":"QH","RegionName":"Qinghai","Confirmed":9,"Deaths":0,"Latitude":"35.745200","Longitude":"95.995600","Population":null},{"Date":"2020-02-01","Key":"CN_SC","CountryCode":"CN","CountryName":"China","RegionCode":"SC","RegionName":"Sichuan","Confirmed":207,"Deaths":1,"Latitude":"30.617100","Longitude":"102.710300","Population":null},{"Date":"2020-02-01","Key":"CN_SD","CountryCode":"CN","CountryName":"China","RegionCode":"SD","RegionName":"Shandong","Confirmed":206,"Deaths":0,"Latitude":"36.342700","Longitude":"118.149800","Population":null},{"Date":"2020-02-01","Key":"CN_SH","CountryCode":"CN","CountryName":"China","RegionCode":"SH","RegionName":"Shanghai","Confirmed":169,"Deaths":1,"Latitude":"31.202000","Longitude":"121.449100","Population":null},{"Date":"2020-02-01","Key":"CN_SN","CountryCode":"CN","CountryName":"China","RegionCode":"SN","RegionName":"Shaanxi","Confirmed":101,"Deaths":0,"Latitude":"35.191700","Longitude":"108.870100","Population":null},{"Date":"2020-02-01","Key":"CN_SX","CountryCode":"CN","CountryName":"China","RegionCode":"SX","RegionName":"Shanxi","Confirmed":47,"Deaths":0,"Latitude":"37.577700","Longitude":"112.292200","Population":null},{"Date":"2020-02-01","Key":"CN_TJ","CountryCode":"CN","CountryName":"China","RegionCode":"TJ","RegionName":"Tianjin","Confirmed":37,"Deaths":0,"Latitude":"39.305400","Longitude":"117.323000","Population":null},{"Date":"2020-02-01","Key":"CN_XJ","CountryCode":"CN","CountryName":"China","RegionCode":"XJ","RegionName":"Xinjiang","Confirmed":18,"Deaths":0,"Latitude":"41.112900","Longitude":"85.240100","Population":null},{"Date":"2020-02-01","Key":"CN_YN","CountryCode":"CN","CountryName":"China","RegionCode":"YN","RegionName":"Yunnan","Confirmed":91,"Deaths":0,"Latitude":"24.974000","Longitude":"101.487000","Population":null},{"Date":"2020-02-01","Key":"CN_ZJ","CountryCode":"CN","CountryName":"China","RegionCode":"ZJ","RegionName":"Zhejiang","Confirmed":599,"Deaths":0,"Latitude":"29.183200","Longitude":"120.093400","Population":null},{"Date":"2020-02-02","Key":"CN","CountryCode":"CN","CountryName":"China","RegionCode":"","RegionName":"","Confirmed":14399,"Deaths":304,"Latitude":"35.861660","Longitude":"104.195397","Population":1433783686},{"Date":"2020-02-02","Key":"CN_AH","CountryCode":"CN","CountryName":"China","RegionCode":"AH","RegionName":"Anhui","Confirmed":340,"Deaths":0,"Latitude":"31.825700","Longitude":"117.226400","Population":null},{"Date":"2020-02-02","Key":"CN_BJ","CountryCode":"CN","CountryName":"China","RegionCode":"BJ","RegionName":"Beijing","Confirmed":191,"Deaths":1,"Latitude":"40.182400","Longitude":"116.414200","Population":null},{"Date":"2020-02-02","Key":"CN_CQ","CountryCode":"CN","CountryName":"China","RegionCode":"CQ","RegionName":"Chongqing","Confirmed":275,"Deaths":1,"Latitude":"30.057200","Longitude":"107.874000","Population":null},{"Date":"2020-02-02","Key":"CN_FJ","CountryCode":"CN","CountryName":"China","RegionCode":"FJ","RegionName":"Fujian","Confirmed":159,"Deaths":0,"Latitude":"26.078900","Longitude":"117.987400","Population":null},{"Date":"2020-02-02","Key":"CN_GD","CountryCode":"CN","CountryName":"China","RegionCode":"GD","RegionName":"Guangdong","Confirmed":632,"Deaths":0,"Latitude":"23.341700","Longitude":"113.424400","Population":null},{"Date":"2020-02-02","Key":"CN_GS","CountryCode":"CN","CountryName":"China","RegionCode":"GS","RegionName":"Gansu","Confirmed":40,"Deaths":0,"Latitude":"37.809900","Longitude":"101.058300","Population":null},{"Date":"2020-02-02","Key":"CN_GX","CountryCode":"CN","CountryName":"China","RegionCode":"GX","RegionName":"Guangxi","Confirmed":111,"Deaths":0,"Latitude":"23.829800","Longitude":"108.788100","Population":null},{"Date":"2020-02-02","Key":"CN_GZ","CountryCode":"CN","CountryName":"China","RegionCode":"GZ","RegionName":"Guizhou","Confirmed":38,"Deaths":0,"Latitude":"26.815400","Longitude":"106.874800","Population":null},{"Date":"2020-02-02","Key":"CN_HA","CountryCode":"CN","CountryName":"China","RegionCode":"HA","RegionName":"Henan","Confirmed":493,"Deaths":2,"Latitude":"33.882000","Longitude":"113.614000","Population":null},{"Date":"2020-02-02","Key":"CN_HB","CountryCode":"CN","CountryName":"China","RegionCode":"HB","RegionName":"Hubei","Confirmed":9074,"Deaths":294,"Latitude":"30.975600","Longitude":"112.270700","Population":null},{"Date":"2020-02-02","Key":"CN_HE","CountryCode":"CN","CountryName":"China","RegionCode":"HE","RegionName":"Hebei","Confirmed":104,"Deaths":1,"Latitude":"39.549000","Longitude":"116.130600","Population":null},{"Date":"2020-02-02","Key":"CN_HI","CountryCode":"CN","CountryName":"China","RegionCode":"HI","RegionName":"Hainan","Confirmed":64,"Deaths":1,"Latitude":"19.195900","Longitude":"109.745300","Population":null},{"Date":"2020-02-02","Key":"CN_HL","CountryCode":"CN","CountryName":"China","RegionCode":"HL","RegionName":"Heilongjiang","Confirmed":95,"Deaths":2,"Latitude":"47.862000","Longitude":"127.761500","Population":null},{"Date":"2020-02-02","Key":"CN_HN","CountryCode":"CN","CountryName":"China","RegionCode":"HN","RegionName":"Hunan","Confirmed":463,"Deaths":0,"Latitude":"27.610400","Longitude":"111.708800","Population":null},{"Date":"2020-02-02","Key":"CN_JL","CountryCode":"CN","CountryName":"China","RegionCode":"JL","RegionName":"Jilin","Confirmed":23,"Deaths":0,"Latitude":"43.666100","Longitude":"126.192300","Population":null},{"Date":"2020-02-02","Key":"CN_JS","CountryCode":"CN","CountryName":"China","RegionCode":"JS","RegionName":"Jiangsu","Confirmed":236,"Deaths":0,"Latitude":"32.971100","Longitude":"119.455000","Population":null},{"Date":"2020-02-02","Key":"CN_JX","CountryCode":"CN","CountryName":"China","RegionCode":"JX","RegionName":"Jiangxi","Confirmed":333,"Deaths":0,"Latitude":"27.614000","Longitude":"115.722100","Population":null},{"Date":"2020-02-02","Key":"CN_LN","CountryCode":"CN","CountryName":"China","RegionCode":"LN","RegionName":"Liaoning","Confirmed":69,"Deaths":0,"Latitude":"41.295600","Longitude":"122.608500","Population":null},{"Date":"2020-02-02","Key":"CN_NX","CountryCode":"CN","CountryName":"China","RegionCode":"NX","RegionName":"Ningxia","Confirmed":28,"Deaths":0,"Latitude":"37.269200","Longitude":"106.165500","Population":null},{"Date":"2020-02-02","Key":"CN_QH","CountryCode":"CN","CountryName":"China","RegionCode":"QH","RegionName":"Qinghai","Confirmed":11,"Deaths":0,"Latitude":"35.745200","Longitude":"95.995600","Population":null},{"Date":"2020-02-02","Key":"CN_SC","CountryCode":"CN","CountryName":"China","RegionCode":"SC","RegionName":"Sichuan","Confirmed":231,"Deaths":1,"Latitude":"30.617100","Longitude":"102.710300","Population":null},{"Date":"2020-02-02","Key":"CN_SD","CountryCode":"CN","CountryName":"China","RegionCode":"SD","RegionName":"Shandong","Confirmed":230,"Deaths":0,"Latitude":"36.342700","Longitude":"118.149800","Population":null},{"Date":"2020-02-02","Key":"CN_SH","CountryCode":"CN","CountryName":"China","RegionCode":"SH","RegionName":"Shanghai","Confirmed":182,"Deaths":1,"Latitude":"31.202000","Longitude":"121.449100","Population":null},{"Date":"2020-02-02","Key":"CN_SN","CountryCode":"CN","CountryName":"China","RegionCode":"SN","RegionName":"Shaanxi","Confirmed":116,"Deaths":0,"Latitude":"35.191700","Longitude":"108.870100","Population":null},{"Date":"2020-02-02","Key":"CN_SX","CountryCode":"CN","CountryName":"China","RegionCode":"SX","RegionName":"Shanxi","Confirmed":56,"Deaths":0,"Latitude":"37.577700","Longitude":"112.292200","Population":null},{"Date":"2020-02-02","Key":"CN_TJ","CountryCode":"CN","CountryName":"China","RegionCode":"TJ","RegionName":"Tianjin","Confirmed":48,"Deaths":0,"Latitude":"39.305400","Longitude":"117.323000","Population":null},{"Date":"2020-02-02","Key":"CN_XJ","CountryCode":"CN","CountryName":"China","RegionCode":"XJ","RegionName":"Xinjiang","Confirmed":21,"Deaths":0,"Latitude":"41.112900","Longitude":"85.240100","Population":null},{"Date":"2020-02-02","Key":"CN_YN","CountryCode":"CN","CountryName":"China","RegionCode":"YN","RegionName":"Yunnan","Confirmed":99,"Deaths":0,"Latitude":"24.974000","Longitude":"101.487000","Population":null},{"Date":"2020-02-02","Key":"CN_ZJ","CountryCode":"CN","CountryName":"China","RegionCode":"ZJ","RegionName":"Zhejiang","Confirmed":661,"Deaths":0,"Latitude":"29.183200","Longitude":"120.093400","Population":null},{"Date":"2020-02-03","Key":"CN","CountryCode":"CN","CountryName":"China","RegionCode":"","RegionName":"","Confirmed":17211,"Deaths":361,"Latitude":"35.861660","Longitude":"104.195397","Population":1433783686},{"Date":"2020-02-03","Key":"CN_AH","CountryCode":"CN","CountryName":"China","RegionCode":"AH","RegionName":"Anhui","Confirmed":408,"Deaths":0,"Latitude":"31.825700","Longitude":"117.226400","Population":null},{"Date":"2020-02-03","Key":"CN_BJ","CountryCode":"CN","CountryName":"China","RegionCode":"BJ","RegionName":"Beijing","Confirmed":212,"Deaths":1,"Latitude":"40.182400","Longitude":"116.414200","Population":null},{"Date":"2020-02-03","Key":"CN_CQ","CountryCode":"CN","CountryName":"China","RegionCode":"CQ","RegionName":"Chongqing","Confirmed":312,"Deaths":2,"Latitude":"30.057200","Longitude":"107.874000","Population":null},{"Date":"2020-02-03","Key":"CN_FJ","CountryCode":"CN","CountryName":"China","RegionCode":"FJ","RegionName":"Fujian","Confirmed":179,"Deaths":0,"Latitude":"26.078900","Longitude":"117.987400","Population":null},{"Date":"2020-02-03","Key":"CN_GD","CountryCode":"CN","CountryName":"China","RegionCode":"GD","RegionName":"Guangdong","Confirmed":725,"Deaths":0,"Latitude":"23.341700","Longitude":"113.424400","Population":null},{"Date":"2020-02-03","Key":"CN_GS","CountryCode":"CN","CountryName":"China","RegionCode":"GS","RegionName":"Gansu","Confirmed":51,"Deaths":0,"Latitude":"37.809900","Longitude":"101.058300","Population":null},{"Date":"2020-02-03","Key":"CN_GX","CountryCode":"CN","CountryName":"China","RegionCode":"GX","RegionName":"Guangxi","Confirmed":127,"Deaths":0,"Latitude":"23.829800","Longitude":"108.788100","Population":null},{"Date":"2020-02-03","Key":"CN_GZ","CountryCode":"CN","CountryName":"China","RegionCode":"GZ","RegionName":"Guizhou","Confirmed":46,"Deaths":0,"Latitude":"26.815400","Longitude":"106.874800","Population":null},{"Date":"2020-02-03","Key":"CN_HA","CountryCode":"CN","CountryName":"China","RegionCode":"HA","RegionName":"Henan","Confirmed":566,"Deaths":2,"Latitude":"33.882000","Longitude":"113.614000","Population":null},{"Date":"2020-02-03","Key":"CN_HB","CountryCode":"CN","CountryName":"China","RegionCode":"HB","RegionName":"Hubei","Confirmed":11177,"Deaths":350,"Latitude":"30.975600","Longitude":"112.270700","Population":null},{"Date":"2020-02-03","Key":"CN_HE","CountryCode":"CN","CountryName":"China","RegionCode":"HE","RegionName":"Hebei","Confirmed":113,"Deaths":1,"Latitude":"39.549000","Longitude":"116.130600","Population":null},{"Date":"2020-02-03","Key":"CN_HI","CountryCode":"CN","CountryName":"China","RegionCode":"HI","RegionName":"Hainan","Confirmed":70,"Deaths":1,"Latitude":"19.195900","Longitude":"109.745300","Population":null},{"Date":"2020-02-03","Key":"CN_HL","CountryCode":"CN","CountryName":"China","RegionCode":"HL","RegionName":"Heilongjiang","Confirmed":121,"Deaths":2,"Latitude":"47.862000","Longitude":"127.761500","Population":null},{"Date":"2020-02-03","Key":"CN_HN","CountryCode":"CN","CountryName":"China","RegionCode":"HN","RegionName":"Hunan","Confirmed":521,"Deaths":0,"Latitude":"27.610400","Longitude":"111.708800","Population":null},{"Date":"2020-02-03","Key":"CN_JL","CountryCode":"CN","CountryName":"China","RegionCode":"JL","RegionName":"Jilin","Confirmed":31,"Deaths":0,"Latitude":"43.666100","Longitude":"126.192300","Population":null},{"Date":"2020-02-03","Key":"CN_JS","CountryCode":"CN","CountryName":"China","RegionCode":"JS","RegionName":"Jiangsu","Confirmed":271,"Deaths":0,"Latitude":"32.971100","Longitude":"119.455000","Population":null},{"Date":"2020-02-03","Key":"CN_JX","CountryCode":"CN","CountryName":"China","RegionCode":"JX","RegionName":"Jiangxi","Confirmed":391,"Deaths":0,"Latitude":"27.614000","Longitude":"115.722100","Population":null},{"Date":"2020-02-03","Key":"CN_LN","CountryCode":"CN","CountryName":"China","RegionCode":"LN","RegionName":"Liaoning","Confirmed":73,"Deaths":0,"Latitude":"41.295600","Longitude":"122.608500","Population":null},{"Date":"2020-02-03","Key":"CN_NX","CountryCode":"CN","CountryName":"China","RegionCode":"NX","RegionName":"Ningxia","Confirmed":31,"Deaths":0,"Latitude":"37.269200","Longitude":"106.165500","Population":null},{"Date":"2020-02-03","Key":"CN_QH","CountryCode":"CN","CountryName":"China","RegionCode":"QH","RegionName":"Qinghai","Confirmed":13,"Deaths":0,"Latitude":"35.745200","Longitude":"95.995600","Population":null},{"Date":"2020-02-03","Key":"CN_SC","CountryCode":"CN","CountryName":"China","RegionCode":"SC","RegionName":"Sichuan","Confirmed":254,"Deaths":1,"Latitude":"30.617100","Longitude":"102.710300","Population":null},{"Date":"2020-02-03","Key":"CN_SD","CountryCode":"CN","CountryName":"China","RegionCode":"SD","RegionName":"Shandong","Confirmed":259,"Deaths":0,"Latitude":"36.342700","Longitude":"118.149800","Population":null},{"Date":"2020-02-03","Key":"CN_SH","CountryCode":"CN","CountryName":"China","RegionCode":"SH","RegionName":"Shanghai","Confirmed":203,"Deaths":1,"Latitude":"31.202000","Longitude":"121.449100","Population":null},{"Date":"2020-02-03","Key":"CN_SN","CountryCode":"CN","CountryName":"China","RegionCode":"SN","RegionName":"Shaanxi","Confirmed":128,"Deaths":0,"Latitude":"35.191700","Longitude":"108.870100","Population":null},{"Date":"2020-02-03","Key":"CN_SX","CountryCode":"CN","CountryName":"China","RegionCode":"SX","RegionName":"Shanxi","Confirmed":66,"Deaths":0,"Latitude":"37.577700","Longitude":"112.292200","Population":null},{"Date":"2020-02-03","Key":"CN_TJ","CountryCode":"CN","CountryName":"China","RegionCode":"TJ","RegionName":"Tianjin","Confirmed":56,"Deaths":0,"Latitude":"39.305400","Longitude":"117.323000","Population":null},{"Date":"2020-02-03","Key":"CN_XJ","CountryCode":"CN","CountryName":"China","RegionCode":"XJ","RegionName":"Xinjiang","Confirmed":24,"Deaths":0,"Latitude":"41.112900","Longitude":"85.240100","Population":null},{"Date":"2020-02-03","Key":"CN_YN","CountryCode":"CN","CountryName":"China","RegionCode":"YN","RegionName":"Yunnan","Confirmed":114,"Deaths":0,"Latitude":"24.974000","Longitude":"101.487000","Population":null},{"Date":"2020-02-03","Key":"CN_ZJ","CountryCode":"CN","CountryName":"China","RegionCode":"ZJ","RegionName":"Zhejiang","Confirmed":724,"Deaths":0,"Latitude":"29.183200","Longitude":"120.093400","Population":null},{"Date":"2020-02-04","Key":"CN","CountryCode":"CN","CountryName":"China","RegionCode":"","RegionName":"","Confirmed":20448,"Deaths":426,"Latitude":"35.861660","Longitude":"104.195397","Population":1433783686},{"Date":"2020-02-04","Key":"CN_AH","CountryCode":"CN","CountryName":"China","RegionCode":"AH","RegionName":"Anhui","Confirmed":480,"Deaths":0,"Latitude":"31.825700","Longitude":"117.226400","Population":null},{"Date":"2020-02-04","Key":"CN_BJ","CountryCode":"CN","CountryName":"China","RegionCode":"BJ","RegionName":"Beijing","Confirmed":228,"Deaths":1,"Latitude":"40.182400","Longitude":"116.414200","Population":null},{"Date":"2020-02-04","Key":"CN_CQ","CountryCode":"CN","CountryName":"China","RegionCode":"CQ","RegionName":"Chongqing","Confirmed":344,"Deaths":2,"Latitude":"30.057200","Longitude":"107.874000","Population":null},{"Date":"2020-02-04","Key":"CN_FJ","CountryCode":"CN","CountryName":"China","RegionCode":"FJ","RegionName":"Fujian","Confirmed":194,"Deaths":0,"Latitude":"26.078900","Longitude":"117.987400","Population":null},{"Date":"2020-02-04","Key":"CN_GD","CountryCode":"CN","CountryName":"China","RegionCode":"GD","RegionName":"Guangdong","Confirmed":813,"Deaths":0,"Latitude":"23.341700","Longitude":"113.424400","Population":null},{"Date":"2020-02-04","Key":"CN_GS","CountryCode":"CN","CountryName":"China","RegionCode":"GS","RegionName":"Gansu","Confirmed":55,"Deaths":0,"Latitude":"37.809900","Longitude":"101.058300","Population":null},{"Date":"2020-02-04","Key":"CN_GX","CountryCode":"CN","CountryName":"China","RegionCode":"GX","RegionName":"Guangxi","Confirmed":139,"Deaths":0,"Latitude":"23.829800","Longitude":"108.788100","Population":null},{"Date":"2020-02-04","Key":"CN_GZ","CountryCode":"CN","CountryName":"China","RegionCode":"GZ","RegionName":"Guizhou","Confirmed":56,"Deaths":0,"Latitude":"26.815400","Longitude":"106.874800","Population":null},{"Date":"2020-02-04","Key":"CN_HA","CountryCode":"CN","CountryName":"China","RegionCode":"HA","RegionName":"Henan","Confirmed":675,"Deaths":2,"Latitude":"33.882000","Longitude":"113.614000","Population":null},{"Date":"2020-02-04","Key":"CN_HB","CountryCode":"CN","CountryName":"China","RegionCode":"HB","RegionName":"Hubei","Confirmed":13522,"Deaths":414,"Latitude":"30.975600","Longitude":"112.270700","Population":null},{"Date":"2020-02-04","Key":"CN_HE","CountryCode":"CN","CountryName":"China","RegionCode":"HE","RegionName":"Hebei","Confirmed":126,"Deaths":1,"Latitude":"39.549000","Longitude":"116.130600","Population":null},{"Date":"2020-02-04","Key":"CN_HI","CountryCode":"CN","CountryName":"China","RegionCode":"HI","RegionName":"Hainan","Confirmed":80,"Deaths":1,"Latitude":"19.195900","Longitude":"109.745300","Population":null},{"Date":"2020-02-04","Key":"CN_HL","CountryCode":"CN","CountryName":"China","RegionCode":"HL","RegionName":"Heilongjiang","Confirmed":155,"Deaths":2,"Latitude":"47.862000","Longitude":"127.761500","Population":null},{"Date":"2020-02-04","Key":"CN_HN","CountryCode":"CN","CountryName":"China","RegionCode":"HN","RegionName":"Hunan","Confirmed":593,"Deaths":0,"Latitude":"27.610400","Longitude":"111.708800","Population":null},{"Date":"2020-02-04","Key":"CN_JL","CountryCode":"CN","CountryName":"China","RegionCode":"JL","RegionName":"Jilin","Confirmed":42,"Deaths":0,"Latitude":"43.666100","Longitude":"126.192300","Population":null},{"Date":"2020-02-04","Key":"CN_JS","CountryCode":"CN","CountryName":"China","RegionCode":"JS","RegionName":"Jiangsu","Confirmed":308,"Deaths":0,"Latitude":"32.971100","Longitude":"119.455000","Population":null},{"Date":"2020-02-04","Key":"CN_JX","CountryCode":"CN","CountryName":"China","RegionCode":"JX","RegionName":"Jiangxi","Confirmed":476,"Deaths":0,"Latitude":"27.614000","Longitude":"115.722100","Population":null},{"Date":"2020-02-04","Key":"CN_LN","CountryCode":"CN","CountryName":"China","RegionCode":"LN","RegionName":"Liaoning","Confirmed":77,"Deaths":0,"Latitude":"41.295600","Longitude":"122.608500","Population":null},{"Date":"2020-02-04","Key":"CN_NX","CountryCode":"CN","CountryName":"China","RegionCode":"NX","RegionName":"Ningxia","Confirmed":34,"Deaths":0,"Latitude":"37.269200","Longitude":"106.165500","Population":null},{"Date":"2020-02-04","Key":"CN_QH","CountryCode":"CN","CountryName":"China","RegionCode":"QH","RegionName":"Qinghai","Confirmed":15,"Deaths":0,"Latitude":"35.745200","Longitude":"95.995600","Population":null},{"Date":"2020-02-04","Key":"CN_SC","CountryCode":"CN","CountryName":"China","RegionCode":"SC","RegionName":"Sichuan","Confirmed":282,"Deaths":1,"Latitude":"30.617100","Longitude":"102.710300","Population":null},{"Date":"2020-02-04","Key":"CN_SD","CountryCode":"CN","CountryName":"China","RegionCode":"SD","RegionName":"Shandong","Confirmed":275,"Deaths":0,"Latitude":"36.342700","Longitude":"118.149800","Population":null},{"Date":"2020-02-04","Key":"CN_SH","CountryCode":"CN","CountryName":"China","RegionCode":"SH","RegionName":"Shanghai","Confirmed":219,"Deaths":1,"Latitude":"31.202000","Longitude":"121.449100","Population":null},{"Date":"2020-02-04","Key":"CN_SN","CountryCode":"CN","CountryName":"China","RegionCode":"SN","RegionName":"Shaanxi","Confirmed":142,"Deaths":0,"Latitude":"35.191700","Longitude":"108.870100","Population":null},{"Date":"2020-02-04","Key":"CN_SX","CountryCode":"CN","CountryName":"China","RegionCode":"SX","RegionName":"Shanxi","Confirmed":74,"Deaths":0,"Latitude":"37.577700","Longitude":"112.292200","Population":null},{"Date":"2020-02-04","Key":"CN_TJ","CountryCode":"CN","CountryName":"China","RegionCode":"TJ","RegionName":"Tianjin","Confirmed":66,"Deaths":0,"Latitude":"39.305400","Longitude":"117.323000","Population":null},{"Date":"2020-02-04","Key":"CN_XJ","CountryCode":"CN","CountryName":"China","RegionCode":"XJ","RegionName":"Xinjiang","Confirmed":29,"Deaths":0,"Latitude":"41.112900","Longitude":"85.240100","Population":null},{"Date":"2020-02-04","Key":"CN_YN","CountryCode":"CN","CountryName":"China","RegionCode":"YN","RegionName":"Yunnan","Confirmed":119,"Deaths":0,"Latitude":"24.974000","Longitude":"101.487000","Population":null},{"Date":"2020-02-04","Key":"CN_ZJ","CountryCode":"CN","CountryName":"China","RegionCode":"ZJ","RegionName":"Zhejiang","Confirmed":829,"Deaths":0,"Latitude":"29.183200","Longitude":"120.093400","Population":null},{"Date":"2020-02-05","Key":"CN","CountryCode":"CN","CountryName":"China","RegionCode":"","RegionName":"","Confirmed":24320,"Deaths":492,"Latitude":"35.861660","Longitude":"104.195397","Population":1433783686},{"Date":"2020-02-05","Key":"CN_AH","CountryCode":"CN","CountryName":"China","RegionCode":"AH","RegionName":"Anhui","Confirmed":530,"Deaths":0,"Latitude":"31.825700","Longitude":"117.226400","Population":null},{"Date":"2020-02-05","Key":"CN_BJ","CountryCode":"CN","CountryName":"China","RegionCode":"BJ","RegionName":"Beijing","Confirmed":253,"Deaths":1,"Latitude":"40.182400","Longitude":"116.414200","Population":null},{"Date":"2020-02-05","Key":"CN_CQ","CountryCode":"CN","CountryName":"China","RegionCode":"CQ","RegionName":"Chongqing","Confirmed":376,"Deaths":2,"Latitude":"30.057200","Longitude":"107.874000","Population":null},{"Date":"2020-02-05","Key":"CN_FJ","CountryCode":"CN","CountryName":"China","RegionCode":"FJ","RegionName":"Fujian","Confirmed":205,"Deaths":0,"Latitude":"26.078900","Longitude":"117.987400","Population":null},{"Date":"2020-02-05","Key":"CN_GD","CountryCode":"CN","CountryName":"China","RegionCode":"GD","RegionName":"Guangdong","Confirmed":895,"Deaths":0,"Latitude":"23.341700","Longitude":"113.424400","Population":null},{"Date":"2020-02-05","Key":"CN_GS","CountryCode":"CN","CountryName":"China","RegionCode":"GS","RegionName":"Gansu","Confirmed":57,"Deaths":0,"Latitude":"37.809900","Longitude":"101.058300","Population":null},{"Date":"2020-02-05","Key":"CN_GX","CountryCode":"CN","CountryName":"China","RegionCode":"GX","RegionName":"Guangxi","Confirmed":150,"Deaths":0,"Latitude":"23.829800","Longitude":"108.788100","Population":null},{"Date":"2020-02-05","Key":"CN_GZ","CountryCode":"CN","CountryName":"China","RegionCode":"GZ","RegionName":"Guizhou","Confirmed":64,"Deaths":0,"Latitude":"26.815400","Longitude":"106.874800","Population":null},{"Date":"2020-02-05","Key":"CN_HA","CountryCode":"CN","CountryName":"China","RegionCode":"HA","RegionName":"Henan","Confirmed":764,"Deaths":2,"Latitude":"33.882000","Longitude":"113.614000","Population":null},{"Date":"2020-02-05","Key":"CN_HB","CountryCode":"CN","CountryName":"China","RegionCode":"HB","RegionName":"Hubei","Confirmed":16678,"Deaths":479,"Latitude":"30.975600","Longitude":"112.270700","Population":null},{"Date":"2020-02-05","Key":"CN_HE","CountryCode":"CN","CountryName":"China","RegionCode":"HE","RegionName":"Hebei","Confirmed":135,"Deaths":1,"Latitude":"39.549000","Longitude":"116.130600","Population":null},{"Date":"2020-02-05","Key":"CN_HI","CountryCode":"CN","CountryName":"China","RegionCode":"HI","RegionName":"Hainan","Confirmed":91,"Deaths":1,"Latitude":"19.195900","Longitude":"109.745300","Population":null},{"Date":"2020-02-05","Key":"CN_HL","CountryCode":"CN","CountryName":"China","RegionCode":"HL","RegionName":"Heilongjiang","Confirmed":190,"Deaths":2,"Latitude":"47.862000","Longitude":"127.761500","Population":null},{"Date":"2020-02-05","Key":"CN_HN","CountryCode":"CN","CountryName":"China","RegionCode":"HN","RegionName":"Hunan","Confirmed":661,"Deaths":0,"Latitude":"27.610400","Longitude":"111.708800","Population":null},{"Date":"2020-02-05","Key":"CN_JL","CountryCode":"CN","CountryName":"China","RegionCode":"JL","RegionName":"Jilin","Confirmed":54,"Deaths":0,"Latitude":"43.666100","Longitude":"126.192300","Population":null},{"Date":"2020-02-05","Key":"CN_JS","CountryCode":"CN","CountryName":"China","RegionCode":"JS","RegionName":"Jiangsu","Confirmed":341,"Deaths":0,"Latitude":"32.971100","Longitude":"119.455000","Population":null},{"Date":"2020-02-05","Key":"CN_JX","CountryCode":"CN","CountryName":"China","RegionCode":"JX","RegionName":"Jiangxi","Confirmed":548,"Deaths":0,"Latitude":"27.614000","Longitude":"115.722100","Population":null},{"Date":"2020-02-05","Key":"CN_LN","CountryCode":"CN","CountryName":"China","RegionCode":"LN","RegionName":"Liaoning","Confirmed":81,"Deaths":0,"Latitude":"41.295600","Longitude":"122.608500","Population":null},{"Date":"2020-02-05","Key":"CN_QH","CountryCode":"CN","CountryName":"China","RegionCode":"QH","RegionName":"Qinghai","Confirmed":17,"Deaths":0,"Latitude":"35.745200","Longitude":"95.995600","Population":null},{"Date":"2020-02-05","Key":"CN_SC","CountryCode":"CN","CountryName":"China","RegionCode":"SC","RegionName":"Sichuan","Confirmed":301,"Deaths":1,"Latitude":"30.617100","Longitude":"102.710300","Population":null},{"Date":"2020-02-05","Key":"CN_SD","CountryCode":"CN","CountryName":"China","RegionCode":"SD","RegionName":"Shandong","Confirmed":307,"Deaths":0,"Latitude":"36.342700","Longitude":"118.149800","Population":null},{"Date":"2020-02-05","Key":"CN_SH","CountryCode":"CN","CountryName":"China","RegionCode":"SH","RegionName":"Shanghai","Confirmed":243,"Deaths":1,"Latitude":"31.202000","Longitude":"121.449100","Population":null},{"Date":"2020-02-05","Key":"CN_SN","CountryCode":"CN","CountryName":"China","RegionCode":"SN","RegionName":"Shaanxi","Confirmed":165,"Deaths":0,"Latitude":"35.191700","Longitude":"108.870100","Population":null},{"Date":"2020-02-05","Key":"CN_SX","CountryCode":"CN","CountryName":"China","RegionCode":"SX","RegionName":"Shanxi","Confirmed":81,"Deaths":0,"Latitude":"37.577700","Longitude":"112.292200","Population":null},{"Date":"2020-02-05","Key":"CN_TJ","CountryCode":"CN","CountryName":"China","RegionCode":"TJ","RegionName":"Tianjin","Confirmed":69,"Deaths":1,"Latitude":"39.305400","Longitude":"117.323000","Population":null},{"Date":"2020-02-05","Key":"CN_XJ","CountryCode":"CN","CountryName":"China","RegionCode":"XJ","RegionName":"Xinjiang","Confirmed":32,"Deaths":0,"Latitude":"41.112900","Longitude":"85.240100","Population":null},{"Date":"2020-02-05","Key":"CN_YN","CountryCode":"CN","CountryName":"China","RegionCode":"YN","RegionName":"Yunnan","Confirmed":124,"Deaths":0,"Latitude":"24.974000","Longitude":"101.487000","Population":null},{"Date":"2020-02-05","Key":"CN_ZJ","CountryCode":"CN","CountryName":"China","RegionCode":"ZJ","RegionName":"Zhejiang","Confirmed":895,"Deaths":0,"Latitude":"29.183200","Longitude":"120.093400","Population":null},{"Date":"2020-02-06","Key":"CN","CountryCode":"CN","CountryName":"China","RegionCode":"","RegionName":"","Confirmed":28047,"Deaths":564,"Latitude":"35.861660","Longitude":"104.195397","Population":1433783686},{"Date":"2020-02-06","Key":"CN_AH","CountryCode":"CN","CountryName":"China","RegionCode":"AH","RegionName":"Anhui","Confirmed":591,"Deaths":0,"Latitude":"31.825700","Longitude":"117.226400","Population":null},{"Date":"2020-02-06","Key":"CN_BJ","CountryCode":"CN","CountryName":"China","RegionCode":"BJ","RegionName":"Beijing","Confirmed":274,"Deaths":1,"Latitude":"40.182400","Longitude":"116.414200","Population":null},{"Date":"2020-02-06","Key":"CN_CQ","CountryCode":"CN","CountryName":"China","RegionCode":"CQ","RegionName":"Chongqing","Confirmed":400,"Deaths":2,"Latitude":"30.057200","Longitude":"107.874000","Population":null},{"Date":"2020-02-06","Key":"CN_FJ","CountryCode":"CN","CountryName":"China","RegionCode":"FJ","RegionName":"Fujian","Confirmed":215,"Deaths":0,"Latitude":"26.078900","Longitude":"117.987400","Population":null},{"Date":"2020-02-06","Key":"CN_GD","CountryCode":"CN","CountryName":"China","RegionCode":"GD","RegionName":"Guangdong","Confirmed":970,"Deaths":0,"Latitude":"23.341700","Longitude":"113.424400","Population":null},{"Date":"2020-02-06","Key":"CN_GS","CountryCode":"CN","CountryName":"China","RegionCode":"GS","RegionName":"Gansu","Confirmed":62,"Deaths":0,"Latitude":"37.809900","Longitude":"101.058300","Population":null},{"Date":"2020-02-06","Key":"CN_GX","CountryCode":"CN","CountryName":"China","RegionCode":"GX","RegionName":"Guangxi","Confirmed":168,"Deaths":0,"Latitude":"23.829800","Longitude":"108.788100","Population":null},{"Date":"2020-02-06","Key":"CN_GZ","CountryCode":"CN","CountryName":"China","RegionCode":"GZ","RegionName":"Guizhou","Confirmed":71,"Deaths":1,"Latitude":"26.815400","Longitude":"106.874800","Population":null},{"Date":"2020-02-06","Key":"CN_HA","CountryCode":"CN","CountryName":"China","RegionCode":"HA","RegionName":"Henan","Confirmed":851,"Deaths":2,"Latitude":"33.882000","Longitude":"113.614000","Population":null},{"Date":"2020-02-06","Key":"CN_HB","CountryCode":"CN","CountryName":"China","RegionCode":"HB","RegionName":"Hubei","Confirmed":19665,"Deaths":549,"Latitude":"30.975600","Longitude":"112.270700","Population":null},{"Date":"2020-02-06","Key":"CN_HE","CountryCode":"CN","CountryName":"China","RegionCode":"HE","RegionName":"Hebei","Confirmed":157,"Deaths":1,"Latitude":"39.549000","Longitude":"116.130600","Population":null},{"Date":"2020-02-06","Key":"CN_HI","CountryCode":"CN","CountryName":"China","RegionCode":"HI","RegionName":"Hainan","Confirmed":106,"Deaths":1,"Latitude":"19.195900","Longitude":"109.745300","Population":null},{"Date":"2020-02-06","Key":"CN_HL","CountryCode":"CN","CountryName":"China","RegionCode":"HL","RegionName":"Heilongjiang","Confirmed":227,"Deaths":3,"Latitude":"47.862000","Longitude":"127.761500","Population":null},{"Date":"2020-02-06","Key":"CN_HN","CountryCode":"CN","CountryName":"China","RegionCode":"HN","RegionName":"Hunan","Confirmed":711,"Deaths":0,"Latitude":"27.610400","Longitude":"111.708800","Population":null},{"Date":"2020-02-06","Key":"CN_JL","CountryCode":"CN","CountryName":"China","RegionCode":"JL","RegionName":"Jilin","Confirmed":59,"Deaths":0,"Latitude":"43.666100","Longitude":"126.192300","Population":null},{"Date":"2020-02-06","Key":"CN_JS","CountryCode":"CN","CountryName":"China","RegionCode":"JS","RegionName":"Jiangsu","Confirmed":373,"Deaths":0,"Latitude":"32.971100","Longitude":"119.455000","Population":null},{"Date":"2020-02-06","Key":"CN_JX","CountryCode":"CN","CountryName":"China","RegionCode":"JX","RegionName":"Jiangxi","Confirmed":600,"Deaths":0,"Latitude":"27.614000","Longitude":"115.722100","Population":null},{"Date":"2020-02-06","Key":"CN_LN","CountryCode":"CN","CountryName":"China","RegionCode":"LN","RegionName":"Liaoning","Confirmed":91,"Deaths":0,"Latitude":"41.295600","Longitude":"122.608500","Population":null},{"Date":"2020-02-06","Key":"CN_NX","CountryCode":"CN","CountryName":"China","RegionCode":"NX","RegionName":"Ningxia","Confirmed":40,"Deaths":0,"Latitude":"37.269200","Longitude":"106.165500","Population":null},{"Date":"2020-02-06","Key":"CN_QH","CountryCode":"CN","CountryName":"China","RegionCode":"QH","RegionName":"Qinghai","Confirmed":18,"Deaths":0,"Latitude":"35.745200","Longitude":"95.995600","Population":null},