[{"Date":"2020-02-24","Key":"CN_QH","Confirmed":18,"Deaths":0,"CountryCode":"CN","CountryName":"China","RegionCode":"QH","RegionName":"Qinghai","Latitude":"35.745200","Longitude":"95.995600","Population":null},{"Date":"2020-03-08","Key":"CN_AH","Confirmed":990,"Deaths":6,"CountryCode":"CN","CountryName":"China","RegionCode":"AH","RegionName":"Anhui","Latitude":"31.825700","Longitude":"117.226400","Population":null},{"Date":"2020-03-08","Key":"CN_XJ","Confirmed":76,"Deaths":3,"CountryCode":"CN","CountryName":"China","RegionCode":"XJ","RegionName":"Xinjiang","Latitude":"41.112900","Longitude":"85.240100","Population":null},{"Date":"2020-03-14","Key":"CN_HN","Confirmed":1018,"Deaths":4,"CountryCode":"CN","CountryName":"China","RegionCode":"HN","RegionName":"Hunan","Latitude":"27.610400","Longitude":"111.708800","Population":null},{"Date":"2020-03-16","Key":"CN_NX","Confirmed":75,"Deaths":0,"CountryCode":"CN","CountryName":"China","RegionCode":"NX","RegionName":"Ningxia","Latitude":"37.269200","Longitude":"106.165500","Population":null},{"Date":"2020-03-18","Key":"CN_GZ","Confirmed":146,"Deaths":2,"CountryCode":"CN","CountryName":"China","RegionCode":"GZ","RegionName":"Guizhou","Latitude":"26.815400","Longitude":"106.874800","Population":null},{"Date":"2020-03-20","Key":"CN_GX","Confirmed":254,"Deaths":2,"CountryCode":"CN","CountryName":"China","RegionCode":"GX","RegionName":"Guangxi","Latitude":"23.829800","Longitude":"108.788100","Population":null},{"Date":"2020-03-24","Key":"CN_HI","Confirmed":168,"Deaths":6,"CountryCode":"CN","CountryName":"China","RegionCode":"HI","RegionName":"Hainan","Latitude":"19.195900","Longitude":"109.745300","Population":null},{"Date":"2020-03-26","Key":"CN_HL","Confirmed":484,"Deaths":13,"CountryCode":"CN","CountryName":"China","RegionCode":"HL","RegionName":"Heilongjiang","Latitude":"47.862000","Longitude":"127.761500","Population":null},{"Date":"2020-03-29","Key":"CN_CQ","Confirmed":579,"Deaths":6,"CountryCode":"CN","CountryName":"China","RegionCode":"CQ","RegionName":"Chongqing","Latitude":"30.057200","Longitude":"107.874000","Population":null},{"Date":"2020-03-29","Key":"CN_HA","Confirmed":1276,"Deaths":22,"CountryCode":"CN","CountryName":"China","RegionCode":"HA","RegionName":"Henan","Latitude":"33.882000","Longitude":"113.614000","Population":null},{"Date":"2020-03-29","Key":"CN_JL","Confirmed":98,"Deaths":1,"CountryCode":"CN","CountryName":"China","RegionCode":"JL","RegionName":"Jilin","Latitude":"43.666100","Longitude":"126.192300","Population":null},{"Date":"2020-03-30","Key":"CN_GS","Confirmed":138,"Deaths":2,"CountryCode":"CN","CountryName":"China","RegionCode":"GS","RegionName":"Gansu","Latitude":"37.809900","Longitude":"101.058300","Population":null},{"Date":"2020-03-30","Key":"CN_JX","Confirmed":937,"Deaths":1,"CountryCode":"CN","CountryName":"China","RegionCode":"JX","RegionName":"Jiangxi","Latitude":"27.614000","Longitude":"115.722100","Population":null},{"Date":"2020-03-31","Key":"CN_JS","Confirmed":646,"Deaths":0,"CountryCode":"CN","CountryName":"China","RegionCode":"JS","RegionName":"Jiangsu","Latitude":"32.971100","Longitude":"119.455000","Population":null},{"Date":"2020-03-31","Key":"CN_SD","Confirmed":774,"Deaths":7,"CountryCode":"CN","CountryName":"China","RegionCode":"SD","RegionName":"Shandong","Latitude":"36.342700","Longitude":"118.149800","Population":null},{"Date":"2020-03-31","Key":"CN_ZJ","Confirmed":1257,"Deaths":1,"CountryCode":"CN","CountryName":"China","RegionCode":"ZJ","RegionName":"Zhejiang","Latitude":"29.183200","Longitude":"120.093400","Population":null},{"Date":"2020-04-01","Key":"CN_BJ","Confirmed":580,"Deaths":8,"CountryCode":"CN","CountryName":"China","RegionCode":"BJ","RegionName":"Beijing","Latitude":"40.182400","Longitude":"116.414200","Population":null},{"Date":"2020-04-01","Key":"CN_GD","Confirmed":1501,"Deaths":8,"CountryCode":"CN","CountryName":"China","RegionCode":"GD","RegionName":"Guangdong","Latitude":"23.341700","Longitude":"113.424400","Population":null},{"Date":"2020-04-01","Key":"CN_HB","Confirmed":67802,"Deaths":3193,"CountryCode":"CN","CountryName":"China","RegionCode":"HB","RegionName":"Hubei","Latitude":"30.975600","Longitude":"112.270700","Population":null},{"Date":"2020-04-01","Key":"CN_HE","Confirmed":323,"Deaths":6,"CountryCode":"CN","CountryName":"China","RegionCode":"HE","RegionName":"Hebei","Latitude":"39.549000","Longitude":"116.130600","Population":null},{"Date":"2020-04-01","Key":"CN_LN","Confirmed":140,"Deaths":2,"CountryCode":"CN","CountryName":"China","RegionCode":"LN","RegionName":"Liaoning","Latitude":"41.295600","Longitude":"122.608500","Population":null},{"Date":"2020-04-01","Key":"CN_MO","Confirmed":41,"Deaths":0,"CountryCode":"CN","CountryName":"China","RegionCode":"MO","RegionName":"Macau","Latitude":"22.166700","Longitude":"113.550000","Population":null},{"Date":"2020-04-01","Key":"CN_SH","Confirmed":516,"Deaths":6,"CountryCode":"CN","CountryName":"China","RegionCode":"SH","RegionName":"Shanghai","Latitude":"31.202000","Longitude":"121.449100","Population":null},{"Date":"2020-04-01","Key":"CN_SN","Confirmed":255,"Deaths":3,"CountryCode":"CN","CountryName":"China","RegionCode":"SN","RegionName":"Shaanxi","Latitude":"35.191700","Longitude":"108.870100","Population":null},{"Date":"2020-04-01","Key":"CN_SX","Confirmed":137,"Deaths":0,"CountryCode":"CN","CountryName":"China","RegionCode":"SX","RegionName":"Shanxi","Latitude":"37.577700","Longitude":"112.292200","Population":null},{"Date":"2020-04-01","Key":"CN_YN","Confirmed":182,"Deaths":2,"CountryCode":"CN","CountryName":"China","RegionCode":"YN","RegionName":"Yunnan","Latitude":"24.974000","Longitude":"101.487000","Population":null},{"Date":"2020-04-02","Key":"CN_FJ","Confirmed":345,"Deaths":1,"CountryCode":"CN","CountryName":"China","RegionCode":"FJ","RegionName":"Fujian","Latitude":"26.078900","Longitude":"117.987400","Population":null},{"Date":"2020-04-02","Key":"CN_HK","Confirmed":765,"Deaths":4,"CountryCode":"CN","CountryName":"China","RegionCode":"HK","RegionName":"Hong Kong","Latitude":"22.300000","Longitude":"114.200000","Population":null},{"Date":"2020-04-02","Key":"CN_SC","Confirmed":552,"Deaths":3,"CountryCode":"CN","CountryName":"China","RegionCode":"SC","RegionName":"Sichuan","Latitude":"30.617100","Longitude":"102.710300","Population":null},{"Date":"2020-04-02","Key":"CN_TJ","Confirmed":176,"Deaths":3,"CountryCode":"CN","CountryName":"China","RegionCode":"TJ","RegionName":"Tianjin","Latitude":"39.305400","Longitude":"117.323000","Population":null}]