[{"Date":"2020-02-24","Key":"CN_QH","CountryCode":"CN","CountryName":"China","RegionCode":"QH","RegionName":"Qinghai","Confirmed":18,"Deaths":0,"Latitude":"35.745200","Longitude":"95.995600","Population":null},{"Date":"2020-03-08","Key":"CN_AH","CountryCode":"CN","CountryName":"China","RegionCode":"AH","RegionName":"Anhui","Confirmed":990,"Deaths":6,"Latitude":"31.825700","Longitude":"117.226400","Population":null},{"Date":"2020-03-08","Key":"CN_XJ","CountryCode":"CN","CountryName":"China","RegionCode":"XJ","RegionName":"Xinjiang","Confirmed":76,"Deaths":3,"Latitude":"41.112900","Longitude":"85.240100","Population":null},{"Date":"2020-03-16","Key":"CN_NX","CountryCode":"CN","CountryName":"China","RegionCode":"NX","RegionName":"Ningxia","Confirmed":75,"Deaths":0,"Latitude":"37.269200","Longitude":"106.165500","Population":null},{"Date":"2020-03-18","Key":"CN_GZ","CountryCode":"CN","CountryName":"China","RegionCode":"GZ","RegionName":"Guizhou","Confirmed":146,"Deaths":2,"Latitude":"26.815400","Longitude":"106.874800","Population":null},{"Date":"2020-03-24","Key":"CN_HI","CountryCode":"CN","CountryName":"China","RegionCode":"HI","RegionName":"Hainan","Confirmed":168,"Deaths":6,"Latitude":"19.195900","Longitude":"109.745300","Population":null},{"Date":"2020-03-29","Key":"CN_CQ","CountryCode":"CN","CountryName":"China","RegionCode":"CQ","RegionName":"Chongqing","Confirmed":579,"Deaths":6,"Latitude":"30.057200","Longitude":"107.874000","Population":null},{"Date":"2020-03-29","Key":"CN_HA","CountryCode":"CN","CountryName":"China","RegionCode":"HA","RegionName":"Henan","Confirmed":1276,"Deaths":22,"Latitude":"33.882000","Longitude":"113.614000","Population":null},{"Date":"2020-03-29","Key":"CN_JL","CountryCode":"CN","CountryName":"China","RegionCode":"JL","RegionName":"Jilin","Confirmed":98,"Deaths":1,"Latitude":"43.666100","Longitude":"126.192300","Population":null},{"Date":"2020-03-30","Key":"CN_JX","CountryCode":"CN","CountryName":"China","RegionCode":"JX","RegionName":"Jiangxi","Confirmed":937,"Deaths":1,"Latitude":"27.614000","Longitude":"115.722100","Population":null},{"Date":"2020-04-01","Key":"CN_MO","CountryCode":"CN","CountryName":"China","RegionCode":"MO","RegionName":"Macau","Confirmed":41,"Deaths":0,"Latitude":"22.166700","Longitude":"113.550000","Population":null},{"Date":"2020-04-01","Key":"CN_SN","CountryCode":"CN","CountryName":"China","RegionCode":"SN","RegionName":"Shaanxi","Confirmed":255,"Deaths":3,"Latitude":"35.191700","Longitude":"108.870100","Population":null},{"Date":"2020-04-01","Key":"CN_SX","CountryCode":"CN","CountryName":"China","RegionCode":"SX","RegionName":"Shanxi","Confirmed":137,"Deaths":0,"Latitude":"37.577700","Longitude":"112.292200","Population":null},{"Date":"2020-04-02","Key":"CN_GD","CountryCode":"CN","CountryName":"China","RegionCode":"GD","RegionName":"Guangdong","Confirmed":1507,"Deaths":8,"Latitude":"23.341700","Longitude":"113.424400","Population":null},{"Date":"2020-04-02","Key":"CN_GS","CountryCode":"CN","CountryName":"China","RegionCode":"GS","RegionName":"Gansu","Confirmed":138,"Deaths":2,"Latitude":"37.809900","Longitude":"101.058300","Population":null},{"Date":"2020-04-02","Key":"CN_GX","CountryCode":"CN","CountryName":"China","RegionCode":"GX","RegionName":"Guangxi","Confirmed":254,"Deaths":2,"Latitude":"23.829800","Longitude":"108.788100","Population":null},{"Date":"2020-04-02","Key":"CN_HK","CountryCode":"CN","CountryName":"China","RegionCode":"HK","RegionName":"Hong Kong","Confirmed":802,"Deaths":4,"Latitude":"22.300000","Longitude":"114.200000","Population":null},{"Date":"2020-04-02","Key":"CN_HN","CountryCode":"CN","CountryName":"China","RegionCode":"HN","RegionName":"Hunan","Confirmed":1019,"Deaths":4,"Latitude":"27.610400","Longitude":"111.708800","Population":null},{"Date":"2020-04-02","Key":"CN_SC","CountryCode":"CN","CountryName":"China","RegionCode":"SC","RegionName":"Sichuan","Confirmed":554,"Deaths":3,"Latitude":"30.617100","Longitude":"102.710300","Population":null},{"Date":"2020-04-03","Key":"CN_BJ","CountryCode":"CN","CountryName":"China","RegionCode":"BJ","RegionName":"Beijing","Confirmed":583,"Deaths":8,"Latitude":"40.182400","Longitude":"116.414200","Population":null},{"Date":"2020-04-03","Key":"CN_FJ","CountryCode":"CN","CountryName":"China","RegionCode":"FJ","RegionName":"Fujian","Confirmed":349,"Deaths":1,"Latitude":"26.078900","Longitude":"117.987400","Population":null},{"Date":"2020-04-03","Key":"CN_HB","CountryCode":"CN","CountryName":"China","RegionCode":"HB","RegionName":"Hubei","Confirmed":67802,"Deaths":3203,"Latitude":"30.975600","Longitude":"112.270700","Population":null},{"Date":"2020-04-03","Key":"CN_HE","CountryCode":"CN","CountryName":"China","RegionCode":"HE","RegionName":"Hebei","Confirmed":326,"Deaths":6,"Latitude":"39.549000","Longitude":"116.130600","Population":null},{"Date":"2020-04-03","Key":"CN_HL","CountryCode":"CN","CountryName":"China","RegionCode":"HL","RegionName":"Heilongjiang","Confirmed":489,"Deaths":13,"Latitude":"47.862000","Longitude":"127.761500","Population":null},{"Date":"2020-04-03","Key":"CN_JS","CountryCode":"CN","CountryName":"China","RegionCode":"JS","RegionName":"Jiangsu","Confirmed":651,"Deaths":0,"Latitude":"32.971100","Longitude":"119.455000","Population":null},{"Date":"2020-04-03","Key":"CN_LN","CountryCode":"CN","CountryName":"China","RegionCode":"LN","RegionName":"Liaoning","Confirmed":141,"Deaths":2,"Latitude":"41.295600","Longitude":"122.608500","Population":null},{"Date":"2020-04-03","Key":"CN_SD","CountryCode":"CN","CountryName":"China","RegionCode":"SD","RegionName":"Shandong","Confirmed":778,"Deaths":7,"Latitude":"36.342700","Longitude":"118.149800","Population":null},{"Date":"2020-04-03","Key":"CN_SH","CountryCode":"CN","CountryName":"China","RegionCode":"SH","RegionName":"Shanghai","Confirmed":526,"Deaths":6,"Latitude":"31.202000","Longitude":"121.449100","Population":null},{"Date":"2020-04-03","Key":"CN_TJ","CountryCode":"CN","CountryName":"China","RegionCode":"TJ","RegionName":"Tianjin","Confirmed":179,"Deaths":3,"Latitude":"39.305400","Longitude":"117.323000","Population":null},{"Date":"2020-04-03","Key":"CN_YN","CountryCode":"CN","CountryName":"China","RegionCode":"YN","RegionName":"Yunnan","Confirmed":184,"Deaths":2,"Latitude":"24.974000","Longitude":"101.487000","Population":null},{"Date":"2020-04-03","Key":"CN_ZJ","CountryCode":"CN","CountryName":"China","RegionCode":"ZJ","RegionName":"Zhejiang","Confirmed":1260,"Deaths":1,"Latitude":"29.183200","Longitude":"120.093400","Population":null}]