[{"Date":"2020-03-04","Key":"US_AZ","CountryCode":"US","CountryName":"United States of America","RegionCode":"AZ","RegionName":"Arizona","Confirmed":2.0,"Deaths":null,"Latitude":"33.729800","Longitude":"-111.431200","Population":7278717,"Region":"AZ"},{"Date":"2020-03-04","Key":"US_CA","CountryCode":"US","CountryName":"United States of America","RegionCode":"CA","RegionName":"California","Confirmed":53.0,"Deaths":null,"Latitude":"36.116200","Longitude":"-119.681600","Population":39512223,"Region":"CA"},{"Date":"2020-03-04","Key":"US_FL","CountryCode":"US","CountryName":"United States of America","RegionCode":"FL","RegionName":"Florida","Confirmed":2.0,"Deaths":null,"Latitude":"27.766300","Longitude":"-81.686800","Population":21477737,"Region":"FL"},{"Date":"2020-03-04","Key":"US_GA","CountryCode":"US","CountryName":"United States of America","RegionCode":"GA","RegionName":"Georgia","Confirmed":2.0,"Deaths":null,"Latitude":"33.040600","Longitude":"-83.643100","Population":10617423,"Region":"GA"},{"Date":"2020-03-04","Key":"US_IL","CountryCode":"US","CountryName":"United States of America","RegionCode":"IL","RegionName":"Illinois","Confirmed":4.0,"Deaths":null,"Latitude":"40.349500","Longitude":"-88.986100","Population":12671821,"Region":"IL"},{"Date":"2020-03-04","Key":"US_MA","CountryCode":"US","CountryName":"United States of America","RegionCode":"MA","RegionName":"Massachusetts","Confirmed":2.0,"Deaths":null,"Latitude":"42.230200","Longitude":"-71.530100","Population":6939373,"Region":"MA"},{"Date":"2020-03-04","Key":"US_NC","CountryCode":"US","CountryName":"United States of America","RegionCode":"NC","RegionName":"North Carolina","Confirmed":1.0,"Deaths":null,"Latitude":"35.630100","Longitude":"-79.806400","Population":10488084,"Region":"NC"},{"Date":"2020-03-04","Key":"US_NH","CountryCode":"US","CountryName":"United States of America","RegionCode":"NH","RegionName":"New Hampshire","Confirmed":2.0,"Deaths":null,"Latitude":"42.993100","Longitude":"-71.049800","Population":1359711,"Region":"NH"},{"Date":"2020-03-04","Key":"US_NY","CountryCode":"US","CountryName":"United States of America","RegionCode":"NY","RegionName":"New York","Confirmed":6.0,"Deaths":null,"Latitude":"42.165700","Longitude":"-74.948100","Population":19453561,"Region":"NY"},{"Date":"2020-03-04","Key":"US_OR","CountryCode":"US","CountryName":"United States of America","RegionCode":"OR","RegionName":"Oregon","Confirmed":3.0,"Deaths":null,"Latitude":"43.126100","Longitude":"-123.249200","Population":4190713,"Region":"OR"},{"Date":"2020-03-04","Key":"US_SC","CountryCode":"US","CountryName":"United States of America","RegionCode":"SC","RegionName":"South Carolina","Confirmed":0.0,"Deaths":null,"Latitude":"33.856900","Longitude":"-80.945000","Population":5148714,"Region":"SC"},{"Date":"2020-03-04","Key":"US_TX","CountryCode":"US","CountryName":"United States of America","RegionCode":"TX","RegionName":"Texas","Confirmed":1.0,"Deaths":null,"Latitude":"31.054500","Longitude":"-97.563500","Population":28995881,"Region":"TX"},{"Date":"2020-03-04","Key":"US_WA","CountryCode":"US","CountryName":"United States of America","RegionCode":"WA","RegionName":"Washington","Confirmed":39.0,"Deaths":10.0,"Latitude":"47.400900","Longitude":"-121.490500","Population":7614893,"Region":"WA"},{"Date":"2020-03-04","Key":"US_WI","CountryCode":"US","CountryName":"United States of America","RegionCode":"WI","RegionName":"Wisconsin","Confirmed":1.0,"Deaths":null,"Latitude":"43.018600","Longitude":"-89.549800","Population":5822434,"Region":"WI"},{"Date":"2020-03-05","Key":"US_AZ","CountryCode":"US","CountryName":"United States of America","RegionCode":"AZ","RegionName":"Arizona","Confirmed":2.0,"Deaths":null,"Latitude":"33.729800","Longitude":"-111.431200","Population":7278717,"Region":"AZ"},{"Date":"2020-03-05","Key":"US_CA","CountryCode":"US","CountryName":"United States of America","RegionCode":"CA","RegionName":"California","Confirmed":53.0,"Deaths":null,"Latitude":"36.116200","Longitude":"-119.681600","Population":39512223,"Region":"CA"},{"Date":"2020-03-05","Key":"US_CO","CountryCode":"US","CountryName":"United States of America","RegionCode":"CO","RegionName":"Colorado","Confirmed":0.0,"Deaths":null,"Latitude":"39.059800","Longitude":"-105.311100","Population":5758736,"Region":"CO"},{"Date":"2020-03-05","Key":"US_DC","CountryCode":"US","CountryName":"United States of America","RegionCode":"DC","RegionName":"District of Columbia","Confirmed":0.0,"Deaths":null,"Latitude":"38.897400","Longitude":"-77.026800","Population":705749,"Region":"DC"},{"Date":"2020-03-05","Key":"US_FL","CountryCode":"US","CountryName":"United States of America","RegionCode":"FL","RegionName":"Florida","Confirmed":9.0,"Deaths":null,"Latitude":"27.766300","Longitude":"-81.686800","Population":21477737,"Region":"FL"},{"Date":"2020-03-05","Key":"US_GA","CountryCode":"US","CountryName":"United States of America","RegionCode":"GA","RegionName":"Georgia","Confirmed":2.0,"Deaths":null,"Latitude":"33.040600","Longitude":"-83.643100","Population":10617423,"Region":"GA"},{"Date":"2020-03-05","Key":"US_IL","CountryCode":"US","CountryName":"United States of America","RegionCode":"IL","RegionName":"Illinois","Confirmed":5.0,"Deaths":null,"Latitude":"40.349500","Longitude":"-88.986100","Population":12671821,"Region":"IL"},{"Date":"2020-03-05","Key":"US_MA","CountryCode":"US","CountryName":"United States of America","RegionCode":"MA","RegionName":"Massachusetts","Confirmed":2.0,"Deaths":null,"Latitude":"42.230200","Longitude":"-71.530100","Population":6939373,"Region":"MA"},{"Date":"2020-03-05","Key":"US_MD","CountryCode":"US","CountryName":"United States of America","RegionCode":"MD","RegionName":"Maryland","Confirmed":0.0,"Deaths":null,"Latitude":"39.063900","Longitude":"-76.802100","Population":6045680,"Region":"MD"},{"Date":"2020-03-05","Key":"US_MI","CountryCode":"US","CountryName":"United States of America","RegionCode":"MI","RegionName":"Michigan","Confirmed":0.0,"Deaths":null,"Latitude":"43.326600","Longitude":"-84.536100","Population":9883635,"Region":"MI"},{"Date":"2020-03-05","Key":"US_NC","CountryCode":"US","CountryName":"United States of America","RegionCode":"NC","RegionName":"North Carolina","Confirmed":1.0,"Deaths":null,"Latitude":"35.630100","Longitude":"-79.806400","Population":10488084,"Region":"NC"},{"Date":"2020-03-05","Key":"US_NE","CountryCode":"US","CountryName":"United States of America","RegionCode":"NE","RegionName":"Nebraska","Confirmed":0.0,"Deaths":null,"Latitude":"41.314800","Longitude":"-96.195100","Population":1934408,"Region":"NE"},{"Date":"2020-03-05","Key":"US_NH","CountryCode":"US","CountryName":"United States of America","RegionCode":"NH","RegionName":"New Hampshire","Confirmed":2.0,"Deaths":null,"Latitude":"42.993100","Longitude":"-71.049800","Population":1359711,"Region":"NH"},{"Date":"2020-03-05","Key":"US_NJ","CountryCode":"US","CountryName":"United States of America","RegionCode":"NJ","RegionName":"New Jersey","Confirmed":1.0,"Deaths":null,"Latitude":"40.298900","Longitude":"-74.521000","Population":8882190,"Region":"NJ"},{"Date":"2020-03-05","Key":"US_NV","CountryCode":"US","CountryName":"United States of America","RegionCode":"NV","RegionName":"Nevada","Confirmed":1.0,"Deaths":null,"Latitude":"38.313500","Longitude":"-117.055400","Population":3080156,"Region":"NV"},{"Date":"2020-03-05","Key":"US_NY","CountryCode":"US","CountryName":"United States of America","RegionCode":"NY","RegionName":"New York","Confirmed":22.0,"Deaths":null,"Latitude":"42.165700","Longitude":"-74.948100","Population":19453561,"Region":"NY"},{"Date":"2020-03-05","Key":"US_OH","CountryCode":"US","CountryName":"United States of America","RegionCode":"OH","RegionName":"Ohio","Confirmed":0.0,"Deaths":null,"Latitude":"40.388800","Longitude":"-82.764900","Population":11689100,"Region":"OH"},{"Date":"2020-03-05","Key":"US_OR","CountryCode":"US","CountryName":"United States of America","RegionCode":"OR","RegionName":"Oregon","Confirmed":3.0,"Deaths":null,"Latitude":"43.126100","Longitude":"-123.249200","Population":4190713,"Region":"OR"},{"Date":"2020-03-05","Key":"US_SC","CountryCode":"US","CountryName":"United States of America","RegionCode":"SC","RegionName":"South Carolina","Confirmed":0.0,"Deaths":null,"Latitude":"33.856900","Longitude":"-80.945000","Population":5148714,"Region":"SC"},{"Date":"2020-03-05","Key":"US_TN","CountryCode":"US","CountryName":"United States of America","RegionCode":"TN","RegionName":"Tennessee","Confirmed":1.0,"Deaths":null,"Latitude":"35.747800","Longitude":"-86.692300","Population":6833793,"Region":"TN"},{"Date":"2020-03-05","Key":"US_TX","CountryCode":"US","CountryName":"United States of America","RegionCode":"TX","RegionName":"Texas","Confirmed":1.0,"Deaths":null,"Latitude":"31.054500","Longitude":"-97.563500","Population":28995881,"Region":"TX"},{"Date":"2020-03-05","Key":"US_VA","CountryCode":"US","CountryName":"United States of America","RegionCode":"VA","RegionName":"Virginia","Confirmed":0.0,"Deaths":null,"Latitude":"37.769300","Longitude":"-78.170000","Population":8535519,"Region":"VA"},{"Date":"2020-03-05","Key":"US_WA","CountryCode":"US","CountryName":"United States of America","RegionCode":"WA","RegionName":"Washington","Confirmed":70.0,"Deaths":11.0,"Latitude":"47.400900","Longitude":"-121.490500","Population":7614893,"Region":"WA"},{"Date":"2020-03-05","Key":"US_WI","CountryCode":"US","CountryName":"United States of America","RegionCode":"WI","RegionName":"Wisconsin","Confirmed":1.0,"Deaths":null,"Latitude":"43.018600","Longitude":"-89.549800","Population":5822434,"Region":"WI"},{"Date":"2020-03-06","Key":"US_AK","CountryCode":"US","CountryName":"United States of America","RegionCode":"AK","RegionName":"Alaska","Confirmed":0.0,"Deaths":null,"Latitude":"61.370700","Longitude":"-152.404400","Population":710249,"Region":"AK"},{"Date":"2020-03-06","Key":"US_AR","CountryCode":"US","CountryName":"United States of America","RegionCode":"AR","RegionName":"Arkansas","Confirmed":0.0,"Deaths":null,"Latitude":"34.969700","Longitude":"-92.373100","Population":3017804,"Region":"AR"},{"Date":"2020-03-06","Key":"US_AZ","CountryCode":"US","CountryName":"United States of America","RegionCode":"AZ","RegionName":"Arizona","Confirmed":3.0,"Deaths":null,"Latitude":"33.729800","Longitude":"-111.431200","Population":7278717,"Region":"AZ"},{"Date":"2020-03-06","Key":"US_CA","CountryCode":"US","CountryName":"United States of America","RegionCode":"CA","RegionName":"California","Confirmed":60.0,"Deaths":null,"Latitude":"36.116200","Longitude":"-119.681600","Population":39512223,"Region":"CA"},{"Date":"2020-03-06","Key":"US_CO","CountryCode":"US","CountryName":"United States of America","RegionCode":"CO","RegionName":"Colorado","Confirmed":2.0,"Deaths":null,"Latitude":"39.059800","Longitude":"-105.311100","Population":5758736,"Region":"CO"},{"Date":"2020-03-06","Key":"US_DC","CountryCode":"US","CountryName":"United States of America","RegionCode":"DC","RegionName":"District of Columbia","Confirmed":0.0,"Deaths":null,"Latitude":"38.897400","Longitude":"-77.026800","Population":705749,"Region":"DC"},{"Date":"2020-03-06","Key":"US_DE","CountryCode":"US","CountryName":"United States of America","RegionCode":"DE","RegionName":"Delaware","Confirmed":0.0,"Deaths":null,"Latitude":"39.318500","Longitude":"-75.507100","Population":973764,"Region":"DE"},{"Date":"2020-03-06","Key":"US_FL","CountryCode":"US","CountryName":"United States of America","RegionCode":"FL","RegionName":"Florida","Confirmed":9.0,"Deaths":null,"Latitude":"27.766300","Longitude":"-81.686800","Population":21477737,"Region":"FL"},{"Date":"2020-03-06","Key":"US_GA","CountryCode":"US","CountryName":"United States of America","RegionCode":"GA","RegionName":"Georgia","Confirmed":2.0,"Deaths":null,"Latitude":"33.040600","Longitude":"-83.643100","Population":10617423,"Region":"GA"},{"Date":"2020-03-06","Key":"US_IA","CountryCode":"US","CountryName":"United States of America","RegionCode":"IA","RegionName":"Iowa","Confirmed":0.0,"Deaths":null,"Latitude":"42.011500","Longitude":"-93.210500","Population":3155070,"Region":"IA"},{"Date":"2020-03-06","Key":"US_IL","CountryCode":"US","CountryName":"United States of America","RegionCode":"IL","RegionName":"Illinois","Confirmed":5.0,"Deaths":null,"Latitude":"40.349500","Longitude":"-88.986100","Population":12671821,"Region":"IL"},{"Date":"2020-03-06","Key":"US_IN","CountryCode":"US","CountryName":"United States of America","RegionCode":"IN","RegionName":"Indiana","Confirmed":1.0,"Deaths":null,"Latitude":"39.849400","Longitude":"-86.258300","Population":6732219,"Region":"IN"},{"Date":"2020-03-06","Key":"US_KS","CountryCode":"US","CountryName":"United States of America","RegionCode":"KS","RegionName":"Kansas","Confirmed":0.0,"Deaths":null,"Latitude":"38.526600","Longitude":"-96.726500","Population":2911505,"Region":"KS"},{"Date":"2020-03-06","Key":"US_KY","CountryCode":"US","CountryName":"United States of America","RegionCode":"KY","RegionName":"Kentucky","Confirmed":0.0,"Deaths":null,"Latitude":"37.668100","Longitude":"-84.670100","Population":4468402,"Region":"KY"},{"Date":"2020-03-06","Key":"US_MA","CountryCode":"US","CountryName":"United States of America","RegionCode":"MA","RegionName":"Massachusetts","Confirmed":8.0,"Deaths":null,"Latitude":"42.230200","Longitude":"-71.530100","Population":6939373,"Region":"MA"},{"Date":"2020-03-06","Key":"US_MD","CountryCode":"US","CountryName":"United States of America","RegionCode":"MD","RegionName":"Maryland","Confirmed":3.0,"Deaths":null,"Latitude":"39.063900","Longitude":"-76.802100","Population":6045680,"Region":"MD"},{"Date":"2020-03-06","Key":"US_MI","CountryCode":"US","CountryName":"United States of America","RegionCode":"MI","RegionName":"Michigan","Confirmed":0.0,"Deaths":null,"Latitude":"43.326600","Longitude":"-84.536100","Population":9883635,"Region":"MI"},{"Date":"2020-03-06","Key":"US_MN","CountryCode":"US","CountryName":"United States of America","RegionCode":"MN","RegionName":"Minnesota","Confirmed":0.0,"Deaths":null,"Latitude":"44.825400","Longitude":"-93.784200","Population":5639632,"Region":"MN"},{"Date":"2020-03-06","Key":"US_NC","CountryCode":"US","CountryName":"United States of America","RegionCode":"NC","RegionName":"North Carolina","Confirmed":2.0,"Deaths":null,"Latitude":"35.630100","Longitude":"-79.806400","Population":10488084,"Region":"NC"},{"Date":"2020-03-06","Key":"US_NE","CountryCode":"US","CountryName":"United States of America","RegionCode":"NE","RegionName":"Nebraska","Confirmed":0.0,"Deaths":null,"Latitude":"41.314800","Longitude":"-96.195100","Population":1934408,"Region":"NE"},{"Date":"2020-03-06","Key":"US_NH","CountryCode":"US","CountryName":"United States of America","RegionCode":"NH","RegionName":"New Hampshire","Confirmed":2.0,"Deaths":null,"Latitude":"42.993100","Longitude":"-71.049800","Population":1359711,"Region":"NH"},{"Date":"2020-03-06","Key":"US_NJ","CountryCode":"US","CountryName":"United States of America","RegionCode":"NJ","RegionName":"New Jersey","Confirmed":1.0,"Deaths":null,"Latitude":"40.298900","Longitude":"-74.521000","Population":8882190,"Region":"NJ"},{"Date":"2020-03-06","Key":"US_NM","CountryCode":"US","CountryName":"United States of America","RegionCode":"NM","RegionName":"New Mexico","Confirmed":0.0,"Deaths":null,"Latitude":"34.840500","Longitude":"-106.248500","Population":2096829,"Region":"NM"},{"Date":"2020-03-06","Key":"US_NV","CountryCode":"US","CountryName":"United States of America","RegionCode":"NV","RegionName":"Nevada","Confirmed":1.0,"Deaths":null,"Latitude":"38.313500","Longitude":"-117.055400","Population":3080156,"Region":"NV"},{"Date":"2020-03-06","Key":"US_NY","CountryCode":"US","CountryName":"United States of America","RegionCode":"NY","RegionName":"New York","Confirmed":33.0,"Deaths":null,"Latitude":"42.165700","Longitude":"-74.948100","Population":19453561,"Region":"NY"},{"Date":"2020-03-06","Key":"US_OH","CountryCode":"US","CountryName":"United States of America","RegionCode":"OH","RegionName":"Ohio","Confirmed":0.0,"Deaths":null,"Latitude":"40.388800","Longitude":"-82.764900","Population":11689100,"Region":"OH"},{"Date":"2020-03-06","Key":"US_OR","CountryCode":"US","CountryName":"United States of America","RegionCode":"OR","RegionName":"Oregon","Confirmed":3.0,"Deaths":null,"Latitude":"43.126100","Longitude":"-123.249200","Population":4190713,"Region":"OR"},{"Date":"2020-03-06","Key":"US_PA","CountryCode":"US","CountryName":"United States of America","RegionCode":"PA","RegionName":"Pennsylvania","Confirmed":2.0,"Deaths":null,"Latitude":"40.590800","Longitude":"-77.209800","Population":12801989,"Region":"PA"},{"Date":"2020-03-06","Key":"US_SC","CountryCode":"US","CountryName":"United States of America","RegionCode":"SC","RegionName":"South Carolina","Confirmed":0.0,"Deaths":null,"Latitude":"33.856900","Longitude":"-80.945000","Population":5148714,"Region":"SC"},{"Date":"2020-03-06","Key":"US_TN","CountryCode":"US","CountryName":"United States of America","RegionCode":"TN","RegionName":"Tennessee","Confirmed":1.0,"Deaths":null,"Latitude":"35.747800","Longitude":"-86.692300","Population":6833793,"Region":"TN"},{"Date":"2020-03-06","Key":"US_TX","CountryCode":"US","CountryName":"United States of America","RegionCode":"TX","RegionName":"Texas","Confirmed":5.0,"Deaths":null,"Latitude":"31.054500","Longitude":"-97.563500","Population":28995881,"Region":"TX"},{"Date":"2020-03-06","Key":"US_VA","CountryCode":"US","CountryName":"United States of America","RegionCode":"VA","RegionName":"Virginia","Confirmed":0.0,"Deaths":null,"Latitude":"37.769300","Longitude":"-78.170000","Population":8535519,"Region":"VA"},{"Date":"2020-03-06","Key":"US_VT","CountryCode":"US","CountryName":"United States of America","RegionCode":"VT","RegionName":"Vermont","Confirmed":0.0,"Deaths":null,"Latitude":"44.045900","Longitude":"-72.710700","Population":623989,"Region":"VT"},{"Date":"2020-03-06","Key":"US_WA","CountryCode":"US","CountryName":"United States of America","RegionCode":"WA","RegionName":"Washington","Confirmed":79.0,"Deaths":14.0,"Latitude":"47.400900","Longitude":"-121.490500","Population":7614893,"Region":"WA"},{"Date":"2020-03-06","Key":"US_WI","CountryCode":"US","CountryName":"United States of America","RegionCode":"WI","RegionName":"Wisconsin","Confirmed":1.0,"Deaths":null,"Latitude":"43.018600","Longitude":"-89.549800","Population":5822434,"Region":"WI"},{"Date":"2020-03-06","Key":"US_WV","CountryCode":"US","CountryName":"United States of America","RegionCode":"WV","RegionName":"West Virginia","Confirmed":0.0,"Deaths":null,"Latitude":"38.491200","Longitude":"-80.954500","Population":1792147,"Region":"WV"},{"Date":"2020-03-07","Key":"US_AK","CountryCode":"US","CountryName":"United States of America","RegionCode":"AK","RegionName":"Alaska","Confirmed":0.0,"Deaths":null,"Latitude":"61.370700","Longitude":"-152.404400","Population":710249,"Region":"AK"},{"Date":"2020-03-07","Key":"US_AL","CountryCode":"US","CountryName":"United States of America","RegionCode":"AL","RegionName":"Alabama","Confirmed":0.0,"Deaths":null,"Latitude":"32.318200","Longitude":"-86.902300","Population":4903185,"Region":"AL"},{"Date":"2020-03-07","Key":"US_AR","CountryCode":"US","CountryName":"United States of America","RegionCode":"AR","RegionName":"Arkansas","Confirmed":0.0,"Deaths":null,"Latitude":"34.969700","Longitude":"-92.373100","Population":3017804,"Region":"AR"},{"Date":"2020-03-07","Key":"US_AZ","CountryCode":"US","CountryName":"United States of America","RegionCode":"AZ","RegionName":"Arizona","Confirmed":5.0,"Deaths":null,"Latitude":"33.729800","Longitude":"-111.431200","Population":7278717,"Region":"AZ"},{"Date":"2020-03-07","Key":"US_CA","CountryCode":"US","CountryName":"United States of America","RegionCode":"CA","RegionName":"California","Confirmed":69.0,"Deaths":null,"Latitude":"36.116200","Longitude":"-119.681600","Population":39512223,"Region":"CA"},{"Date":"2020-03-07","Key":"US_CO","CountryCode":"US","CountryName":"United States of America","RegionCode":"CO","RegionName":"Colorado","Confirmed":8.0,"Deaths":null,"Latitude":"39.059800","Longitude":"-105.311100","Population":5758736,"Region":"CO"},{"Date":"2020-03-07","Key":"US_CT","CountryCode":"US","CountryName":"United States of America","RegionCode":"CT","RegionName":"Connecticut","Confirmed":0.0,"Deaths":null,"Latitude":"41.597800","Longitude":"-72.755400","Population":3565287,"Region":"CT"},{"Date":"2020-03-07","Key":"US_DC","CountryCode":"US","CountryName":"United States of America","RegionCode":"DC","RegionName":"District of Columbia","Confirmed":0.0,"Deaths":null,"Latitude":"38.897400","Longitude":"-77.026800","Population":705749,"Region":"DC"},{"Date":"2020-03-07","Key":"US_DE","CountryCode":"US","CountryName":"United States of America","RegionCode":"DE","RegionName":"Delaware","Confirmed":0.0,"Deaths":null,"Latitude":"39.318500","Longitude":"-75.507100","Population":973764,"Region":"DE"},{"Date":"2020-03-07","Key":"US_FL","CountryCode":"US","CountryName":"United States of America","RegionCode":"FL","RegionName":"Florida","Confirmed":14.0,"Deaths":null,"Latitude":"27.766300","Longitude":"-81.686800","Population":21477737,"Region":"FL"},{"Date":"2020-03-07","Key":"US_GA","CountryCode":"US","CountryName":"United States of America","RegionCode":"GA","RegionName":"Georgia","Confirmed":6.0,"Deaths":null,"Latitude":"33.040600","Longitude":"-83.643100","Population":10617423,"Region":"GA"},{"Date":"2020-03-07","Key":"US_HI","CountryCode":"US","CountryName":"United States of America","RegionCode":"HI","RegionName":"Hawaii","Confirmed":1.0,"Deaths":null,"Latitude":"21.094300","Longitude":"-157.498300","Population":1415872,"Region":"HI"},{"Date":"2020-03-07","Key":"US_IA","CountryCode":"US","CountryName":"United States of America","RegionCode":"IA","RegionName":"Iowa","Confirmed":0.0,"Deaths":null,"Latitude":"42.011500","Longitude":"-93.210500","Population":3155070,"Region":"IA"},{"Date":"2020-03-07","Key":"US_ID","CountryCode":"US","CountryName":"United States of America","RegionCode":"ID","RegionName":"Idaho","Confirmed":0.0,"Deaths":null,"Latitude":"44.240500","Longitude":"-114.478800","Population":1787065,"Region":"ID"},{"Date":"2020-03-07","Key":"US_IL","CountryCode":"US","CountryName":"United States of America","RegionCode":"IL","RegionName":"Illinois","Confirmed":6.0,"Deaths":null,"Latitude":"40.349500","Longitude":"-88.986100","Population":12671821,"Region":"IL"},{"Date":"2020-03-07","Key":"US_IN","CountryCode":"US","CountryName":"United States of America","RegionCode":"IN","RegionName":"Indiana","Confirmed":1.0,"Deaths":null,"Latitude":"39.849400","Longitude":"-86.258300","Population":6732219,"Region":"IN"},{"Date":"2020-03-07","Key":"US_KS","CountryCode":"US","CountryName":"United States of America","RegionCode":"KS","RegionName":"Kansas","Confirmed":0.0,"Deaths":null,"Latitude":"38.526600","Longitude":"-96.726500","Population":2911505,"Region":"KS"},{"Date":"2020-03-07","Key":"US_KY","CountryCode":"US","CountryName":"United States of America","RegionCode":"KY","RegionName":"Kentucky","Confirmed":1.0,"Deaths":null,"Latitude":"37.668100","Longitude":"-84.670100","Population":4468402,"Region":"KY"},{"Date":"2020-03-07","Key":"US_LA","CountryCode":"US","CountryName":"United States of America","RegionCode":"LA","RegionName":"Louisiana","Confirmed":0.0,"Deaths":null,"Latitude":"31.169500","Longitude":"-91.867800","Population":4648794,"Region":"LA"},{"Date":"2020-03-07","Key":"US_MA","CountryCode":"US","CountryName":"United States of America","RegionCode":"MA","RegionName":"Massachusetts","Confirmed":13.0,"Deaths":null,"Latitude":"42.230200","Longitude":"-71.530100","Population":6939373,"Region":"MA"},{"Date":"2020-03-07","Key":"US_MD","CountryCode":"US","CountryName":"United States of America","RegionCode":"MD","RegionName":"Maryland","Confirmed":3.0,"Deaths":null,"Latitude":"39.063900","Longitude":"-76.802100","Population":6045680,"Region":"MD"},{"Date":"2020-03-07","Key":"US_ME","CountryCode":"US","CountryName":"United States of America","RegionCode":"ME","RegionName":"Maine","Confirmed":0.0,"Deaths":null,"Latitude":"44.693900","Longitude":"-69.381900","Population":1338404,"Region":"ME"},{"Date":"2020-03-07","Key":"US_MI","CountryCode":"US","CountryName":"United States of America","RegionCode":"MI","RegionName":"Michigan","Confirmed":0.0,"Deaths":null,"Latitude":"43.326600","Longitude":"-84.536100","Population":9883635,"Region":"MI"},{"Date":"2020-03-07","Key":"US_MN","CountryCode":"US","CountryName":"United States of America","RegionCode":"MN","RegionName":"Minnesota","Confirmed":1.0,"Deaths":null,"Latitude":"44.825400","Longitude":"-93.784200","Population":5639632,"Region":"MN"},{"Date":"2020-03-07","Key":"US_MO","CountryCode":"US","CountryName":"United States of America","RegionCode":"MO","RegionName":"Missouri","Confirmed":0.0,"Deaths":null,"Latitude":"38.456100","Longitude":"-92.288400","Population":6126452,"Region":"MO"},{"Date":"2020-03-07","Key":"US_MS","CountryCode":"US","CountryName":"United States of America","RegionCode":"MS","RegionName":"Mississippi","Confirmed":0.0,"Deaths":null,"Latitude":"32.741600","Longitude":"-89.678700","Population":2976149,"Region":"MS"},{"Date":"2020-03-07","Key":"US_MT","CountryCode":"US","CountryName":"United States of America","RegionCode":"MT","RegionName":"Montana","Confirmed":0.0,"Deaths":null,"Latitude":"46.921900","Longitude":"-110.454400","Population":1068778,"Region":"MT"},{"Date":"2020-03-07","Key":"US_NC","CountryCode":"US","CountryName":"United States of America","RegionCode":"NC","RegionName":"North Carolina","Confirmed":2.0,"Deaths":null,"Latitude":"35.630100","Longitude":"-79.806400","Population":10488084,"Region":"NC"},{"Date":"2020-03-07","Key":"US_ND","CountryCode":"US","CountryName":"United States of America","RegionCode":"ND","RegionName":"North Dakota","Confirmed":0.0,"Deaths":null,"Latitude":"47.528900","Longitude":"-99.784000","Population":762062,"Region":"ND"},{"Date":"2020-03-07","Key":"US_NE","CountryCode":"US","CountryName":"United States of America","RegionCode":"NE","RegionName":"Nebraska","Confirmed":1.0,"Deaths":null,"Latitude":"41.314800","Longitude":"-96.195100","Population":1934408,"Region":"NE"},{"Date":"2020-03-07","Key":"US_NH","CountryCode":"US","CountryName":"United States of America","RegionCode":"NH","RegionName":"New Hampshire","Confirmed":2.0,"Deaths":null,"Latitude":"42.993100","Longitude":"-71.049800","Population":1359711,"Region":"NH"},{"Date":"2020-03-07","Key":"US_NJ","CountryCode":"US","CountryName":"United States of America","RegionCode":"NJ","RegionName":"New Jersey","Confirmed":4.0,"Deaths":null,"Latitude":"40.298900","Longitude":"-74.521000","Population":8882190,"Region":"NJ"},{"Date":"2020-03-07","Key":"US_NM","CountryCode":"US","CountryName":"United States of America","RegionCode":"NM","RegionName":"New Mexico","Confirmed":0.0,"Deaths":null,"Latitude":"34.840500","Longitude":"-106.248500","Population":2096829,"Region":"NM"},{"Date":"2020-03-07","Key":"US_NV","CountryCode":"US","CountryName":"United States of America","RegionCode":"NV","RegionName":"Nevada","Confirmed":1.0,"Deaths":null,"Latitude":"38.313500","Longitude":"-117.055400","Population":3080156,"Region":"NV"},{"Date":"2020-03-07","Key":"US_NY","CountryCode":"US","CountryName":"United States of America","RegionCode":"NY","RegionName":"New York","Confirmed":76.0,"Deaths":null,"Latitude":"42.165700","Longitude":"-74.948100","Population":19453561,"Region":"NY"},{"Date":"2020-03-07","Key":"US_OH","CountryCode":"US","CountryName":"United States of America","RegionCode":"OH","RegionName":"Ohio","Confirmed":0.0,"Deaths":null,"Latitude":"40.388800","Longitude":"-82.764900","Population":11689100,"Region":"OH"},{"Date":"2020-03-07","Key":"US_OK","CountryCode":"US","CountryName":"United States of America","RegionCode":"OK","RegionName":"Oklahoma","Confirmed":1.0,"Deaths":null,"Latitude":"35.565300","Longitude":"-96.928900","Population":3956971,"Region":"OK"},{"Date":"2020-03-07","Key":"US_OR","CountryCode":"US","CountryName":"United States of America","RegionCode":"OR","RegionName":"Oregon","Confirmed":7.0,"Deaths":null,"Latitude":"43.126100","Longitude":"-123.249200","Population":4190713,"Region":"OR"},{"Date":"2020-03-07","Key":"US_PA","CountryCode":"US","CountryName":"United States of America","RegionCode":"PA","RegionName":"Pennsylvania","Confirmed":2.0,"Deaths":null,"Latitude":"40.590800","Longitude":"-77.209800","Population":12801989,"Region":"PA"},{"Date":"2020-03-07","Key":"US_RI","CountryCode":"US","CountryName":"United States of America","RegionCode":"RI","RegionName":"Rhode Island","Confirmed":2.0,"Deaths":null,"Latitude":"41.888200","Longitude":"-71.477400","Population":1057315,"Region":"RI"},{"Date":"2020-03-07","Key":"US_SC","CountryCode":"US","CountryName":"United States of America","RegionCode":"SC","RegionName":"South Carolina","Confirmed":2.0,"Deaths":null,"Latitude":"33.856900","Longitude":"-80.945000","Population":5148714,"Region":"SC"},{"Date":"2020-03-07","Key":"US_SD","CountryCode":"US","CountryName":"United States of America","RegionCode":"SD","RegionName":"South Dakota","Confirmed":0.0,"Deaths":null,"Latitude":"43.890100","Longitude":"-102.254800","Population":884659,"Region":"SD"},{"Date":"2020-03-07","Key":"US_TN","CountryCode":"US","CountryName":"United States of America","RegionCode":"TN","RegionName":"Tennessee","Confirmed":1.0,"Deaths":null,"Latitude":"35.747800","Longitude":"-86.692300","Population":6833793,"Region":"TN"},{"Date":"2020-03-07","Key":"US_TX","CountryCode":"US","CountryName":"United States of America","RegionCode":"TX","RegionName":"Texas","Confirmed":8.0,"Deaths":null,"Latitude":"31.054500","Longitude":"-97.563500","Population":28995881,"Region":"TX"},{"Date":"2020-03-07","Key":"US_UT","CountryCode":"US","CountryName":"United States of America","RegionCode":"UT","RegionName":"Utah","Confirmed":1.0,"Deaths":null,"Latitude":"40.150000","Longitude":"-111.862400","Population":3205958,"Region":"UT"},{"Date":"2020-03-07","Key":"US_VA","CountryCode":"US","CountryName":"United States of America","RegionCode":"VA","RegionName":"Virginia","Confirmed":0.0,"Deaths":null,"Latitude":"37.769300","Longitude":"-78.170000","Population":8535519,"Region":"VA"},{"Date":"2020-03-07","Key":"US_VT","CountryCode":"US","CountryName":"United States of America","RegionCode":"VT","RegionName":"Vermont","Confirmed":0.0,"Deaths":null,"Latitude":"44.045900","Longitude":"-72.710700","Population":623989,"Region":"VT"},{"Date":"2020-03-07","Key":"US_WA","CountryCode":"US","CountryName":"United States of America","RegionCode":"WA","RegionName":"Washington","Confirmed":102.0,"Deaths":16.0,"Latitude":"47.400900","Longitude":"-121.490500","Population":7614893,"Region":"WA"},{"Date":"2020-03-07","Key":"US_WI","CountryCode":"US","CountryName":"United States of America","RegionCode":"WI","RegionName":"Wisconsin","Confirmed":1.0,"Deaths":null,"Latitude":"43.018600","Longitude":"-89.549800","Population":5822434,"Region":"WI"},{"Date":"2020-03-07","Key":"US_WV","CountryCode":"US","CountryName":"United States of America","RegionCode":"WV","RegionName":"West Virginia","Confirmed":0.0,"Deaths":null,"Latitude":"38.491200","Longitude":"-80.954500","Population":1792147,"Region":"WV"},{"Date":"2020-03-07","Key":"US_WY","CountryCode":"US","CountryName":"United States of America","RegionCode":"WY","RegionName":"Wyoming","Confirmed":0.0,"Deaths":null,"Latitude":"42.756000","Longitude":"-107.302500","Population":578759,"Region":"WY"},{"Date":"2020-03-08","Key":"US_AK","CountryCode":"US","CountryName":"United States of America","RegionCode":"AK","RegionName":"Alaska","Confirmed":0.0,"Deaths":null,"Latitude":"61.370700","Longitude":"-152.404400","Population":710249,"Region":"AK"},{"Date":"2020-03-08","Key":"US_AL","CountryCode":"US","CountryName":"United States of America","RegionCode":"AL","RegionName":"Alabama","Confirmed":0.0,"Deaths":null,"Latitude":"32.318200","Longitude":"-86.902300","Population":4903185,"Region":"AL"},{"Date":"2020-03-08","Key":"US_AR","CountryCode":"US","CountryName":"United States of America","RegionCode":"AR","RegionName":"Arkansas","Confirmed":0.0,"Deaths":null,"Latitude":"34.969700","Longitude":"-92.373100","Population":3017804,"Region":"AR"},{"Date":"2020-03-08","Key":"US_AZ","CountryCode":"US","CountryName":"United States of America","RegionCode":"AZ","RegionName":"Arizona","Confirmed":5.0,"Deaths":null,"Latitude":"33.729800","Longitude":"-111.431200","Population":7278717,"Region":"AZ"},{"Date":"2020-03-08","Key":"US_CA","CountryCode":"US","CountryName":"United States of America","RegionCode":"CA","RegionName":"California","Confirmed":88.0,"Deaths":null,"Latitude":"36.116200","Longitude":"-119.681600","Population":39512223,"Region":"CA"},{"Date":"2020-03-08","Key":"US_CO","CountryCode":"US","CountryName":"United States of America","RegionCode":"CO","RegionName":"Colorado","Confirmed":8.0,"Deaths":null,"Latitude":"39.059800","Longitude":"-105.311100","Population":5758736,"Region":"CO"},{"Date":"2020-03-08","Key":"US_CT","CountryCode":"US","CountryName":"United States of America","RegionCode":"CT","RegionName":"Connecticut","Confirmed":1.0,"Deaths":null,"Latitude":"41.597800","Longitude":"-72.755400","Population":3565287,"Region":"CT"},{"Date":"2020-03-08","Key":"US_DC","CountryCode":"US","CountryName":"United States of America","RegionCode":"DC","RegionName":"District of Columbia","Confirmed":1.0,"Deaths":null,"Latitude":"38.897400","Longitude":"-77.026800","Population":705749,"Region":"DC"},{"Date":"2020-03-08","Key":"US_DE","CountryCode":"US","CountryName":"United States of America","RegionCode":"DE","RegionName":"Delaware","Confirmed":0.0,"Deaths":null,"Latitude":"39.318500","Longitude":"-75.507100","Population":973764,"Region":"DE"},{"Date":"2020-03-08","Key":"US_FL","CountryCode":"US","CountryName":"United States of America","RegionCode":"FL","RegionName":"Florida","Confirmed":17.0,"Deaths":null,"Latitude":"27.766300","Longitude":"-81.686800","Population":21477737,"Region":"FL"},{"Date":"2020-03-08","Key":"US_GA","CountryCode":"US","CountryName":"United States of America","RegionCode":"GA","RegionName":"Georgia","Confirmed":7.0,"Deaths":null,"Latitude":"33.040600","Longitude":"-83.643100","Population":10617423,"Region":"GA"},{"Date":"2020-03-08","Key":"US_HI","CountryCode":"US","CountryName":"United States of America","RegionCode":"HI","RegionName":"Hawaii","Confirmed":1.0,"Deaths":null,"Latitude":"21.094300","Longitude":"-157.498300","Population":1415872,"Region":"HI"},{"Date":"2020-03-08","Key":"US_IA","CountryCode":"US","CountryName":"United States of America","RegionCode":"IA","RegionName":"Iowa","Confirmed":0.0,"Deaths":null,"Latitude":"42.011500","Longitude":"-93.210500","Population":3155070,"Region":"IA"},{"Date":"2020-03-08","Key":"US_ID","CountryCode":"US","CountryName":"United States of America","RegionCode":"ID","RegionName":"Idaho","Confirmed":0.0,"Deaths":null,"Latitude":"44.240500","Longitude":"-114.478800","Population":1787065,"Region":"ID"},{"Date":"2020-03-08","Key":"US_IL","CountryCode":"US","CountryName":"United States of America","RegionCode":"IL","RegionName":"Illinois","Confirmed":6.0,"Deaths":null,"Latitude":"40.349500","Longitude":"-88.986100","Population":12671821,"Region":"IL"},{"Date":"2020-03-08","Key":"US_IN","CountryCode":"US","CountryName":"United States of America","RegionCode":"IN","RegionName":"Indiana","Confirmed":2.0,"Deaths":null,"Latitude":"39.849400","Longitude":"-86.258300","Population":6732219,"Region":"IN"},{"Date":"2020-03-08","Key":"US_KS","CountryCode":"US","CountryName":"United States of America","RegionCode":"KS","RegionName":"Kansas","Confirmed":1.0,"Deaths":null,"Latitude":"38.526600","Longitude":"-96.726500","Population":2911505,"Region":"KS"},{"Date":"2020-03-08","Key":"US_KY","CountryCode":"US","CountryName":"United States of America","RegionCode":"KY","RegionName":"Kentucky","Confirmed":1.0,"Deaths":null,"Latitude":"37.668100","Longitude":"-84.670100","Population":4468402,"Region":"KY"},{"Date":"2020-03-08","Key":"US_LA","CountryCode":"US","CountryName":"United States of America","RegionCode":"LA","RegionName":"Louisiana","Confirmed":0.0,"Deaths":null,"Latitude":"31.169500","Longitude":"-91.867800","Population":4648794,"Region":"LA"},{"Date":"2020-03-08","Key":"US_MA","CountryCode":"US","CountryName":"United States of America","RegionCode":"MA","RegionName":"Massachusetts","Confirmed":13.0,"Deaths":null,"Latitude":"42.230200","Longitude":"-71.530100","Population":6939373,"Region":"MA"},{"Date":"2020-03-08","Key":"US_MD","CountryCode":"US","CountryName":"United States of America","RegionCode":"MD","RegionName":"Maryland","Confirmed":3.0,"Deaths":null,"Latitude":"39.063900","Longitude":"-76.802100","Population":6045680,"Region":"MD"},{"Date":"2020-03-08","Key":"US_ME","CountryCode":"US","CountryName":"United States of America","RegionCode":"ME","RegionName":"Maine","Confirmed":0.0,"Deaths":null,"Latitude":"44.693900","Longitude":"-69.381900","Population":1338404,"Region":"ME"},{"Date":"2020-03-08","Key":"US_MI","CountryCode":"US","CountryName":"United States of America","RegionCode":"MI","RegionName":"Michigan","Confirmed":0.0,"Deaths":null,"Latitude":"43.326600","Longitude":"-84.536100","Population":9883635,"Region":"MI"},{"Date":"2020-03-08","Key":"US_MN","CountryCode":"US","CountryName":"United States of America","RegionCode":"MN","RegionName":"Minnesota","Confirmed":1.0,"Deaths":null,"Latitude":"44.825400","Longitude":"-93.784200","Population":5639632,"Region":"MN"},{"Date":"2020-03-08","Key":"US_MO","CountryCode":"US","CountryName":"United States of America","RegionCode":"MO","RegionName":"Missouri","Confirmed":1.0,"Deaths":null,"Latitude":"38.456100","Longitude":"-92.288400","Population":6126452,"Region":"MO"},{"Date":"2020-03-08","Key":"US_MS","CountryCode":"US","CountryName":"United States of America","RegionCode":"MS","RegionName":"Mississippi","Confirmed":0.0,"Deaths":null,"Latitude":"32.741600","Longitude":"-89.678700","Population":2976149,"Region":"MS"},{"Date":"2020-03-08","Key":"US_MT","CountryCode":"US","CountryName":"United States of America","RegionCode":"MT","RegionName":"Montana","Confirmed":0.0,"Deaths":null,"Latitude":"46.921900","Longitude":"-110.454400","Population":1068778,"Region":"MT"},{"Date":"2020-03-08","Key":"US_NC","CountryCode":"US","CountryName":"United States of America","RegionCode":"NC","RegionName":"North Carolina","Confirmed":2.0,"Deaths":null,"Latitude":"35.630100","Longitude":"-79.806400","Population":10488084,"Region":"NC"},{"Date":"2020-03-08","Key":"US_ND","CountryCode":"US","CountryName":"United States of America","RegionCode":"ND","RegionName":"North Dakota","Confirmed":0.0,"Deaths":null,"Latitude":"47.528900","Longitude":"-99.784000","Population":762062,"Region":"ND"},{"Date":"2020-03-08","Key":"US_NE","CountryCode":"US","CountryName":"United States of America","RegionCode":"NE","RegionName":"Nebraska","Confirmed":1.0,"Deaths":null,"Latitude":"41.314800","Longitude":"-96.195100","Population":1934408,"Region":"NE"},{"Date":"2020-03-08","Key":"US_NH","CountryCode":"US","CountryName":"United States of America","RegionCode":"NH","RegionName":"New Hampshire","Confirmed":4.0,"Deaths":null,"Latitude":"42.993100","Longitude":"-71.049800","Population":1359711,"Region":"NH"},{"Date":"2020-03-08","Key":"US_NJ","CountryCode":"US","CountryName":"United States of America","RegionCode":"NJ","RegionName":"New Jersey","Confirmed":6.0,"Deaths":null,"Latitude":"40.298900","Longitude":"-74.521000","Population":8882190,"Region":"NJ"},{"Date":"2020-03-08","Key":"US_NM","CountryCode":"US","CountryName":"United States of America","RegionCode":"NM","RegionName":"New Mexico","Confirmed":0.0,"Deaths":null,"Latitude":"34.840500","Longitude":"-106.248500","Population":2096829,"Region":"NM"},{"Date":"2020-03-08","Key":"US_NV","CountryCode":"US","CountryName":"United States of America","RegionCode":"NV","RegionName":"Nevada","Confirmed":1.0,"Deaths":null,"Latitude":"38.313500","Longitude":"-117.055400","Population":3080156,"Region":"NV"},{"Date":"2020-03-08","Key":"US_NY","CountryCode":"US","CountryName":"United States of America","RegionCode":"NY","RegionName":"New York","Confirmed":105.0,"Deaths":null,"Latitude":"42.165700","Longitude":"-74.948100","Population":19453561,"Region":"NY"},{"Date":"2020-03-08","Key":"US_OH","CountryCode":"US","CountryName":"United States of America","RegionCode":"OH","RegionName":"Ohio","Confirmed":0.0,"Deaths":null,"Latitude":"40.388800","Longitude":"-82.764900","Population":11689100,"Region":"OH"},{"Date":"2020-03-08","Key":"US_OK","CountryCode":"US","CountryName":"United States of America","RegionCode":"OK","RegionName":"Oklahoma","Confirmed":1.0,"Deaths":null,"Latitude":"35.565300","Longitude":"-96.928900","Population":3956971,"Region":"OK"},{"Date":"2020-03-08","Key":"US_OR","CountryCode":"US","CountryName":"United States of America","RegionCode":"OR","RegionName":"Oregon","Confirmed":14.0,"Deaths":null,"Latitude":"43.126100","Longitude":"-123.249200","Population":4190713,"Region":"OR"},{"Date":"2020-03-08","Key":"US_PA","CountryCode":"US","CountryName":"United States of America","RegionCode":"PA","RegionName":"Pennsylvania","Confirmed":4.0,"Deaths":null,"Latitude":"40.590800","Longitude":"-77.209800","Population":12801989,"Region":"PA"},{"Date":"2020-03-08","Key":"US_RI","CountryCode":"US","CountryName":"United States of America","RegionCode":"RI","RegionName":"Rhode Island","Confirmed":3.0,"Deaths":null,"Latitude":"41.888200","Longitude":"-71.477400","Population":1057315,"Region":"RI"},{"Date":"2020-03-08","Key":"US_SC","CountryCode":"US","CountryName":"United States of America","RegionCode":"SC","RegionName":"South Carolina","Confirmed":2.0,"Deaths":null,"Latitude":"33.856900","Longitude":"-80.945000","Population":5148714,"Region":"SC"},{"Date":"2020-03-08","Key":"US_SD","CountryCode":"US","CountryName":"United States of America","RegionCode":"SD","RegionName":"South Dakota","Confirmed":0.0,"Deaths":null,"Latitude":"43.890100","Longitude":"-102.254800","Population":884659,"Region":"SD"},{"Date":"2020-03-08","Key":"US_TN","CountryCode":"US","CountryName":"United States of America","RegionCode":"TN","RegionName":"Tennessee","Confirmed":3.0,"Deaths":null,"Latitude":"35.747800","Longitude":"-86.692300","Population":6833793,"Region":"TN"},{"Date":"2020-03-08","Key":"US_TX","CountryCode":"US","CountryName":"United States of America","RegionCode":"TX","RegionName":"Texas","Confirmed":8.0,"Deaths":null,"Latitude":"31.054500","Longitude":"-97.563500","Population":28995881,"Region":"TX"},{"Date":"2020-03-08","Key":"US_UT","CountryCode":"US","CountryName":"United States of America","RegionCode":"UT","RegionName":"Utah","Confirmed":1.0,"Deaths":null,"Latitude":"40.150000","Longitude":"-111.862400","Population":3205958,"Region":"UT"},{"Date":"2020-03-08","Key":"US_VA","CountryCode":"US","CountryName":"United States of America","RegionCode":"VA","RegionName":"Virginia","Confirmed":2.0,"Deaths":null,"Latitude":"37.769300","Longitude":"-78.170000","Population":8535519,"Region":"VA"},{"Date":"2020-03-08","Key":"US_VT","CountryCode":"US","CountryName":"United States of America","RegionCode":"VT","RegionName":"Vermont","Confirmed":1.0,"Deaths":null,"Latitude":"44.045900","Longitude":"-72.710700","Population":623989,"Region":"VT"},{"Date":"2020-03-08","Key":"US_WA","CountryCode":"US","CountryName":"United States of America","RegionCode":"WA","RegionName":"Washington","Confirmed":102.0,"Deaths":18.0,"Latitude":"47.400900","Longitude":"-121.490500","Population":7614893,"Region":"WA"},{"Date":"2020-03-08","Key":"US_WI","CountryCode":"US","CountryName":"United States of America","RegionCode":"WI","RegionName":"Wisconsin","Confirmed":1.0,"Deaths":null,"Latitude":"43.018600","Longitude":"-89.549800","Population":5822434,"Region":"WI"},{"Date":"2020-03-08","Key":"US_WV","CountryCode":"US","CountryName":"United States of America","RegionCode":"WV","RegionName":"West Virginia","Confirmed":0.0,"Deaths":null,"Latitude":"38.491200","Longitude":"-80.954500","Population":1792147,"Region":"WV"},{"Date":"2020-03-08","Key":"US_WY","CountryCode":"US","CountryName":"United States of America","RegionCode":"WY","RegionName":"Wyoming","Confirmed":0.0,"Deaths":null,"Latitude":"42.756000","Longitude":"-107.302500","Population":578759,"Region":"WY"},{"Date":"2020-03-09","Key":"US_AK","CountryCode":"US","CountryName":"United States of America","RegionCode":"AK","RegionName":"Alaska","Confirmed":0.0,"Deaths":null,"Latitude":"61.370700","Longitude":"-152.404400","Population":710249,"Region":"AK"},{"Date":"2020-03-09","Key":"US_AL","CountryCode":"US","CountryName":"United States of America","RegionCode":"AL","RegionName":"Alabama","Confirmed":0.0,"Deaths":null,"Latitude":"32.318200","Longitude":"-86.902300","Population":4903185,"Region":"AL"},{"Date":"2020-03-09","Key":"US_AR","CountryCode":"US","CountryName":"United States of America","RegionCode":"AR","RegionName":"Arkansas","Confirmed":0.0,"Deaths":null,"Latitude":"34.969700","Longitude":"-92.373100","Population":3017804,"Region":"AR"},{"Date":"2020-03-09","Key":"US_AZ","CountryCode":"US","CountryName":"United States of America","RegionCode":"AZ","RegionName":"Arizona","Confirmed":5.0,"Deaths":null,"Latitude":"33.729800","Longitude":"-111.431200","Population":7278717,"Region":"AZ"},{"Date":"2020-03-09","Key":"US_CA","CountryCode":"US","CountryName":"United States of America","RegionCode":"CA","RegionName":"California","Confirmed":114.0,"Deaths":null,"Latitude":"36.116200","Longitude":"-119.681600","Population":39512223,"Region":"CA"},{"Date":"2020-03-09","Key":"US_CO","CountryCode":"US","CountryName":"United States of America","RegionCode":"CO","RegionName":"Colorado","Confirmed":9.0,"Deaths":null,"Latitude":"39.059800","Longitude":"-105.311100","Population":5758736,"Region":"CO"},{"Date":"2020-03-09","Key":"US_CT","CountryCode":"US","CountryName":"United States of America","RegionCode":"CT","RegionName":"Connecticut","Confirmed":1.0,"Deaths":null,"Latitude":"41.597800","Longitude":"-72.755400","Population":3565287,"Region":"CT"},{"Date":"2020-03-09","Key":"US_DC","CountryCode":"US","CountryName":"United States of America","RegionCode":"DC","RegionName":"District of Columbia","Confirmed":1.0,"Deaths":null,"Latitude":"38.897400","Longitude":"-77.026800","Population":705749,"Region":"DC"},{"Date":"2020-03-09","Key":"US_DE","CountryCode":"US","CountryName":"United States of America","RegionCode":"DE","RegionName":"Delaware","Confirmed":0.0,"Deaths":null,"Latitude":"39.318500","Longitude":"-75.507100","Population":973764,"Region":"DE"},{"Date":"2020-03-09","Key":"US_FL","CountryCode":"US","CountryName":"United States of America","RegionCode":"FL","RegionName":"Florida","Confirmed":18.0,"Deaths":null,"Latitude":"27.766300","Longitude":"-81.686800","Population":21477737,"Region":"FL"},{"Date":"2020-03-09","Key":"US_GA","CountryCode":"US","CountryName":"United States of America","RegionCode":"GA","RegionName":"Georgia","Confirmed":12.0,"Deaths":null,"Latitude":"33.040600","Longitude":"-83.643100","Population":10617423,"Region":"GA"},{"Date":"2020-03-09","Key":"US_HI","CountryCode":"US","CountryName":"United States of America","RegionCode":"HI","RegionName":"Hawaii","Confirmed":2.0,"Deaths":null,"Latitude":"21.094300","Longitude":"-157.498300","Population":1415872,"Region":"HI"},{"Date":"2020-03-09","Key":"US_IA","CountryCode":"US","CountryName":"United States of America","RegionCode":"IA","RegionName":"Iowa","Confirmed":3.0,"Deaths":null,"Latitude":"42.011500","Longitude":"-93.210500","Population":3155070,"Region":"IA"},{"Date":"2020-03-09","Key":"US_ID","CountryCode":"US","CountryName":"United States of America","RegionCode":"ID","RegionName":"Idaho","Confirmed":0.0,"Deaths":null,"Latitude":"44.240500","Longitude":"-114.478800","Population":1787065,"Region":"ID"},{"Date":"2020-03-09","Key":"US_IL","CountryCode":"US","CountryName":"United States of America","RegionCode":"IL","RegionName":"Illinois","Confirmed":7.0,"Deaths":null,"Latitude":"40.349500","Longitude":"-88.986100","Population":12671821,"Region":"IL"},{"Date":"2020-03-09","Key":"US_IN","CountryCode":"US","CountryName":"United States of America","RegionCode":"IN","RegionName":"Indiana","Confirmed":2.0,"Deaths":null,"Latitude":"39.849400","Longitude":"-86.258300","Population":6732219,"Region":"IN"},{"Date":"2020-03-09","Key":"US_KS","CountryCode":"US","CountryName":"United States of America","RegionCode":"KS","RegionName":"Kansas","Confirmed":1.0,"Deaths":null,"Latitude":"38.526600","Longitude":"-96.726500","Population":2911505,"Region":"KS"},{"Date":"2020-03-09","Key":"US_KY","CountryCode":"US","CountryName":"United States of America","RegionCode":"KY","RegionName":"Kentucky","Confirmed":4.0,"Deaths":null,"Latitude":"37.668100","Longitude":"-84.670100","Population":4468402,"Region":"KY"},{"Date":"2020-03-09","Key":"US_LA","CountryCode":"US","CountryName":"United States of America","RegionCode":"LA","RegionName":"Louisiana","Confirmed":1.0,"Deaths":null,"Latitude":"31.169500","Longitude":"-91.867800","Population":4648794,"Region":"LA"},{"Date":"2020-03-09","Key":"US_MA","CountryCode":"US","CountryName":"United States of America","RegionCode":"MA","RegionName":"Massachusetts","Confirmed":41.0,"Deaths":null,"Latitude":"42.230200","Longitude":"-71.530100","Population":6939373,"Region":"MA"},{"Date":"2020-03-09","Key":"US_MD","CountryCode":"US","CountryName":"United States of America","RegionCode":"MD","RegionName":"Maryland","Confirmed":5.0,"Deaths":null,"Latitude":"39.063900","Longitude":"-76.802100","Population":6045680,"Region":"MD"},{"Date":"2020-03-09","Key":"US_ME","CountryCode":"US","CountryName":"United States of America","RegionCode":"ME","RegionName":"Maine","Confirmed":0.0,"Deaths":null,"Latitude":"44.693900","Longitude":"-69.381900","Population":1338404,"Region":"ME"},{"Date":"2020-03-09","Key":"US_MI","CountryCode":"US","CountryName":"United States of America","RegionCode":"MI","RegionName":"Michigan","Confirmed":0.0,"Deaths":null,"Latitude":"43.326600","Longitude":"-84.536100","Population":9883635,"Region":"MI"},{"Date":"2020-03-09","Key":"US_MN","CountryCode":"US","CountryName":"United States of America","RegionCode":"MN","RegionName":"Minnesota","Confirmed":2.0,"Deaths":null,"Latitude":"44.825400","Longitude":"-93.784200","Population":5639632,"Region":"MN"},{"Date":"2020-03-09","Key":"US_MO","CountryCode":"US","CountryName":"United States of America","RegionCode":"MO","RegionName":"Missouri","Confirmed":1.0,"Deaths":null,"Latitude":"38.456100","Longitude":"-92.288400","Population":6126452,"Region":"MO"},{"Date":"2020-03-09","Key":"US_MS","CountryCode":"US","CountryName":"United States of America","RegionCode":"MS","RegionName":"Mississippi","Confirmed":0.0,"Deaths":null,"Latitude":"32.741600","Longitude":"-89.678700","Population":2976149,"Region":"MS"},{"Date":"2020-03-09","Key":"US_MT","CountryCode":"US","CountryName":"United States of America","RegionCode":"MT","RegionName":"Montana","Confirmed":0.0,"Deaths":null,"Latitude":"46.921900","Longitude":"-110.454400","Population":1068778,"Region":"MT"},{"Date":"2020-03-09","Key":"US_NC","CountryCode":"US","CountryName":"United States of America","RegionCode":"NC","RegionName":"North Carolina","Confirmed":2.0,"Deaths":null,"Latitude":"35.630100","Longitude":"-79.806400","Population":10488084,"Region":"NC"},{"Date":"2020-03-09","Key":"US_ND","CountryCode":"US","CountryName":"United States of America","RegionCode":"ND","RegionName":"North Dakota","Confirmed":0.0,"Deaths":null,"Latitude":"47.528900","Longitude":"-99.784000","Population":762062,"Region":"ND"},{"Date":"2020-03-09","Key":"US_NE","CountryCode":"US","CountryName":"United States of America","RegionCode":"NE","RegionName":"Nebraska","Confirmed":3.0,"Deaths":null,"Latitude":"41.314800","Longitude":"-96.195100","Population":1934408,"Region":"NE"},{"Date":"2020-03-09","Key":"US_NH","CountryCode":"US","CountryName":"United States of America","RegionCode":"NH","RegionName":"New Hampshire","Confirmed":4.0,"Deaths":null,"Latitude":"42.993100","Longitude":"-71.049800","Population":1359711,"Region":"NH"},{"Date":"2020-03-09","Key":"US_NJ","CountryCode":"US","CountryName":"United States of America","RegionCode":"NJ","RegionName":"New Jersey","Confirmed":11.0,"Deaths":null,"Latitude":"40.298900","Longitude":"-74.521000","Population":8882190,"Region":"NJ"},{"Date":"2020-03-09","Key":"US_NM","CountryCode":"US","CountryName":"United States of America","RegionCode":"NM","RegionName":"New Mexico","Confirmed":0.0,"Deaths":null,"Latitude":"34.840500","Longitude":"-106.248500","Population":2096829,"Region":"NM"},{"Date":"2020-03-09","Key":"US_NV","CountryCode":"US","CountryName":"United States of America","RegionCode":"NV","RegionName":"Nevada","Confirmed":1.0,"Deaths":null,"Latitude":"38.313500","Longitude":"-117.055400","Population":3080156,"Region":"NV"},{"Date":"2020-03-09","Key":"US_NY","CountryCode":"US","CountryName":"United States of America","RegionCode":"NY","RegionName":"New York","Confirmed":142.0,"Deaths":null,"Latitude":"42.165700","Longitude":"-74.948100","Population":19453561,"Region":"NY"},{"Date":"2020-03-09","Key":"US_OH","CountryCode":"US","CountryName":"United States of America","RegionCode":"OH","RegionName":"Ohio","Confirmed":3.0,"Deaths":null,"Latitude":"40.388800","Longitude":"-82.764900","Population":11689100,"Region":"OH"},{"Date":"2020-03-09","Key":"US_OK","CountryCode":"US","CountryName":"United States of America","RegionCode":"OK","RegionName":"Oklahoma","Confirmed":1.0,"Deaths":null,"Latitude":"35.565300","Longitude":"-96.928900","Population":3956971,"Region":"OK"},{"Date":"2020-03-09","Key":"US_OR","CountryCode":"US","CountryName":"United States of America","RegionCode":"OR","RegionName":"Oregon","Confirmed":14.0,"Deaths":null,"Latitude":"43.126100","Longitude":"-123.249200","Population":4190713,"Region":"OR"},{"Date":"2020-03-09","Key":"US_PA","CountryCode":"US","CountryName":"United States of America","RegionCode":"PA","RegionName":"Pennsylvania","Confirmed":7.0,"Deaths":null,"Latitude":"40.590800","Longitude":"-77.209800","Population":12801989,"Region":"PA"},{"Date":"2020-03-09","Key":"US_RI","CountryCode":"US","CountryName":"United States of America","RegionCode":"RI","RegionName":"Rhode Island","Confirmed":3.0,"Deaths":null,"Latitude":"41.888200","Longitude":"-71.477400","Population":1057315,"Region":"RI"},{"Date":"2020-03-09","Key":"US_SC","CountryCode":"US","CountryName":"United States of America","RegionCode":"SC","RegionName":"South Carolina","Confirmed":7.0,"Deaths":null,"Latitude":"33.856900","Longitude":"-80.945000","Population":5148714,"Region":"SC"},{"Date":"2020-03-09","Key":"US_SD","CountryCode":"US","CountryName":"United States of America","RegionCode":"SD","RegionName":"South Dakota","Confirmed":0.0,"Deaths":null,"Latitude":"43.890100","Longitude":"-102.254800","Population":884659,"Region":"SD"},{"Date":"2020-03-09","Key":"US_TN","CountryCode":"US","CountryName":"United States of America","RegionCode":"TN","RegionName":"Tennessee","Confirmed":3.0,"Deaths":null,"Latitude":"35.747800","Longitude":"-86.692300","Population":6833793,"Region":"TN"},{"Date":"2020-03-09","Key":"US_TX","CountryCode":"US","CountryName":"United States of America","RegionCode":"TX","RegionName":"Texas","Confirmed":12.0,"Deaths":null,"Latitude":"31.054500","Longitude":"-97.563500","Population":28995881,"Region":"TX"},{"Date":"2020-03-09","Key":"US_UT","CountryCode":"US","CountryName":"United States of America","RegionCode":"UT","RegionName":"Utah","Confirmed":1.0,"Deaths":null,"Latitude":"40.150000","Longitude":"-111.862400","Population":3205958,"Region":"UT"},{"Date":"2020-03-09","Key":"US_VA","CountryCode":"US","CountryName":"United States of America","RegionCode":"VA","RegionName":"Virginia","Confirmed":3.0,"Deaths":null,"Latitude":"37.769300","Longitude":"-78.170000","Population":8535519,"Region":"VA"},{"Date":"2020-03-09","Key":"US_VT","CountryCode":"US","CountryName":"United States of America","RegionCode":"VT","RegionName":"Vermont","Confirmed":1.0,"Deaths":null,"Latitude":"44.045900","Longitude":"-72.710700","Population":623989,"Region":"VT"},{"Date":"2020-03-09","Key":"US_WA","CountryCode":"US","CountryName":"United States of America","RegionCode":"WA","RegionName":"Washington","Confirmed":136.0,"Deaths":22.0,"Latitude":"47.400900","Longitude":"-121.490500","Population":7614893,"Region":"WA"},{"Date":"2020-03-09","Key":"US_WI","CountryCode":"US","CountryName":"United States of America","RegionCode":"WI","RegionName":"Wisconsin","Confirmed":1.0,"Deaths":null,"Latitude":"43.018600","Longitude":"-89.549800","Population":5822434,"Region":"WI"},{"Date":"2020-03-09","Key":"US_WV","CountryCode":"US","CountryName":"United States of America","RegionCode":"WV","RegionName":"West Virginia","Confirmed":0.0,"Deaths":null,"Latitude":"38.491200","Longitude":"-80.954500","Population":1792147,"Region":"WV"},{"Date":"2020-03-09","Key":"US_WY","CountryCode":"US","CountryName":"United States of America","RegionCode":"WY","RegionName":"Wyoming","Confirmed":0.0,"Deaths":null,"Latitude":"42.756000","Longitude":"-107.302500","Population":578759,"Region":"WY"},{"Date":"2020-03-10","Key":"US_AK","CountryCode":"US","CountryName":"United States of America","RegionCode":"AK","RegionName":"Alaska","Confirmed":0.0,"Deaths":null,"Latitude":"61.370700","Longitude":"-152.404400","Population":710249,"Region":"AK"},{"Date":"2020-03-10","Key":"US_AL","CountryCode":"US","CountryName":"United States of America","RegionCode":"AL","RegionName":"Alabama","Confirmed":0.0,"Deaths":null,"Latitude":"32.318200","Longitude":"-86.902300","Population":4903185,"Region":"AL"},{"Date":"2020-03-10","Key":"US_AR","CountryCode":"US","CountryName":"United States of America","RegionCode":"AR","RegionName":"Arkansas","Confirmed":0.0,"Deaths":null,"Latitude":"34.969700","Longitude":"-92.373100","Population":3017804,"Region":"AR"},{"Date":"2020-03-10","Key":"US_AZ","CountryCode":"US","CountryName":"United States of America","RegionCode":"AZ","RegionName":"Arizona","Confirmed":6.0,"Deaths":null,"Latitude":"33.729800","Longitude":"-111.431200","Population":7278717,"Region":"AZ"},{"Date":"2020-03-10","Key":"US_CA","CountryCode":"US","CountryName":"United States of America","RegionCode":"CA","RegionName":"California","Confirmed":133.0,"Deaths":null,"Latitude":"36.116200","Longitude":"-119.681600","Population":39512223,"Region":"CA"},{"Date":"2020-03-10","Key":"US_CO","CountryCode":"US","CountryName":"United States of America","RegionCode":"CO","RegionName":"Colorado","Confirmed":12.0,"Deaths":null,"Latitude":"39.059800","Longitude":"-105.311100","Population":5758736,"Region":"CO"},{"Date":"2020-03-10","Key":"US_CT","CountryCode":"US","CountryName":"United States of America","RegionCode":"CT","RegionName":"Connecticut","Confirmed":2.0,"Deaths":null,"Latitude":"41.597800","Longitude":"-72.755400","Population":3565287,"Region":"CT"},{"Date":"2020-03-10","Key":"US_DC","CountryCode":"US","CountryName":"United States of America","RegionCode":"DC","RegionName":"District of Columbia","Confirmed":5.0,"Deaths":null,"Latitude":"38.897400","Longitude":"-77.026800","Population":705749,"Region":"DC"},{"Date":"2020-03-10","Key":"US_DE","CountryCode":"US","CountryName":"United States of America","RegionCode":"DE","RegionName":"Delaware","Confirmed":0.0,"Deaths":null,"Latitude":"39.318500","Longitude":"-75.507100","Population":973764,"Region":"DE"},{"Date":"2020-03-10","Key":"US_FL","CountryCode":"US","CountryName":"United States of America","RegionCode":"FL","RegionName":"Florida","Confirmed":19.0,"Deaths":null,"Latitude":"27.766300","Longitude":"-81.686800","Population":21477737,"Region":"FL"},{"Date":"2020-03-10","Key":"US_GA","CountryCode":"US","CountryName":"United States of America","RegionCode":"GA","RegionName":"Georgia","Confirmed":17.0,"Deaths":null,"Latitude":"33.040600","Longitude":"-83.643100","Population":10617423,"Region":"GA"},{"Date":"2020-03-10","Key":"US_HI","CountryCode":"US","CountryName":"United States of America","RegionCode":"HI","RegionName":"Hawaii","Confirmed":2.0,"Deaths":null,"Latitude":"21.094300","Longitude":"-157.498300","Population":1415872,"Region":"HI"},{"Date":"2020-03-10","Key":"US_IA","CountryCode":"US","CountryName":"United States of America","RegionCode":"IA","RegionName":"Iowa","Confirmed":8.0,"Deaths":null,"Latitude":"42.011500","Longitude":"-93.210500","Population":3155070,"Region":"IA"},{"Date":"2020-03-10","Key":"US_ID","CountryCode":"US","CountryName":"United States of America","RegionCode":"ID","RegionName":"Idaho","Confirmed":0.0,"Deaths":null,"Latitude":"44.240500","Longitude":"-114.478800","Population":1787065,"Region":"ID"},{"Date":"2020-03-10","Key":"US_IL","CountryCode":"US","CountryName":"United States of America","RegionCode":"IL","RegionName":"Illinois","Confirmed":19.0,"Deaths":null,"Latitude":"40.349500","Longitude":"-88.986100","Population":12671821,"Region":"IL"},{"Date":"2020-03-10","Key":"US_IN","CountryCode":"US","CountryName":"United States of America","RegionCode":"IN","RegionName":"Indiana","Confirmed":6.0,"Deaths":null,"Latitude":"39.849400","Longitude":"-86.258300","Population":6732219,"Region":"IN"},{"Date":"2020-03-10","Key":"US_KS","CountryCode":"US","CountryName":"United States of America","RegionCode":"KS","RegionName":"Kansas","Confirmed":1.0,"Deaths":null,"Latitude":"38.526600","Longitude":"-96.726500","Population":2911505,"Region":"KS"},{"Date":"2020-03-10","Key":"US_KY","CountryCode":"US","CountryName":"United States of America","RegionCode":"KY","RegionName":"Kentucky","Confirmed":6.0,"Deaths":null,"Latitude":"37.668100","Longitude":"-84.670100","Population":4468402,"Region":"KY"},{"Date":"2020-03-10","Key":"US_LA","CountryCode":"US","CountryName":"United States of America","RegionCode":"LA","RegionName":"Louisiana","Confirmed":1.0,"Deaths":null,"Latitude":"31.169500","Longitude":"-91.867800","Population":4648794,"Region":"LA"},{"Date":"2020-03-10","Key":"US_MA","CountryCode":"US","CountryName":"United States of America","RegionCode":"MA","RegionName":"Massachusetts","Confirmed":92.0,"Deaths":null,"Latitude":"42.230200","Longitude":"-71.530100","Population":6939373,"Region":"MA"},{"Date":"2020-03-10","Key":"US_MD","CountryCode":"US","CountryName":"United States of America","RegionCode":"MD","RegionName":"Maryland","Confirmed":6.0,"Deaths":null,"Latitude":"39.063900","Longitude":"-76.802100","Population":6045680,"Region":"MD"},{"Date":"2020-03-10","Key":"US_ME","CountryCode":"US","CountryName":"United States of America","RegionCode":"ME","RegionName":"Maine","Confirmed":0.0,"Deaths":null,"Latitude":"44.693900","Longitude":"-69.381900","Population":1338404,"Region":"ME"},{"Date":"2020-03-10","Key":"US_MI","CountryCode":"US","CountryName":"United States of America","RegionCode":"MI","RegionName":"Michigan","Confirmed":0.0,"Deaths":null,"Latitude":"43.326600","Longitude":"-84.536100","Population":9883635,"Region":"MI"},{"Date":"2020-03-10","Key":"US_MN","CountryCode":"US","CountryName":"United States of America","RegionCode":"MN","RegionName":"Minnesota","Confirmed":3.0,"Deaths":null,"Latitude":"44.825400","Longitude":"-93.784200","Population":5639632,"Region":"MN"},{"Date":"2020-03-10","Key":"US_MO","CountryCode":"US","CountryName":"United States of America","RegionCode":"MO","RegionName":"Missouri","Confirmed":1.0,"Deaths":null,"Latitude":"38.456100","Longitude":"-92.288400","Population":6126452,"Region":"MO"},{"Date":"2020-03-10","Key":"US_MS","CountryCode":"US","CountryName":"United States of America","RegionCode":"MS","RegionName":"Mississippi","Confirmed":0.0,"Deaths":null,"Latitude":"32.741600","Longitude":"-89.678700","Population":2976149,"Region":"MS"},{"Date":"2020-03-10","Key":"US_MT","CountryCode":"US","CountryName":"United States of America","RegionCode":"MT","RegionName":"Montana","Confirmed":0.0,"Deaths":null,"Latitude":"46.921900","Longitude":"-110.454400","Population":1068778,"Region":"MT"},{"Date":"2020-03-10","Key":"US_NC","CountryCode":"US","CountryName":"United States of America","RegionCode":"NC","RegionName":"North Carolina","Confirmed":7.0,"Deaths":null,"Latitude":"35.630100","Longitude":"-79.806400","Population":10488084,"Region":"NC"},{"Date":"2020-03-10","Key":"US_ND","CountryCode":"US","CountryName":"United States of America","RegionCode":"ND","RegionName":"North Dakota","Confirmed":0.0,"Deaths":null,"Latitude":"47.528900","Longitude":"-99.784000","Population":762062,"Region":"ND"},{"Date":"2020-03-10","Key":"US_NE","CountryCode":"US","CountryName":"United States of America","RegionCode":"NE","RegionName":"Nebraska","Confirmed":3.0,"Deaths":null,"Latitude":"41.314800","Longitude":"-96.195100","Population":1934408,"Region":"NE"},{"Date":"2020-03-10","Key":"US_NH","CountryCode":"US","CountryName":"United States of America","RegionCode":"NH","RegionName":"New Hampshire","Confirmed":4.0,"Deaths":null,"Latitude":"42.993100","Longitude":"-71.049800","Population":1359711,"Region":"NH"},{"Date":"2020-03-10","Key":"US_NJ","CountryCode":"US","CountryName":"United States of America","RegionCode":"NJ","RegionName":"New Jersey","Confirmed":15.0,"Deaths":null,"Latitude":"40.298900","Longitude":"-74.521000","Population":8882190,"Region":"NJ"},{"Date":"2020-03-10","Key":"US_NM","CountryCode":"US","CountryName":"United States of America","RegionCode":"NM","RegionName":"New Mexico","Confirmed":0.0,"Deaths":null,"Latitude":"34.840500","Longitude":"-106.248500","Population":2096829,"Region":"NM"},{"Date":"2020-03-10","Key":"US_NV","CountryCode":"US","CountryName":"United States of America","RegionCode":"NV","RegionName":"Nevada","Confirmed":0.0,"Deaths":null,"Latitude":"38.313500","Longitude":"-117.055400","Population":3080156,"Region":"NV"},{"Date":"2020-03-10","Key":"US_NY","CountryCode":"US","CountryName":"United States of America","RegionCode":"NY","RegionName":"New York","Confirmed":173.0,"Deaths":null,"Latitude":"42.165700","Longitude":"-74.948100","Population":19453561,"Region":"NY"},{"Date":"2020-03-10","Key":"US_OH","CountryCode":"US","CountryName":"United States of America","RegionCode":"OH","RegionName":"Ohio","Confirmed":3.0,"Deaths":null,"Latitude":"40.388800","Longitude":"-82.764900","Population":11689100,"Region":"OH"},{"Date":"2020-03-10","Key":"US_OK","CountryCode":"US","CountryName":"United States of America","RegionCode":"OK","RegionName":"Oklahoma","Confirmed":2.0,"Deaths":null,"Latitude":"35.565300","Longitude":"-96.928900","Population":3956971,"Region":"OK"},{"Date":"2020-03-10","Key":"US_OR","CountryCode":"US","CountryName":"United States of America","RegionCode":"OR","RegionName":"Oregon","Confirmed":15.0,"Deaths":null,"Latitude":"43.126100","Longitude":"-123.249200","Population":4190713,"Region":"OR"},{"Date":"2020-03-10","Key":"US_PA","CountryCode":"US","CountryName":"United States of America","RegionCode":"PA","RegionName":"Pennsylvania","Confirmed":12.0,"Deaths":null,"Latitude":"40.590800","Longitude":"-77.209800","Population":12801989,"Region":"PA"},{"Date":"2020-03-10","Key":"US_RI","CountryCode":"US","CountryName":"United States of America","RegionCode":"RI","RegionName":"Rhode Island","Confirmed":3.0,"Deaths":null,"Latitude":"41.888200","Longitude":"-71.477400","Population":1057315,"Region":"RI"},{"Date":"2020-03-10","Key":"US_SC","CountryCode":"US","CountryName":"United States of America","RegionCode":"SC","RegionName":"South Carolina","Confirmed":7.0,"Deaths":null,"Latitude":"33.856900","Longitude":"-80.945000","Population":5148714,"Region":"SC"},{"Date":"2020-03-10","Key":"US_SD","CountryCode":"US","CountryName":"United States of America","RegionCode":"SD","RegionName":"South Dakota","Confirmed":0.0,"Deaths":null,"Latitude":"43.890100","Longitude":"-102.254800","Population":884659,"Region":"SD"},{"Date":"2020-03-10","Key":"US_TN","CountryCode":"US","CountryName":"United States of America","RegionCode":"TN","RegionName":"Tennessee","Confirmed":7.0,"Deaths":null,"Latitude":"35.747800","Longitude":"-86.692300","Population":6833793,"Region":"TN"},{"Date":"2020-03-10","Key":"US_TX","CountryCode":"US","CountryName":"United States of America","RegionCode":"TX","RegionName":"Texas","Confirmed":13.0,"Deaths":null,"Latitude":"31.054500","Longitude":"-97.563500","Population":28995881,"Region":"TX"},{"Date":"2020-03-10","Key":"US_UT","CountryCode":"US","CountryName":"United States of America","RegionCode":"UT","RegionName":"Utah","Confirmed":2.0,"Deaths":null,"Latitude":"40.150000","Longitude":"-111.862400","Population":3205958,"Region":"UT"},{"Date":"2020-03-10","Key":"US_VA","CountryCode":"US","CountryName":"United States of America","RegionCode":"VA","RegionName":"Virginia","Confirmed":8.0,"Deaths":null,"Latitude":"37.769300","Longitude":"-78.170000","Population":8535519,"Region":"VA"},{"Date":"2020-03-10","Key":"US_VT","CountryCode":"US","CountryName":"United States of America","RegionCode":"VT","RegionName":"Vermont","Confirmed":1.0,"Deaths":null,"Latitude":"44.045900","Longitude":"-72.710700","Population":623989,"Region":"VT"},{"Date":"2020-03-10","Key":"US_WA","CountryCode":"US","CountryName":"United States of America","RegionCode":"WA","RegionName":"Washington","Confirmed":162.0,"Deaths":24.0,"Latitude":"47.400900","Longitude":"-121.490500","Population":7614893,"Region":"WA"},{"Date":"2020-03-10","Key":"US_WI","CountryCode":"US","CountryName":"United States of America","RegionCode":"WI","RegionName":"Wisconsin","Confirmed":2.0,"Deaths":null,"Latitude":"43.018600","Longitude":"-89.549800","Population":5822434,"Region":"WI"},{"Date":"2020-03-10","Key":"US_WV","CountryCode":"US","CountryName":"United States of America","RegionCode":"WV","RegionName":"West Virginia","Confirmed":0.0,"Deaths":null,"Latitude":"38.491200","Longitude":"-80.954500","Population":1792147,"Region":"WV"},{"Date":"2020-03-10","Key":"US_WY","CountryCode":"US","CountryName":"United States of America","RegionCode":"WY","RegionName":"Wyoming","Confirmed":0.0,"Deaths":null,"Latitude":"42.756000","Longitude":"-107.302500","Population":578759,"Region":"WY"},{"Date":"2020-03-11","Key":"US_AK","CountryCode":"US","CountryName":"United States of America","RegionCode":"AK","RegionName":"Alaska","Confirmed":0.0,"Deaths":null,"Latitude":"61.370700","Longitude":"-152.404400","Population":710249,"Region":"AK"},{"Date":"2020-03-11","Key":"US_AL","CountryCode":"US","CountryName":"United States of America","RegionCode":"AL","RegionName":"Alabama","Confirmed":0.0,"Deaths":null,"Latitude":"32.318200","Longitude":"-86.902300","Population":4903185,"Region":"AL"},{"Date":"2020-03-11","Key":"US_AR","CountryCode":"US","CountryName":"United States of America","RegionCode":"AR","RegionName":"Arkansas","Confirmed":0.0,"Deaths":null,"Latitude":"34.969700","Longitude":"-92.373100","Population":3017804,"Region":"AR"},{"Date":"2020-03-11","Key":"US_AZ","CountryCode":"US","CountryName":"United States of America","RegionCode":"AZ","RegionName":"Arizona","Confirmed":9.0,"Deaths":null,"Latitude":"33.729800","Longitude":"-111.431200","Population":7278717,"Region":"AZ"},{"Date":"2020-03-11","Key":"US_CA","CountryCode":"US","CountryName":"United States of America","RegionCode":"CA","RegionName":"California","Confirmed":157.0,"Deaths":null,"Latitude":"36.116200","Longitude":"-119.681600","Population":39512223,"Region":"CA"},{"Date":"2020-03-11","Key":"US_CO","CountryCode":"US","CountryName":"United States of America","RegionCode":"CO","RegionName":"Colorado","Confirmed":28.0,"Deaths":null,"Latitude":"39.059800","Longitude":"-105.311100","Population":5758736,"Region":"CO"},{"Date":"2020-03-11","Key":"US_CT","CountryCode":"US","CountryName":"United States of America","RegionCode":"CT","RegionName":"Connecticut","Confirmed":3.0,"Deaths":null,"Latitude":"41.597800","Longitude":"-72.755400","Population":3565287,"Region":"CT"},{"Date":"2020-03-11","Key":"US_DC","CountryCode":"US","CountryName":"United States of America","RegionCode":"DC","RegionName":"District of Columbia","Confirmed":5.0,"Deaths":null,"Latitude":"38.897400","Longitude":"-77.026800","Population":705749,"Region":"DC"},{"Date":"2020-03-11","Key":"US_DE","CountryCode":"US","CountryName":"United States of America","RegionCode":"DE","RegionName":"Delaware","Confirmed":1.0,"Deaths":null,"Latitude":"39.318500","Longitude":"-75.507100","Population":973764,"Region":"DE"},{"Date":"2020-03-11","Key":"US_FL","CountryCode":"US","CountryName":"United States of America","RegionCode":"FL","RegionName":"Florida","Confirmed":28.0,"Deaths":2.0,"Latitude":"27.766300","Longitude":"-81.686800","Population":21477737,"Region":"FL"},{"Date":"2020-03-11","Key":"US_GA","CountryCode":"US","CountryName":"United States of America","RegionCode":"GA","RegionName":"Georgia","Confirmed":22.0,"Deaths":null,"Latitude":"33.040600","Longitude":"-83.643100","Population":10617423,"Region":"GA"},{"Date":"2020-03-11","Key":"US_HI","CountryCode":"US","CountryName":"United States of America","RegionCode":"HI","RegionName":"Hawaii","Confirmed":2.0,"Deaths":null,"Latitude":"21.094300","Longitude":"-157.498300","Population":1415872,"Region":"HI"},{"Date":"2020-03-11","Key":"US_IA","CountryCode":"US","CountryName":"United States of America","RegionCode":"IA","RegionName":"Iowa","Confirmed":13.0,"Deaths":null,"Latitude":"42.011500","Longitude":"-93.210500","Population":3155070,"Region":"IA"},{"Date":"2020-03-11","Key":"US_ID","CountryCode":"US","CountryName":"United States of America","RegionCode":"ID","RegionName":"Idaho","Confirmed":0.0,"Deaths":null,"Latitude":"44.240500","Longitude":"-114.478800","Population":1787065,"Region":"ID"},{"Date":"2020-03-11","Key":"US_IL","CountryCode":"US","CountryName":"United States of America","RegionCode":"IL","RegionName":"Illinois","Confirmed":19.0,"Deaths":null,"Latitude":"40.349500","Longitude":"-88.986100","Population":12671821,"Region":"IL"},{"Date":"2020-03-11","Key":"US_IN","CountryCode":"US","CountryName":"United States of America","RegionCode":"IN","RegionName":"Indiana","Confirmed":10.0,"Deaths":null,"Latitude":"39.849400","Longitude":"-86.258300","Population":6732219,"Region":"IN"},{"Date":"2020-03-11","Key":"US_KS","CountryCode":"US","CountryName":"United States of America","RegionCode":"KS","RegionName":"Kansas","Confirmed":1.0,"Deaths":null,"Latitude":"38.526600","Longitude":"-96.726500","Population":2911505,"Region":"KS"},{"Date":"2020-03-11","Key":"US_KY","CountryCode":"US","CountryName":"United States of America","RegionCode":"KY","RegionName":"Kentucky","Confirmed":8.0,"Deaths":null,"Latitude":"37.668100","Longitude":"-84.670100","Population":4468402,"Region":"KY"},{"Date":"2020-03-11","Key":"US_LA","CountryCode":"US","CountryName":"United States of America","RegionCode":"LA","RegionName":"Louisiana","Confirmed":6.0,"Deaths":null,"Latitude":"31.169500","Longitude":"-91.867800","Population":4648794,"Region":"LA"},{"Date":"2020-03-11","Key":"US_MA","CountryCode":"US","CountryName":"United States of America","RegionCode":"MA","RegionName":"Massachusetts","Confirmed":92.0,"Deaths":null,"Latitude":"42.230200","Longitude":"-71.530100","Population":6939373,"Region":"MA"},{"Date":"2020-03-11","Key":"US_MD","CountryCode":"US","CountryName":"United States of America","RegionCode":"MD","RegionName":"Maryland","Confirmed":9.0,"Deaths":null,"Latitude":"39.063900","Longitude":"-76.802100","Population":6045680,"Region":"MD"},{"Date":"2020-03-11","Key":"US_ME","CountryCode":"US","CountryName":"United States of America","RegionCode":"ME","RegionName":"Maine","Confirmed":0.0,"Deaths":null,"Latitude":"44.693900","Longitude":"-69.381900","Population":1338404,"Region":"ME"},{"Date":"2020-03-11","Key":"US_MI","CountryCode":"US","CountryName":"United States of America","RegionCode":"MI","RegionName":"Michigan","Confirmed":2.0,"Deaths":null,"Latitude":"43.326600","Longitude":"-84.536100","Population":9883635,"Region":"MI"},{"Date":"2020-03-11","Key":"US_MN","CountryCode":"US","CountryName":"United States of America","RegionCode":"MN","RegionName":"Minnesota","Confirmed":5.0,"Deaths":null,"Latitude":"44.825400","Longitude":"-93.784200","Population":5639632,"Region":"MN"},{"Date":"2020-03-11","Key":"US_MO","CountryCode":"US","CountryName":"United States of America","RegionCode":"MO","RegionName":"Missouri","Confirmed":1.0,"Deaths":null,"Latitude":"38.456100","Longitude":"-92.288400","Population":6126452,"Region":"MO"},{"Date":"2020-03-11","Key":"US_MS","CountryCode":"US","CountryName":"United States of America","RegionCode":"MS","RegionName":"Mississippi","Confirmed":0.0,"Deaths":null,"Latitude":"32.741600","Longitude":"-89.678700","Population":2976149,"Region":"MS"},{"Date":"2020-03-11","Key":"US_MT","CountryCode":"US","CountryName":"United States of America","RegionCode":"MT","RegionName":"Montana","Confirmed":0.0,"Deaths":null,"Latitude":"46.921900","Longitude":"-110.454400","Population":1068778,"Region":"MT"},{"Date":"2020-03-11","Key":"US_NC","CountryCode":"US","CountryName":"United States of America","RegionCode":"NC","RegionName":"North Carolina","Confirmed":7.0,"Deaths":null,"Latitude":"35.630100","Longitude":"-79.806400","Population":10488084,"Region":"NC"},{"Date":"2020-03-11","Key":"US_ND","CountryCode":"US","CountryName":"United States of America","RegionCode":"ND","RegionName":"North Dakota","Confirmed":0.0,"Deaths":null,"Latitude":"47.528900","Longitude":"-99.784000","Population":762062,"Region":"ND"},{"Date":"2020-03-11","Key":"US_NE","CountryCode":"US","CountryName":"United States of America","RegionCode":"NE","RegionName":"Nebraska","Confirmed":5.0,"Deaths":null,"Latitude":"41.314800","Longitude":"-96.195100","Population":1934408,"Region":"NE"},{"Date":"2020-03-11","Key":"US_NH","CountryCode":"US","CountryName":"United States of America","RegionCode":"NH","RegionName":"New Hampshire","Confirmed":4.0,"Deaths":null,"Latitude":"42.993100","Longitude":"-71.049800","Population":1359711,"Region":"NH"},{"Date":"2020-03-11","Key":"US_NJ","CountryCode":"US","CountryName":"United States of America","RegionCode":"NJ","RegionName":"New Jersey","Confirmed":24.0,"Deaths":1.0,"Latitude":"40.298900","Longitude":"-74.521000","Population":8882190,"Region":"NJ"},{"Date":"2020-03-11","Key":"US_NM","CountryCode":"US","CountryName":"United States of America","RegionCode":"NM","RegionName":"New Mexico","Confirmed":3.0,"Deaths":null,"Latitude":"34.840500","Longitude":"-106.248500","Population":2096829,"Region":"NM"},{"Date":"2020-03-11","Key":"US_NV","CountryCode":"US","CountryName":"United States of America","RegionCode":"NV","RegionName":"Nevada","Confirmed":5.0,"Deaths":null,"Latitude":"38.313500","Longitude":"-117.055400","Population":3080156,"Region":"NV"},{"Date":"2020-03-11","Key":"US_NY","CountryCode":"US","CountryName":"United States of America","RegionCode":"NY","RegionName":"New York","Confirmed":216.0,"Deaths":null,"Latitude":"42.165700","Longitude":"-74.948100","Population":19453561,"Region":"NY"},{"Date":"2020-03-11","Key":"US_OH","CountryCode":"US","CountryName":"United States of America","RegionCode":"OH","RegionName":"Ohio","Confirmed":4.0,"Deaths":null,"Latitude":"40.388800","Longitude":"-82.764900","Population":11689100,"Region":"OH"},{"Date":"2020-03-11","Key":"US_OK","CountryCode":"US","CountryName":"United States of America","RegionCode":"OK","RegionName":"Oklahoma","Confirmed":2.0,"Deaths":null,"Latitude":"35.565300","Longitude":"-96.928900","Population":3956971,"Region":"OK"},{"Date":"2020-03-11","Key":"US_OR","CountryCode":"US","CountryName":"United States of America","RegionCode":"OR","RegionName":"Oregon","Confirmed":19.0,"Deaths":null,"Latitude":"43.126100","Longitude":"-123.249200","Population":4190713,"Region":"OR"},{"Date":"2020-03-11","Key":"US_PA","CountryCode":"US","CountryName":"United States of America","RegionCode":"PA","RegionName":"Pennsylvania","Confirmed":15.0,"Deaths":null,"Latitude":"40.590800","Longitude":"-77.209800","Population":12801989,"Region":"PA"},{"Date":"2020-03-11","Key":"US_RI","CountryCode":"US","CountryName":"United States of America","RegionCode":"RI","RegionName":"Rhode Island","Confirmed":5.0,"Deaths":null,"Latitude":"41.888200","Longitude":"-71.477400","Population":1057315,"Region":"RI"},{"Date":"2020-03-11","Key":"US_SC","CountryCode":"US","CountryName":"United States of America","RegionCode":"SC","RegionName":"South Carolina","Confirmed":9.0,"Deaths":null,"Latitude":"33.856900","Longitude":"-80.945000","Population":5148714,"Region":"SC"},{"Date":"2020-03-11","Key":"US_SD","CountryCode":"US","CountryName":"United States of America","RegionCode":"SD","RegionName":"South Dakota","Confirmed":5.0,"Deaths":null,"Latitude":"43.890100","Longitude":"-102.254800","Population":884659,"Region":"SD"},{"Date":"2020-03-11","Key":"US_TN","CountryCode":"US","CountryName":"United States of America","RegionCode":"TN","RegionName":"Tennessee","Confirmed":7.0,"Deaths":null,"Latitude":"35.747800","Longitude":"-86.692300","Population":6833793,"Region":"TN"},{"Date":"2020-03-11","Key":"US_TX","CountryCode":"US","CountryName":"United States of America","RegionCode":"TX","RegionName":"Texas","Confirmed":21.0,"Deaths":null,"Latitude":"31.054500","Longitude":"-97.563500","Population":28995881,"Region":"TX"},{"Date":"2020-03-11","Key":"US_UT","CountryCode":"US","CountryName":"United States of America","RegionCode":"UT","RegionName":"Utah","Confirmed":2.0,"Deaths":null,"Latitude":"40.150000","Longitude":"-111.862400","Population":3205958,"Region":"UT"},{"Date":"2020-03-11","Key":"US_VA","CountryCode":"US","CountryName":"United States of America","RegionCode":"VA","RegionName":"Virginia","Confirmed":9.0,"Deaths":null,"Latitude":"37.769300","Longitude":"-78.170000","Population":8535519,"Region":"VA"},{"Date":"2020-03-11","Key":"US_VT","CountryCode":"US","CountryName":"United States of America","RegionCode":"VT","RegionName":"Vermont","Confirmed":1.0,"Deaths":null,"Latitude":"44.045900","Longitude":"-72.710700","Population":623989,"Region":"VT"},{"Date":"2020-03-11","Key":"US_WA","CountryCode":"US","CountryName":"United States of America","RegionCode":"WA","RegionName":"Washington","Confirmed":267.0,"Deaths":24.0,"Latitude":"47.400900","Longitude":"-121.490500","Population":7614893,"Region":"WA"},{"Date":"2020-03-11","Key":"US_WI","CountryCode":"US","CountryName":"United States of America","RegionCode":"WI","RegionName":"Wisconsin","Confirmed":3.0,"Deaths":null,"Latitude":"43.018600","Longitude":"-89.549800","Population":5822434,"Region":"WI"},{"Date":"2020-03-11","Key":"US_WV","CountryCode":"US","CountryName":"United States of America","RegionCode":"WV","RegionName":"West Virginia","Confirmed":0.0,"Deaths":null,"Latitude":"38.491200","Longitude":"-80.954500","Population":1792147,"Region":"WV"},{"Date":"2020-03-11","Key":"US_WY","CountryCode":"US","CountryName":"United States of America","RegionCode":"WY","RegionName":"Wyoming","Confirmed":0.0,"Deaths":null,"Latitude":"42.756000","Longitude":"-107.302500","Population":578759,"Region":"WY"},{"Date":"2020-03-12","Key":"US_AK","CountryCode":"US","CountryName":"United States of America","RegionCode":"AK","RegionName":"Alaska","Confirmed":0.0,"Deaths":null,"Latitude":"61.370700","Longitude":"-152.404400","Population":710249,"Region":"AK"},{"Date":"2020-03-12","Key":"US_AL","CountryCode":"US","CountryName":"United States of America","RegionCode":"AL","RegionName":"Alabama","Confirmed":0.0,"Deaths":null,"Latitude":"32.318200","Longitude":"-86.902300","Population":4903185,"Region":"AL"},{"Date":"2020-03-12","Key":"US_AR","CountryCode":"US","CountryName":"United States of America","RegionCode":"AR","RegionName":"Arkansas","Confirmed":6.0,"Deaths":null,"Latitude":"34.969700","Longitude":"-92.373100","Population":3017804,"Region":"AR"},{"Date":"2020-03-12","Key":"US_AZ","CountryCode":"US","CountryName":"United States of America","RegionCode":"AZ","RegionName":"Arizona","Confirmed":9.0,"Deaths":null,"Latitude":"33.729800","Longitude":"-111.431200","Population":7278717,"Region":"AZ"},{"Date":"2020-03-12","Key":"US_CA","CountryCode":"US","CountryName":"United States of America","RegionCode":"CA","RegionName":"California","Confirmed":202.0,"Deaths":4.0,"Latitude":"36.116200","Longitude":"-119.681600","Population":39512223,"Region":"CA"},{"Date":"2020-03-12","Key":"US_CO","CountryCode":"US","CountryName":"United States of America","RegionCode":"CO","RegionName":"Colorado","Confirmed":45.0,"Deaths":null,"Latitude":"39.059800","Longitude":"-105.311100","Population":5758736,"Region":"CO"},{"Date":"2020-03-12","Key":"US_CT","CountryCode":"US","CountryName":"United States of America","RegionCode":"CT","RegionName":"Connecticut","Confirmed":6.0,"Deaths":null,"Latitude":"41.597800","Longitude":"-72.755400","Population":3565287,"Region":"CT"},{"Date":"2020-03-12","Key":"US_DC","CountryCode":"US","CountryName":"United States of America","RegionCode":"DC","RegionName":"District of Columbia","Confirmed":10.0,"Deaths":null,"Latitude":"38.897400","Longitude":"-77.026800","Population":705749,"Region":"DC"},{"Date":"2020-03-12","Key":"US_DE","CountryCode":"US","CountryName":"United States of America","RegionCode":"DE","RegionName":"Delaware","Confirmed":4.0,"Deaths":null,"Latitude":"39.318500","Longitude":"-75.507100","Population":973764,"Region":"DE"},{"Date":"2020-03-12","Key":"US_FL","CountryCode":"US","CountryName":"United States of America","RegionCode":"FL","RegionName":"Florida","Confirmed":32.0,"Deaths":2.0,"Latitude":"27.766300","Longitude":"-81.686800","Population":21477737,"Region":"FL"},{"Date":"2020-03-12","Key":"US_GA","CountryCode":"US","CountryName":"United States of America","RegionCode":"GA","RegionName":"Georgia","Confirmed":31.0,"Deaths":null,"Latitude":"33.040600","Longitude":"-83.643100","Population":10617423,"Region":"GA"},{"Date":"2020-03-12","Key":"US_HI","CountryCode":"US","CountryName":"United States of America","RegionCode":"HI","RegionName":"Hawaii","Confirmed":2.0,"Deaths":null,"Latitude":"21.094300","Longitude":"-157.498300","Population":1415872,"Region":"HI"},{"Date":"2020-03-12","Key":"US_IA","CountryCode":"US","CountryName":"United States of America","RegionCode":"IA","RegionName":"Iowa","Confirmed":14.0,"Deaths":null,"Latitude":"42.011500","Longitude":"-93.210500","Population":3155070,"Region":"IA"},{"Date":"2020-03-12","Key":"US_ID","CountryCode":"US","CountryName":"United States of America","RegionCode":"ID","RegionName":"Idaho","Confirmed":0.0,"Deaths":null,"Latitude":"44.240500","Longitude":"-114.478800","Population":1787065,"Region":"ID"},{"Date":"2020-03-12","Key":"US_IL","CountryCode":"US","CountryName":"United States of America","RegionCode":"IL","RegionName":"Illinois","Confirmed":25.0,"Deaths":null,"Latitude":"40.349500","Longitude":"-88.986100","Population":12671821,"Region":"IL"},{"Date":"2020-03-12","Key":"US_IN","CountryCode":"US","CountryName":"United States of America","RegionCode":"IN","RegionName":"Indiana","Confirmed":12.0,"Deaths":null,"Latitude":"39.849400","Longitude":"-86.258300","Population":6732219,"Region":"IN"},{"Date":"2020-03-12","Key":"US_KS","CountryCode":"US","CountryName":"United States of America","RegionCode":"KS","RegionName":"Kansas","Confirmed":4.0,"Deaths":null,"Latitude":"38.526600","Longitude":"-96.726500","Population":2911505,"Region":"KS"},{"Date":"2020-03-12","Key":"US_KY","CountryCode":"US","CountryName":"United States of America","RegionCode":"KY","RegionName":"Kentucky","Confirmed":8.0,"Deaths":null,"Latitude":"37.668100","Longitude":"-84.670100","Population":4468402,"Region":"KY"},{"Date":"2020-03-12","Key":"US_LA","CountryCode":"US","CountryName":"United States of America","RegionCode":"LA","RegionName":"Louisiana","Confirmed":14.0,"Deaths":null,"Latitude":"31.169500","Longitude":"-91.867800","Population":4648794,"Region":"LA"},{"Date":"2020-03-12","Key":"US_MA","CountryCode":"US","CountryName":"United States of America","RegionCode":"MA","RegionName":"Massachusetts","Confirmed":95.0,"Deaths":null,"Latitude":"42.230200","Longitude":"-71.530100","Population":6939373,"Region":"MA"},{"Date":"2020-03-12","Key":"US_MD","CountryCode":"US","CountryName":"United States of America","RegionCode":"MD","RegionName":"Maryland","Confirmed":12.0,"Deaths":null,"Latitude":"39.063900","Longitude":"-76.802100","Population":6045680,"Region":"MD"},{"Date":"2020-03-12","Key":"US_ME","CountryCode":"US","CountryName":"United States of America","RegionCode":"ME","RegionName":"Maine","Confirmed":1.0,"Deaths":null,"Latitude":"44.693900","Longitude":"-69.381900","Population":1338404,"Region":"ME"},{"Date":"2020-03-12","Key":"US_MI","CountryCode":"US","CountryName":"United States of America","RegionCode":"MI","RegionName":"Michigan","Confirmed":2.0,"Deaths":null,"Latitude":"43.326600","Longitude":"-84.536100","Population":9883635,"Region":"MI"},{"Date":"2020-03-12","Key":"US_MN","CountryCode":"US","CountryName":"United States of America","RegionCode":"MN","RegionName":"Minnesota","Confirmed":9.0,"Deaths":null,"Latitude":"44.825400","Longitude":"-93.784200","Population":5639632,"Region":"MN"},{"Date":"2020-03-12","Key":"US_MO","CountryCode":"US","CountryName":"United States of America","RegionCode":"MO","RegionName":"Missouri","Confirmed":1.0,"Deaths":null,"Latitude":"38.456100","Longitude":"-92.288400","Population":6126452,"Region":"MO"},{"Date":"2020-03-12","Key":"US_MS","CountryCode":"US","CountryName":"United States of America","RegionCode":"MS","RegionName":"Mississippi","Confirmed":1.0,"Deaths":null,"Latitude":"32.741600","Longitude":"-89.678700","Population":2976149,"Region":"MS"},{"Date":"2020-03-12","Key":"US_MT","CountryCode":"US","CountryName":"United States of America","RegionCode":"MT","RegionName":"Montana","Confirmed":1.0,"Deaths":null,"Latitude":"46.921900","Longitude":"-110.454400","Population":1068778,"Region":"MT"},{"Date":"2020-03-12","Key":"US_NC","CountryCode":"US","CountryName":"United States of America","RegionCode":"NC","RegionName":"North Carolina","Confirmed":12.0,"Deaths":null,"Latitude":"35.630100","Longitude":"-79.806400","Population":10488084,"Region":"NC"},{"Date":"2020-03-12","Key":"US_ND","CountryCode":"US","CountryName":"United States of America","RegionCode":"ND","RegionName":"North Dakota","Confirmed":1.0,"Deaths":null,"Latitude":"47.528900","Longitude":"-99.784000","Population":762062,"Region":"ND"},{"Date":"2020-03-12","Key":"US_NE","CountryCode":"US","CountryName":"United States of America","RegionCode":"NE","RegionName":"Nebraska","Confirmed":10.0,"Deaths":null,"Latitude":"41.314800","Longitude":"-96.195100","Population":1934408,"Region":"NE"},{"Date":"2020-03-12","Key":"US_NH","CountryCode":"US","CountryName":"United States of America","RegionCode":"NH","RegionName":"New Hampshire","Confirmed":6.0,"Deaths":null,"Latitude":"42.993100","Longitude":"-71.049800","Population":1359711,"Region":"NH"},{"Date":"2020-03-12","Key":"US_NJ","CountryCode":"US","CountryName":"United States of America","RegionCode":"NJ","RegionName":"New Jersey","Confirmed":30.0,"Deaths":1.0,"Latitude":"40.298900","Longitude":"-74.521000","Population":8882190,"Region":"NJ"},{"Date":"2020-03-12","Key":"US_NM","CountryCode":"US","CountryName":"United States of America","RegionCode":"NM","RegionName":"New Mexico","Confirmed":5.0,"Deaths":null,"Latitude":"34.840500","Longitude":"-106.248500","Population":2096829,"Region":"NM"},{"Date":"2020-03-12","Key":"US_NV","CountryCode":"US","CountryName":"United States of America","RegionCode":"NV","RegionName":"Nevada","Confirmed":7.0,"Deaths":null,"Latitude":"38.313500","Longitude":"-117.055400","Population":3080156,"Region":"NV"},{"Date":"2020-03-12","Key":"US_NY","CountryCode":"US","CountryName":"United States of America","RegionCode":"NY","RegionName":"New York","Confirmed":216.0,"Deaths":null,"Latitude":"42.165700","Longitude":"-74.948100","Population":19453561,"Region":"NY"},{"Date":"2020-03-12","Key":"US_OH","CountryCode":"US","CountryName":"United States of America","RegionCode":"OH","RegionName":"Ohio","Confirmed":5.0,"Deaths":null,"Latitude":"40.388800","Longitude":"-82.764900","Population":11689100,"Region":"OH"},{"Date":"2020-03-12","Key":"US_OK","CountryCode":"US","CountryName":"United States of America","RegionCode":"OK","RegionName":"Oklahoma","Confirmed":3.0,"Deaths":null,"Latitude":"35.565300","Longitude":"-96.928900","Population":3956971,"Region":"OK"},{"Date":"2020-03-12","Key":"US_OR","CountryCode":"US","CountryName":"United States of America","RegionCode":"OR","RegionName":"Oregon","Confirmed":19.0,"Deaths":null,"Latitude":"43.126100","Longitude":"-123.249200","Population":4190713,"Region":"OR"},{"Date":"2020-03-12","Key":"US_PA","CountryCode":"US","CountryName":"United States of America","RegionCode":"PA","RegionName":"Pennsylvania","Confirmed":22.0,"Deaths":null,"Latitude":"40.590800","Longitude":"-77.209800","Population":12801989,"Region":"PA"},{"Date":"2020-03-12","Key":"US_RI","CountryCode":"US","CountryName":"United States of America","RegionCode":"RI","RegionName":"Rhode Island","Confirmed":5.0,"Deaths":null,"Latitude":"41.888200","Longitude":"-71.477400","Population":1057315,"Region":"RI"},{"Date":"2020-03-12","Key":"US_SC","CountryCode":"US","CountryName":"United States of America","RegionCode":"SC","RegionName":"South Carolina","Confirmed":10.0,"Deaths":null,"Latitude":"33.856900","Longitude":"-80.945000","Population":5148714,"Region":"SC"},{"Date":"2020-03-12","Key":"US_SD","CountryCode":"US","CountryName":"United States of America","RegionCode":"SD","RegionName":"South Dakota","Confirmed":8.0,"Deaths":null,"Latitude":"43.890100","Longitude":"-102.254800","Population":884659,"Region":"SD"},{"Date":"2020-03-12","Key":"US_TN","CountryCode":"US","CountryName":"United States of America","RegionCode":"TN","RegionName":"Tennessee","Confirmed":18.0,"Deaths":null,"Latitude":"35.747800","Longitude":"-86.692300","Population":6833793,"Region":"TN"},{"Date":"2020-03-12","Key":"US_TX","CountryCode":"US","CountryName":"United States of America","RegionCode":"TX","RegionName":"Texas","Confirmed":23.0,"Deaths":null,"Latitude":"31.054500","Longitude":"-97.563500","Population":28995881,"Region":"TX"},{"Date":"2020-03-12","Key":"US_UT","CountryCode":"US","CountryName":"United States of America","RegionCode":"UT","RegionName":"Utah","Confirmed":4.0,"Deaths":null,"Latitude":"40.150000","Longitude":"-111.862400","Population":3205958,"Region":"UT"},{"Date":"2020-03-12","Key":"US_VA","CountryCode":"US","CountryName":"United States of America","RegionCode":"VA","RegionName":"Virginia","Confirmed":17.0,"Deaths":null,"Latitude":"37.769300","Longitude":"-78.170000","Population":8535519,"Region":"VA"},{"Date":"2020-03-12","Key":"US_VT","CountryCode":"US","CountryName":"United States of America","RegionCode":"VT","RegionName":"Vermont","Confirmed":2.0,"Deaths":null,"Latitude":"44.045900","Longitude":"-72.710700","Population":623989,"Region":"VT"},{"Date":"2020-03-12","Key":"US_WA","CountryCode":"US","CountryName":"United States of America","RegionCode":"WA","RegionName":"Washington","Confirmed":337.0,"Deaths":29.0,"Latitude":"47.400900","Longitude":"-121.490500","Population":7614893,"Region":"WA"},{"Date":"2020-03-12","Key":"US_WI","CountryCode":"US","CountryName":"United States of America","RegionCode":"WI","RegionName":"Wisconsin","Confirmed":8.0,"Deaths":null,"Latitude":"43.018600","Longitude":"-89.549800","Population":5822434,"Region":"WI"},{"Date":"2020-03-12","Key":"US_WV","CountryCode":"US","CountryName":"United States of America","RegionCode":"WV","RegionName":"West Virginia","Confirmed":0.0,"Deaths":null,"Latitude":"38.491200","Longitude":"-80.954500","Population":1792147,"Region":"WV"},{"Date":"2020-03-12","Key":"US_WY","CountryCode":"US","CountryName":"United States of America","RegionCode":"WY","RegionName":"Wyoming","Confirmed":1.0,"Deaths":null,"Latitude":"42.756000","Longitude":"-107.302500","Population":578759,"Region":"WY"},{"Date":"2020-03-13","Key":"US_AK","CountryCode":"US","CountryName":"United States of America","RegionCode":"AK","RegionName":"Alaska","Confirmed":1.0,"Deaths":null,"Latitude":"61.370700","Longitude":"-152.404400","Population":710249,"Region":"AK"},{"Date":"2020-03-13","Key":"US_AL","CountryCode":"US","CountryName":"United States of America","RegionCode":"AL","RegionName":"Alabama","Confirmed":1.0,"Deaths":null,"Latitude":"32.318200","Longitude":"-86.902300","Population":4903185,"Region":"AL"},{"Date":"2020-03-13","Key":"US_AR","CountryCode":"US","CountryName":"United States of America","RegionCode":"AR","RegionName":"Arkansas","Confirmed":9.0,"Deaths":null,"Latitude":"34.969700","Longitude":"-92.373100","Population":3017804,"Region":"AR"},{"Date":"2020-03-13","Key":"US_AZ","CountryCode":"US","CountryName":"United States of America","RegionCode":"AZ","RegionName":"Arizona","Confirmed":9.0,"Deaths":0.0,"Latitude":"33.729800","Longitude":"-111.431200","Population":7278717,"Region":"AZ"},{"Date":"2020-03-13","Key":"US_CA","CountryCode":"US","CountryName":"United States of America","RegionCode":"CA","RegionName":"California","Confirmed":202.0,"Deaths":4.0,"Latitude":"36.116200","Longitude":"-119.681600","Population":39512223,"Region":"CA"},{"Date":"2020-03-13","Key":"US_CO","CountryCode":"US","CountryName":"United States of America","RegionCode":"CO","RegionName":"Colorado","Confirmed":72.0,"Deaths":null,"Latitude":"39.059800","Longitude":"-105.311100","Population":5758736,"Region":"CO"},{"Date":"2020-03-13","Key":"US_CT","CountryCode":"US","CountryName":"United States of America","RegionCode":"CT","RegionName":"Connecticut","Confirmed":6.0,"Deaths":null,"Latitude":"41.597800","Longitude":"-72.755400","Population":3565287,"Region":"CT"},{"Date":"2020-03-13","Key":"US_DC","CountryCode":"US","CountryName":"United States of America","RegionCode":"DC","RegionName":"District of Columbia","Confirmed":10.0,"Deaths":null,"Latitude":"38.897400","Longitude":"-77.026800","Population":705749,"Region":"DC"},{"Date":"2020-03-13","Key":"US_DE","CountryCode":"US","CountryName":"United States of America","RegionCode":"DE","RegionName":"Delaware","Confirmed":4.0,"Deaths":null,"Latitude":"39.318500","Longitude":"-75.507100","Population":973764,"Region":"DE"},{"Date":"2020-03-13","Key":"US_FL","CountryCode":"US","CountryName":"United States of America","RegionCode":"FL","RegionName":"Florida","Confirmed":50.0,"Deaths":2.0,"Latitude":"27.766300","Longitude":"-81.686800","Population":21477737,"Region":"FL"},{"Date":"2020-03-13","Key":"US_GA","CountryCode":"US","CountryName":"United States of America","RegionCode":"GA","RegionName":"Georgia","Confirmed":42.0,"Deaths":1.0,"Latitude":"33.040600","Longitude":"-83.643100","Population":10617423,"Region":"GA"},{"Date":"2020-03-13","Key":"US_HI","CountryCode":"US","CountryName":"United States of America","RegionCode":"HI","RegionName":"Hawaii","Confirmed":2.0,"Deaths":null,"Latitude":"21.094300","Longitude":"-157.498300","Population":1415872,"Region":"HI"},{"Date":"2020-03-13","Key":"US_IA","CountryCode":"US","CountryName":"United States of America","RegionCode":"IA","RegionName":"Iowa","Confirmed":16.0,"Deaths":null,"Latitude":"42.011500","Longitude":"-93.210500","Population":3155070,"Region":"IA"},{"Date":"2020-03-13","Key":"US_ID","CountryCode":"US","CountryName":"United States of America","RegionCode":"ID","RegionName":"Idaho","Confirmed":0.0,"Deaths":null,"Latitude":"44.240500","Longitude":"-114.478800","Population":1787065,"Region":"ID"},{"Date":"2020-03-13","Key":"US_IL","CountryCode":"US","CountryName":"United States of America","RegionCode":"IL","RegionName":"Illinois","Confirmed":32.0,"Deaths":null,"Latitude":"40.349500","Longitude":"-88.986100","Population":12671821,"Region":"IL"},{"Date":"2020-03-13","Key":"US_IN","CountryCode":"US","CountryName":"United States of America","RegionCode":"IN","RegionName":"Indiana","Confirmed":12.0,"Deaths":null,"Latitude":"39.849400","Longitude":"-86.258300","Population":6732219,"Region":"IN"},