[{"Date":"2020-03-04","Key":"US_AZ","Confirmed":2,"Deaths":null,"CountryCode":"US","CountryName":"United States of America","RegionCode":"AZ","RegionName":"Arizona","Latitude":"33.729800","Longitude":"-111.431200","Population":null,"Region":"AZ"},{"Date":"2020-03-04","Key":"US_CA","Confirmed":53,"Deaths":null,"CountryCode":"US","CountryName":"United States of America","RegionCode":"CA","RegionName":"California","Latitude":"36.116200","Longitude":"-119.681600","Population":null,"Region":"CA"},{"Date":"2020-03-04","Key":"US_FL","Confirmed":2,"Deaths":null,"CountryCode":"US","CountryName":"United States of America","RegionCode":"FL","RegionName":"Florida","Latitude":"27.766300","Longitude":"-81.686800","Population":null,"Region":"FL"},{"Date":"2020-03-04","Key":"US_GA","Confirmed":2,"Deaths":null,"CountryCode":"US","CountryName":"United States of America","RegionCode":"GA","RegionName":"Georgia","Latitude":"33.040600","Longitude":"-83.643100","Population":null,"Region":"GA"},{"Date":"2020-03-04","Key":"US_IL","Confirmed":4,"Deaths":null,"CountryCode":"US","CountryName":"United States of America","RegionCode":"IL","RegionName":"Illinois","Latitude":"40.349500","Longitude":"-88.986100","Population":null,"Region":"IL"},{"Date":"2020-03-04","Key":"US_MA","Confirmed":2,"Deaths":null,"CountryCode":"US","CountryName":"United States of America","RegionCode":"MA","RegionName":"Massachusetts","Latitude":"42.230200","Longitude":"-71.530100","Population":null,"Region":"MA"},{"Date":"2020-03-04","Key":"US_NC","Confirmed":1,"Deaths":null,"CountryCode":"US","CountryName":"United States of America","RegionCode":"NC","RegionName":"North Carolina","Latitude":"35.630100","Longitude":"-79.806400","Population":null,"Region":"NC"},{"Date":"2020-03-04","Key":"US_NH","Confirmed":2,"Deaths":null,"CountryCode":"US","CountryName":"United States of America","RegionCode":"NH","RegionName":"New Hampshire","Latitude":"42.993100","Longitude":"-71.049800","Population":null,"Region":"NH"},{"Date":"2020-03-04","Key":"US_NY","Confirmed":6,"Deaths":null,"CountryCode":"US","CountryName":"United States of America","RegionCode":"NY","RegionName":"New York","Latitude":"42.165700","Longitude":"-74.948100","Population":null,"Region":"NY"},{"Date":"2020-03-04","Key":"US_OR","Confirmed":3,"Deaths":null,"CountryCode":"US","CountryName":"United States of America","RegionCode":"OR","RegionName":"Oregon","Latitude":"43.126100","Longitude":"-123.249200","Population":null,"Region":"OR"},{"Date":"2020-03-04","Key":"US_SC","Confirmed":0,"Deaths":null,"CountryCode":"US","CountryName":"United States of America","RegionCode":"SC","RegionName":"South Carolina","Latitude":"33.856900","Longitude":"-80.945000","Population":null,"Region":"SC"},{"Date":"2020-03-04","Key":"US_TX","Confirmed":1,"Deaths":null,"CountryCode":"US","CountryName":"United States of America","RegionCode":"TX","RegionName":"Texas","Latitude":"31.054500","Longitude":"-97.563500","Population":null,"Region":"TX"},{"Date":"2020-03-04","Key":"US_WA","Confirmed":39,"Deaths":null,"CountryCode":"US","CountryName":"United States of America","RegionCode":"WA","RegionName":"Washington","Latitude":"47.400900","Longitude":"-121.490500","Population":null,"Region":"WA"},{"Date":"2020-03-04","Key":"US_WI","Confirmed":1,"Deaths":null,"CountryCode":"US","CountryName":"United States of America","RegionCode":"WI","RegionName":"Wisconsin","Latitude":"43.018600","Longitude":"-89.549800","Population":null,"Region":"WI"},{"Date":"2020-03-05","Key":"US_AZ","Confirmed":2,"Deaths":null,"CountryCode":"US","CountryName":"United States of America","RegionCode":"AZ","RegionName":"Arizona","Latitude":"33.729800","Longitude":"-111.431200","Population":null,"Region":"AZ"},{"Date":"2020-03-05","Key":"US_CA","Confirmed":53,"Deaths":null,"CountryCode":"US","CountryName":"United States of America","RegionCode":"CA","RegionName":"California","Latitude":"36.116200","Longitude":"-119.681600","Population":null,"Region":"CA"},{"Date":"2020-03-05","Key":"US_CO","Confirmed":0,"Deaths":null,"CountryCode":"US","CountryName":"United States of America","RegionCode":"CO","RegionName":"Colorado","Latitude":"39.059800","Longitude":"-105.311100","Population":null,"Region":"CO"},{"Date":"2020-03-05","Key":"US_DC","Confirmed":0,"Deaths":null,"CountryCode":"US","CountryName":"United States of America","RegionCode":"DC","RegionName":"District of Columbia","Latitude":"38.897400","Longitude":"-77.026800","Population":null,"Region":"DC"},{"Date":"2020-03-05","Key":"US_FL","Confirmed":9,"Deaths":null,"CountryCode":"US","CountryName":"United States of America","RegionCode":"FL","RegionName":"Florida","Latitude":"27.766300","Longitude":"-81.686800","Population":null,"Region":"FL"},{"Date":"2020-03-05","Key":"US_GA","Confirmed":2,"Deaths":null,"CountryCode":"US","CountryName":"United States of America","RegionCode":"GA","RegionName":"Georgia","Latitude":"33.040600","Longitude":"-83.643100","Population":null,"Region":"GA"},{"Date":"2020-03-05","Key":"US_IL","Confirmed":5,"Deaths":null,"CountryCode":"US","CountryName":"United States of America","RegionCode":"IL","RegionName":"Illinois","Latitude":"40.349500","Longitude":"-88.986100","Population":null,"Region":"IL"},{"Date":"2020-03-05","Key":"US_MA","Confirmed":2,"Deaths":null,"CountryCode":"US","CountryName":"United States of America","RegionCode":"MA","RegionName":"Massachusetts","Latitude":"42.230200","Longitude":"-71.530100","Population":null,"Region":"MA"},{"Date":"2020-03-05","Key":"US_MD","Confirmed":0,"Deaths":null,"CountryCode":"US","CountryName":"United States of America","RegionCode":"MD","RegionName":"Maryland","Latitude":"39.063900","Longitude":"-76.802100","Population":null,"Region":"MD"},{"Date":"2020-03-05","Key":"US_MI","Confirmed":0,"Deaths":null,"CountryCode":"US","CountryName":"United States of America","RegionCode":"MI","RegionName":"Michigan","Latitude":"43.326600","Longitude":"-84.536100","Population":null,"Region":"MI"},{"Date":"2020-03-05","Key":"US_NC","Confirmed":1,"Deaths":null,"CountryCode":"US","CountryName":"United States of America","RegionCode":"NC","RegionName":"North Carolina","Latitude":"35.630100","Longitude":"-79.806400","Population":null,"Region":"NC"},{"Date":"2020-03-05","Key":"US_NE","Confirmed":0,"Deaths":null,"CountryCode":"US","CountryName":"United States of America","RegionCode":"NE","RegionName":"Nebraska","Latitude":"41.314800","Longitude":"-96.195100","Population":null,"Region":"NE"},{"Date":"2020-03-05","Key":"US_NH","Confirmed":2,"Deaths":null,"CountryCode":"US","CountryName":"United States of America","RegionCode":"NH","RegionName":"New Hampshire","Latitude":"42.993100","Longitude":"-71.049800","Population":null,"Region":"NH"},{"Date":"2020-03-05","Key":"US_NJ","Confirmed":1,"Deaths":null,"CountryCode":"US","CountryName":"United States of America","RegionCode":"NJ","RegionName":"New Jersey","Latitude":"40.298900","Longitude":"-74.521000","Population":null,"Region":"NJ"},{"Date":"2020-03-05","Key":"US_NV","Confirmed":1,"Deaths":null,"CountryCode":"US","CountryName":"United States of America","RegionCode":"NV","RegionName":"Nevada","Latitude":"38.313500","Longitude":"-117.055400","Population":null,"Region":"NV"},{"Date":"2020-03-05","Key":"US_NY","Confirmed":22,"Deaths":null,"CountryCode":"US","CountryName":"United States of America","RegionCode":"NY","RegionName":"New York","Latitude":"42.165700","Longitude":"-74.948100","Population":null,"Region":"NY"},{"Date":"2020-03-05","Key":"US_OH","Confirmed":0,"Deaths":null,"CountryCode":"US","CountryName":"United States of America","RegionCode":"OH","RegionName":"Ohio","Latitude":"40.388800","Longitude":"-82.764900","Population":null,"Region":"OH"},{"Date":"2020-03-05","Key":"US_OR","Confirmed":3,"Deaths":null,"CountryCode":"US","CountryName":"United States of America","RegionCode":"OR","RegionName":"Oregon","Latitude":"43.126100","Longitude":"-123.249200","Population":null,"Region":"OR"},{"Date":"2020-03-05","Key":"US_SC","Confirmed":0,"Deaths":null,"CountryCode":"US","CountryName":"United States of America","RegionCode":"SC","RegionName":"South Carolina","Latitude":"33.856900","Longitude":"-80.945000","Population":null,"Region":"SC"},{"Date":"2020-03-05","Key":"US_TN","Confirmed":1,"Deaths":null,"CountryCode":"US","CountryName":"United States of America","RegionCode":"TN","RegionName":"Tennessee","Latitude":"35.747800","Longitude":"-86.692300","Population":null,"Region":"TN"},{"Date":"2020-03-05","Key":"US_TX","Confirmed":1,"Deaths":null,"CountryCode":"US","CountryName":"United States of America","RegionCode":"TX","RegionName":"Texas","Latitude":"31.054500","Longitude":"-97.563500","Population":null,"Region":"TX"},{"Date":"2020-03-05","Key":"US_VA","Confirmed":0,"Deaths":null,"CountryCode":"US","CountryName":"United States of America","RegionCode":"VA","RegionName":"Virginia","Latitude":"37.769300","Longitude":"-78.170000","Population":null,"Region":"VA"},{"Date":"2020-03-05","Key":"US_WA","Confirmed":70,"Deaths":null,"CountryCode":"US","CountryName":"United States of America","RegionCode":"WA","RegionName":"Washington","Latitude":"47.400900","Longitude":"-121.490500","Population":null,"Region":"WA"},{"Date":"2020-03-05","Key":"US_WI","Confirmed":1,"Deaths":null,"CountryCode":"US","CountryName":"United States of America","RegionCode":"WI","RegionName":"Wisconsin","Latitude":"43.018600","Longitude":"-89.549800","Population":null,"Region":"WI"},{"Date":"2020-03-06","Key":"US_AK","Confirmed":0,"Deaths":null,"CountryCode":"US","CountryName":"United States of America","RegionCode":"AK","RegionName":"Alaska","Latitude":"61.370700","Longitude":"-152.404400","Population":null,"Region":"AK"},{"Date":"2020-03-06","Key":"US_AR","Confirmed":0,"Deaths":null,"CountryCode":"US","CountryName":"United States of America","RegionCode":"AR","RegionName":"Arkansas","Latitude":"34.969700","Longitude":"-92.373100","Population":null,"Region":"AR"},{"Date":"2020-03-06","Key":"US_AZ","Confirmed":3,"Deaths":null,"CountryCode":"US","CountryName":"United States of America","RegionCode":"AZ","RegionName":"Arizona","Latitude":"33.729800","Longitude":"-111.431200","Population":null,"Region":"AZ"},{"Date":"2020-03-06","Key":"US_CA","Confirmed":60,"Deaths":null,"CountryCode":"US","CountryName":"United States of America","RegionCode":"CA","RegionName":"California","Latitude":"36.116200","Longitude":"-119.681600","Population":null,"Region":"CA"},{"Date":"2020-03-06","Key":"US_CO","Confirmed":2,"Deaths":null,"CountryCode":"US","CountryName":"United States of America","RegionCode":"CO","RegionName":"Colorado","Latitude":"39.059800","Longitude":"-105.311100","Population":null,"Region":"CO"},{"Date":"2020-03-06","Key":"US_DC","Confirmed":0,"Deaths":null,"CountryCode":"US","CountryName":"United States of America","RegionCode":"DC","RegionName":"District of Columbia","Latitude":"38.897400","Longitude":"-77.026800","Population":null,"Region":"DC"},{"Date":"2020-03-06","Key":"US_DE","Confirmed":0,"Deaths":null,"CountryCode":"US","CountryName":"United States of America","RegionCode":"DE","RegionName":"Delaware","Latitude":"39.318500","Longitude":"-75.507100","Population":null,"Region":"DE"},{"Date":"2020-03-06","Key":"US_FL","Confirmed":9,"Deaths":null,"CountryCode":"US","CountryName":"United States of America","RegionCode":"FL","RegionName":"Florida","Latitude":"27.766300","Longitude":"-81.686800","Population":null,"Region":"FL"},{"Date":"2020-03-06","Key":"US_GA","Confirmed":2,"Deaths":null,"CountryCode":"US","CountryName":"United States of America","RegionCode":"GA","RegionName":"Georgia","Latitude":"33.040600","Longitude":"-83.643100","Population":null,"Region":"GA"},{"Date":"2020-03-06","Key":"US_IA","Confirmed":0,"Deaths":null,"CountryCode":"US","CountryName":"United States of America","RegionCode":"IA","RegionName":"Iowa","Latitude":"42.011500","Longitude":"-93.210500","Population":null,"Region":"IA"},{"Date":"2020-03-06","Key":"US_IL","Confirmed":5,"Deaths":null,"CountryCode":"US","CountryName":"United States of America","RegionCode":"IL","RegionName":"Illinois","Latitude":"40.349500","Longitude":"-88.986100","Population":null,"Region":"IL"},{"Date":"2020-03-06","Key":"US_IN","Confirmed":1,"Deaths":null,"CountryCode":"US","CountryName":"United States of America","RegionCode":"IN","RegionName":"Indiana","Latitude":"39.849400","Longitude":"-86.258300","Population":null,"Region":"IN"},{"Date":"2020-03-06","Key":"US_KS","Confirmed":0,"Deaths":null,"CountryCode":"US","CountryName":"United States of America","RegionCode":"KS","RegionName":"Kansas","Latitude":"38.526600","Longitude":"-96.726500","Population":null,"Region":"KS"},{"Date":"2020-03-06","Key":"US_KY","Confirmed":0,"Deaths":null,"CountryCode":"US","CountryName":"United States of America","RegionCode":"KY","RegionName":"Kentucky","Latitude":"37.668100","Longitude":"-84.670100","Population":null,"Region":"KY"},{"Date":"2020-03-06","Key":"US_MA","Confirmed":8,"Deaths":null,"CountryCode":"US","CountryName":"United States of America","RegionCode":"MA","RegionName":"Massachusetts","Latitude":"42.230200","Longitude":"-71.530100","Population":null,"Region":"MA"},{"Date":"2020-03-06","Key":"US_MD","Confirmed":3,"Deaths":null,"CountryCode":"US","CountryName":"United States of America","RegionCode":"MD","RegionName":"Maryland","Latitude":"39.063900","Longitude":"-76.802100","Population":null,"Region":"MD"},{"Date":"2020-03-06","Key":"US_MI","Confirmed":0,"Deaths":null,"CountryCode":"US","CountryName":"United States of America","RegionCode":"MI","RegionName":"Michigan","Latitude":"43.326600","Longitude":"-84.536100","Population":null,"Region":"MI"},{"Date":"2020-03-06","Key":"US_MN","Confirmed":0,"Deaths":null,"CountryCode":"US","CountryName":"United States of America","RegionCode":"MN","RegionName":"Minnesota","Latitude":"44.825400","Longitude":"-93.784200","Population":null,"Region":"MN"},{"Date":"2020-03-06","Key":"US_NC","Confirmed":2,"Deaths":null,"CountryCode":"US","CountryName":"United States of America","RegionCode":"NC","RegionName":"North Carolina","Latitude":"35.630100","Longitude":"-79.806400","Population":null,"Region":"NC"},{"Date":"2020-03-06","Key":"US_NE","Confirmed":0,"Deaths":null,"CountryCode":"US","CountryName":"United States of America","RegionCode":"NE","RegionName":"Nebraska","Latitude":"41.314800","Longitude":"-96.195100","Population":null,"Region":"NE"},{"Date":"2020-03-06","Key":"US_NH","Confirmed":2,"Deaths":null,"CountryCode":"US","CountryName":"United States of America","RegionCode":"NH","RegionName":"New Hampshire","Latitude":"42.993100","Longitude":"-71.049800","Population":null,"Region":"NH"},{"Date":"2020-03-06","Key":"US_NJ","Confirmed":1,"Deaths":null,"CountryCode":"US","CountryName":"United States of America","RegionCode":"NJ","RegionName":"New Jersey","Latitude":"40.298900","Longitude":"-74.521000","Population":null,"Region":"NJ"},{"Date":"2020-03-06","Key":"US_NM","Confirmed":0,"Deaths":null,"CountryCode":"US","CountryName":"United States of America","RegionCode":"NM","RegionName":"New Mexico","Latitude":"34.840500","Longitude":"-106.248500","Population":null,"Region":"NM"},{"Date":"2020-03-06","Key":"US_NV","Confirmed":1,"Deaths":null,"CountryCode":"US","CountryName":"United States of America","RegionCode":"NV","RegionName":"Nevada","Latitude":"38.313500","Longitude":"-117.055400","Population":null,"Region":"NV"},{"Date":"2020-03-06","Key":"US_NY","Confirmed":33,"Deaths":null,"CountryCode":"US","CountryName":"United States of America","RegionCode":"NY","RegionName":"New York","Latitude":"42.165700","Longitude":"-74.948100","Population":null,"Region":"NY"},{"Date":"2020-03-06","Key":"US_OH","Confirmed":0,"Deaths":null,"CountryCode":"US","CountryName":"United States of America","RegionCode":"OH","RegionName":"Ohio","Latitude":"40.388800","Longitude":"-82.764900","Population":null,"Region":"OH"},{"Date":"2020-03-06","Key":"US_OR","Confirmed":3,"Deaths":null,"CountryCode":"US","CountryName":"United States of America","RegionCode":"OR","RegionName":"Oregon","Latitude":"43.126100","Longitude":"-123.249200","Population":null,"Region":"OR"},{"Date":"2020-03-06","Key":"US_PA","Confirmed":2,"Deaths":null,"CountryCode":"US","CountryName":"United States of America","RegionCode":"PA","RegionName":"Pennsylvania","Latitude":"40.590800","Longitude":"-77.209800","Population":null,"Region":"PA"},{"Date":"2020-03-06","Key":"US_SC","Confirmed":0,"Deaths":null,"CountryCode":"US","CountryName":"United States of America","RegionCode":"SC","RegionName":"South Carolina","Latitude":"33.856900","Longitude":"-80.945000","Population":null,"Region":"SC"},{"Date":"2020-03-06","Key":"US_TN","Confirmed":1,"Deaths":null,"CountryCode":"US","CountryName":"United States of America","RegionCode":"TN","RegionName":"Tennessee","Latitude":"35.747800","Longitude":"-86.692300","Population":null,"Region":"TN"},{"Date":"2020-03-06","Key":"US_TX","Confirmed":5,"Deaths":null,"CountryCode":"US","CountryName":"United States of America","RegionCode":"TX","RegionName":"Texas","Latitude":"31.054500","Longitude":"-97.563500","Population":null,"Region":"TX"},{"Date":"2020-03-06","Key":"US_VA","Confirmed":0,"Deaths":null,"CountryCode":"US","CountryName":"United States of America","RegionCode":"VA","RegionName":"Virginia","Latitude":"37.769300","Longitude":"-78.170000","Population":null,"Region":"VA"},{"Date":"2020-03-06","Key":"US_VT","Confirmed":0,"Deaths":null,"CountryCode":"US","CountryName":"United States of America","RegionCode":"VT","RegionName":"Vermont","Latitude":"44.045900","Longitude":"-72.710700","Population":null,"Region":"VT"},{"Date":"2020-03-06","Key":"US_WA","Confirmed":79,"Deaths":null,"CountryCode":"US","CountryName":"United States of America","RegionCode":"WA","RegionName":"Washington","Latitude":"47.400900","Longitude":"-121.490500","Population":null,"Region":"WA"},{"Date":"2020-03-06","Key":"US_WI","Confirmed":1,"Deaths":null,"CountryCode":"US","CountryName":"United States of America","RegionCode":"WI","RegionName":"Wisconsin","Latitude":"43.018600","Longitude":"-89.549800","Population":null,"Region":"WI"},{"Date":"2020-03-06","Key":"US_WV","Confirmed":0,"Deaths":null,"CountryCode":"US","CountryName":"United States of America","RegionCode":"WV","RegionName":"West Virginia","Latitude":"38.491200","Longitude":"-80.954500","Population":null,"Region":"WV"},{"Date":"2020-03-07","Key":"US_AK","Confirmed":0,"Deaths":null,"CountryCode":"US","CountryName":"United States of America","RegionCode":"AK","RegionName":"Alaska","Latitude":"61.370700","Longitude":"-152.404400","Population":null,"Region":"AK"},{"Date":"2020-03-07","Key":"US_AL","Confirmed":0,"Deaths":null,"CountryCode":"US","CountryName":"United States of America","RegionCode":"AL","RegionName":"Alabama","Latitude":"32.318200","Longitude":"-86.902300","Population":null,"Region":"AL"},{"Date":"2020-03-07","Key":"US_AR","Confirmed":0,"Deaths":null,"CountryCode":"US","CountryName":"United States of America","RegionCode":"AR","RegionName":"Arkansas","Latitude":"34.969700","Longitude":"-92.373100","Population":null,"Region":"AR"},{"Date":"2020-03-07","Key":"US_AZ","Confirmed":5,"Deaths":null,"CountryCode":"US","CountryName":"United States of America","RegionCode":"AZ","RegionName":"Arizona","Latitude":"33.729800","Longitude":"-111.431200","Population":null,"Region":"AZ"},{"Date":"2020-03-07","Key":"US_CA","Confirmed":69,"Deaths":null,"CountryCode":"US","CountryName":"United States of America","RegionCode":"CA","RegionName":"California","Latitude":"36.116200","Longitude":"-119.681600","Population":null,"Region":"CA"},{"Date":"2020-03-07","Key":"US_CO","Confirmed":8,"Deaths":null,"CountryCode":"US","CountryName":"United States of America","RegionCode":"CO","RegionName":"Colorado","Latitude":"39.059800","Longitude":"-105.311100","Population":null,"Region":"CO"},{"Date":"2020-03-07","Key":"US_CT","Confirmed":0,"Deaths":null,"CountryCode":"US","CountryName":"United States of America","RegionCode":"CT","RegionName":"Connecticut","Latitude":"41.597800","Longitude":"-72.755400","Population":null,"Region":"CT"},{"Date":"2020-03-07","Key":"US_DC","Confirmed":0,"Deaths":null,"CountryCode":"US","CountryName":"United States of America","RegionCode":"DC","RegionName":"District of Columbia","Latitude":"38.897400","Longitude":"-77.026800","Population":null,"Region":"DC"},{"Date":"2020-03-07","Key":"US_DE","Confirmed":0,"Deaths":null,"CountryCode":"US","CountryName":"United States of America","RegionCode":"DE","RegionName":"Delaware","Latitude":"39.318500","Longitude":"-75.507100","Population":null,"Region":"DE"},{"Date":"2020-03-07","Key":"US_FL","Confirmed":14,"Deaths":null,"CountryCode":"US","CountryName":"United States of America","RegionCode":"FL","RegionName":"Florida","Latitude":"27.766300","Longitude":"-81.686800","Population":null,"Region":"FL"},{"Date":"2020-03-07","Key":"US_GA","Confirmed":6,"Deaths":null,"CountryCode":"US","CountryName":"United States of America","RegionCode":"GA","RegionName":"Georgia","Latitude":"33.040600","Longitude":"-83.643100","Population":null,"Region":"GA"},{"Date":"2020-03-07","Key":"US_HI","Confirmed":1,"Deaths":null,"CountryCode":"US","CountryName":"United States of America","RegionCode":"HI","RegionName":"Hawaii","Latitude":"21.094300","Longitude":"-157.498300","Population":null,"Region":"HI"},{"Date":"2020-03-07","Key":"US_IA","Confirmed":0,"Deaths":null,"CountryCode":"US","CountryName":"United States of America","RegionCode":"IA","RegionName":"Iowa","Latitude":"42.011500","Longitude":"-93.210500","Population":null,"Region":"IA"},{"Date":"2020-03-07","Key":"US_ID","Confirmed":0,"Deaths":null,"CountryCode":"US","CountryName":"United States of America","RegionCode":"ID","RegionName":"Idaho","Latitude":"44.240500","Longitude":"-114.478800","Population":null,"Region":"ID"},{"Date":"2020-03-07","Key":"US_IL","Confirmed":6,"Deaths":null,"CountryCode":"US","CountryName":"United States of America","RegionCode":"IL","RegionName":"Illinois","Latitude":"40.349500","Longitude":"-88.986100","Population":null,"Region":"IL"},{"Date":"2020-03-07","Key":"US_IN","Confirmed":1,"Deaths":null,"CountryCode":"US","CountryName":"United States of America","RegionCode":"IN","RegionName":"Indiana","Latitude":"39.849400","Longitude":"-86.258300","Population":null,"Region":"IN"},{"Date":"2020-03-07","Key":"US_KS","Confirmed":0,"Deaths":null,"CountryCode":"US","CountryName":"United States of America","RegionCode":"KS","RegionName":"Kansas","Latitude":"38.526600","Longitude":"-96.726500","Population":null,"Region":"KS"},{"Date":"2020-03-07","Key":"US_KY","Confirmed":1,"Deaths":null,"CountryCode":"US","CountryName":"United States of America","RegionCode":"KY","RegionName":"Kentucky","Latitude":"37.668100","Longitude":"-84.670100","Population":null,"Region":"KY"},{"Date":"2020-03-07","Key":"US_LA","Confirmed":0,"Deaths":null,"CountryCode":"US","CountryName":"United States of America","RegionCode":"LA","RegionName":"Louisiana","Latitude":"31.169500","Longitude":"-91.867800","Population":null,"Region":"LA"},{"Date":"2020-03-07","Key":"US_MA","Confirmed":13,"Deaths":null,"CountryCode":"US","CountryName":"United States of America","RegionCode":"MA","RegionName":"Massachusetts","Latitude":"42.230200","Longitude":"-71.530100","Population":null,"Region":"MA"},{"Date":"2020-03-07","Key":"US_MD","Confirmed":3,"Deaths":null,"CountryCode":"US","CountryName":"United States of America","RegionCode":"MD","RegionName":"Maryland","Latitude":"39.063900","Longitude":"-76.802100","Population":null,"Region":"MD"},{"Date":"2020-03-07","Key":"US_ME","Confirmed":0,"Deaths":null,"CountryCode":"US","CountryName":"United States of America","RegionCode":"ME","RegionName":"Maine","Latitude":"44.693900","Longitude":"-69.381900","Population":null,"Region":"ME"},{"Date":"2020-03-07","Key":"US_MI","Confirmed":0,"Deaths":null,"CountryCode":"US","CountryName":"United States of America","RegionCode":"MI","RegionName":"Michigan","Latitude":"43.326600","Longitude":"-84.536100","Population":null,"Region":"MI"},{"Date":"2020-03-07","Key":"US_MN","Confirmed":1,"Deaths":null,"CountryCode":"US","CountryName":"United States of America","RegionCode":"MN","RegionName":"Minnesota","Latitude":"44.825400","Longitude":"-93.784200","Population":null,"Region":"MN"},{"Date":"2020-03-07","Key":"US_MO","Confirmed":0,"Deaths":null,"CountryCode":"US","CountryName":"United States of America","RegionCode":"MO","RegionName":"Missouri","Latitude":"38.456100","Longitude":"-92.288400","Population":null,"Region":"MO"},{"Date":"2020-03-07","Key":"US_MS","Confirmed":0,"Deaths":null,"CountryCode":"US","CountryName":"United States of America","RegionCode":"MS","RegionName":"Mississippi","Latitude":"32.741600","Longitude":"-89.678700","Population":null,"Region":"MS"},{"Date":"2020-03-07","Key":"US_MT","Confirmed":0,"Deaths":null,"CountryCode":"US","CountryName":"United States of America","RegionCode":"MT","RegionName":"Montana","Latitude":"46.921900","Longitude":"-110.454400","Population":null,"Region":"MT"},{"Date":"2020-03-07","Key":"US_NC","Confirmed":2,"Deaths":null,"CountryCode":"US","CountryName":"United States of America","RegionCode":"NC","RegionName":"North Carolina","Latitude":"35.630100","Longitude":"-79.806400","Population":null,"Region":"NC"},{"Date":"2020-03-07","Key":"US_ND","Confirmed":0,"Deaths":null,"CountryCode":"US","CountryName":"United States of America","RegionCode":"ND","RegionName":"North Dakota","Latitude":"47.528900","Longitude":"-99.784000","Population":null,"Region":"ND"},{"Date":"2020-03-07","Key":"US_NE","Confirmed":1,"Deaths":null,"CountryCode":"US","CountryName":"United States of America","RegionCode":"NE","RegionName":"Nebraska","Latitude":"41.314800","Longitude":"-96.195100","Population":null,"Region":"NE"},{"Date":"2020-03-07","Key":"US_NH","Confirmed":2,"Deaths":null,"CountryCode":"US","CountryName":"United States of America","RegionCode":"NH","RegionName":"New Hampshire","Latitude":"42.993100","Longitude":"-71.049800","Population":null,"Region":"NH"},{"Date":"2020-03-07","Key":"US_NJ","Confirmed":4,"Deaths":null,"CountryCode":"US","CountryName":"United States of America","RegionCode":"NJ","RegionName":"New Jersey","Latitude":"40.298900","Longitude":"-74.521000","Population":null,"Region":"NJ"},{"Date":"2020-03-07","Key":"US_NM","Confirmed":0,"Deaths":null,"CountryCode":"US","CountryName":"United States of America","RegionCode":"NM","RegionName":"New Mexico","Latitude":"34.840500","Longitude":"-106.248500","Population":null,"Region":"NM"},{"Date":"2020-03-07","Key":"US_NV","Confirmed":1,"Deaths":null,"CountryCode":"US","CountryName":"United States of America","RegionCode":"NV","RegionName":"Nevada","Latitude":"38.313500","Longitude":"-117.055400","Population":null,"Region":"NV"},{"Date":"2020-03-07","Key":"US_NY","Confirmed":76,"Deaths":null,"CountryCode":"US","CountryName":"United States of America","RegionCode":"NY","RegionName":"New York","Latitude":"42.165700","Longitude":"-74.948100","Population":null,"Region":"NY"},{"Date":"2020-03-07","Key":"US_OH","Confirmed":0,"Deaths":null,"CountryCode":"US","CountryName":"United States of America","RegionCode":"OH","RegionName":"Ohio","Latitude":"40.388800","Longitude":"-82.764900","Population":null,"Region":"OH"},{"Date":"2020-03-07","Key":"US_OK","Confirmed":1,"Deaths":null,"CountryCode":"US","CountryName":"United States of America","RegionCode":"OK","RegionName":"Oklahoma","Latitude":"35.565300","Longitude":"-96.928900","Population":null,"Region":"OK"},{"Date":"2020-03-07","Key":"US_OR","Confirmed":7,"Deaths":null,"CountryCode":"US","CountryName":"United States of America","RegionCode":"OR","RegionName":"Oregon","Latitude":"43.126100","Longitude":"-123.249200","Population":null,"Region":"OR"},{"Date":"2020-03-07","Key":"US_PA","Confirmed":2,"Deaths":null,"CountryCode":"US","CountryName":"United States of America","RegionCode":"PA","RegionName":"Pennsylvania","Latitude":"40.590800","Longitude":"-77.209800","Population":null,"Region":"PA"},{"Date":"2020-03-07","Key":"US_RI","Confirmed":2,"Deaths":null,"CountryCode":"US","CountryName":"United States of America","RegionCode":"RI","RegionName":"Rhode Island","Latitude":"41.888200","Longitude":"-71.477400","Population":null,"Region":"RI"},{"Date":"2020-03-07","Key":"US_SC","Confirmed":2,"Deaths":null,"CountryCode":"US","CountryName":"United States of America","RegionCode":"SC","RegionName":"South Carolina","Latitude":"33.856900","Longitude":"-80.945000","Population":null,"Region":"SC"},{"Date":"2020-03-07","Key":"US_SD","Confirmed":0,"Deaths":null,"CountryCode":"US","CountryName":"United States of America","RegionCode":"SD","RegionName":"South Dakota","Latitude":"43.890100","Longitude":"-102.254800","Population":null,"Region":"SD"},{"Date":"2020-03-07","Key":"US_TN","Confirmed":1,"Deaths":null,"CountryCode":"US","CountryName":"United States of America","RegionCode":"TN","RegionName":"Tennessee","Latitude":"35.747800","Longitude":"-86.692300","Population":null,"Region":"TN"},{"Date":"2020-03-07","Key":"US_TX","Confirmed":8,"Deaths":null,"CountryCode":"US","CountryName":"United States of America","RegionCode":"TX","RegionName":"Texas","Latitude":"31.054500","Longitude":"-97.563500","Population":null,"Region":"TX"},{"Date":"2020-03-07","Key":"US_UT","Confirmed":1,"Deaths":null,"CountryCode":"US","CountryName":"United States of America","RegionCode":"UT","RegionName":"Utah","Latitude":"40.150000","Longitude":"-111.862400","Population":null,"Region":"UT"},{"Date":"2020-03-07","Key":"US_VA","Confirmed":0,"Deaths":null,"CountryCode":"US","CountryName":"United States of America","RegionCode":"VA","RegionName":"Virginia","Latitude":"37.769300","Longitude":"-78.170000","Population":null,"Region":"VA"},{"Date":"2020-03-07","Key":"US_VT","Confirmed":0,"Deaths":null,"CountryCode":"US","CountryName":"United States of America","RegionCode":"VT","RegionName":"Vermont","Latitude":"44.045900","Longitude":"-72.710700","Population":null,"Region":"VT"},{"Date":"2020-03-07","Key":"US_WA","Confirmed":102,"Deaths":null,"CountryCode":"US","CountryName":"United States of America","RegionCode":"WA","RegionName":"Washington","Latitude":"47.400900","Longitude":"-121.490500","Population":null,"Region":"WA"},{"Date":"2020-03-07","Key":"US_WI","Confirmed":1,"Deaths":null,"CountryCode":"US","CountryName":"United States of America","RegionCode":"WI","RegionName":"Wisconsin","Latitude":"43.018600","Longitude":"-89.549800","Population":null,"Region":"WI"},{"Date":"2020-03-07","Key":"US_WV","Confirmed":0,"Deaths":null,"CountryCode":"US","CountryName":"United States of America","RegionCode":"WV","RegionName":"West Virginia","Latitude":"38.491200","Longitude":"-80.954500","Population":null,"Region":"WV"},{"Date":"2020-03-07","Key":"US_WY","Confirmed":0,"Deaths":null,"CountryCode":"US","CountryName":"United States of America","RegionCode":"WY","RegionName":"Wyoming","Latitude":"42.756000","Longitude":"-107.302500","Population":null,"Region":"WY"},{"Date":"2020-03-08","Key":"US_AK","Confirmed":0,"Deaths":null,"CountryCode":"US","CountryName":"United States of America","RegionCode":"AK","RegionName":"Alaska","Latitude":"61.370700","Longitude":"-152.404400","Population":null,"Region":"AK"},{"Date":"2020-03-08","Key":"US_AL","Confirmed":0,"Deaths":null,"CountryCode":"US","CountryName":"United States of America","RegionCode":"AL","RegionName":"Alabama","Latitude":"32.318200","Longitude":"-86.902300","Population":null,"Region":"AL"},{"Date":"2020-03-08","Key":"US_AR","Confirmed":0,"Deaths":null,"CountryCode":"US","CountryName":"United States of America","RegionCode":"AR","RegionName":"Arkansas","Latitude":"34.969700","Longitude":"-92.373100","Population":null,"Region":"AR"},{"Date":"2020-03-08","Key":"US_AZ","Confirmed":5,"Deaths":null,"CountryCode":"US","CountryName":"United States of America","RegionCode":"AZ","RegionName":"Arizona","Latitude":"33.729800","Longitude":"-111.431200","Population":null,"Region":"AZ"},{"Date":"2020-03-08","Key":"US_CA","Confirmed":88,"Deaths":null,"CountryCode":"US","CountryName":"United States of America","RegionCode":"CA","RegionName":"California","Latitude":"36.116200","Longitude":"-119.681600","Population":null,"Region":"CA"},{"Date":"2020-03-08","Key":"US_CO","Confirmed":8,"Deaths":null,"CountryCode":"US","CountryName":"United States of America","RegionCode":"CO","RegionName":"Colorado","Latitude":"39.059800","Longitude":"-105.311100","Population":null,"Region":"CO"},{"Date":"2020-03-08","Key":"US_CT","Confirmed":1,"Deaths":null,"CountryCode":"US","CountryName":"United States of America","RegionCode":"CT","RegionName":"Connecticut","Latitude":"41.597800","Longitude":"-72.755400","Population":null,"Region":"CT"},{"Date":"2020-03-08","Key":"US_DC","Confirmed":1,"Deaths":null,"CountryCode":"US","CountryName":"United States of America","RegionCode":"DC","RegionName":"District of Columbia","Latitude":"38.897400","Longitude":"-77.026800","Population":null,"Region":"DC"},{"Date":"2020-03-08","Key":"US_DE","Confirmed":0,"Deaths":null,"CountryCode":"US","CountryName":"United States of America","RegionCode":"DE","RegionName":"Delaware","Latitude":"39.318500","Longitude":"-75.507100","Population":null,"Region":"DE"},{"Date":"2020-03-08","Key":"US_FL","Confirmed":17,"Deaths":null,"CountryCode":"US","CountryName":"United States of America","RegionCode":"FL","RegionName":"Florida","Latitude":"27.766300","Longitude":"-81.686800","Population":null,"Region":"FL"},{"Date":"2020-03-08","Key":"US_GA","Confirmed":7,"Deaths":null,"CountryCode":"US","CountryName":"United States of America","RegionCode":"GA","RegionName":"Georgia","Latitude":"33.040600","Longitude":"-83.643100","Population":null,"Region":"GA"},{"Date":"2020-03-08","Key":"US_HI","Confirmed":1,"Deaths":null,"CountryCode":"US","CountryName":"United States of America","RegionCode":"HI","RegionName":"Hawaii","Latitude":"21.094300","Longitude":"-157.498300","Population":null,"Region":"HI"},{"Date":"2020-03-08","Key":"US_IA","Confirmed":0,"Deaths":null,"CountryCode":"US","CountryName":"United States of America","RegionCode":"IA","RegionName":"Iowa","Latitude":"42.011500","Longitude":"-93.210500","Population":null,"Region":"IA"},{"Date":"2020-03-08","Key":"US_ID","Confirmed":0,"Deaths":null,"CountryCode":"US","CountryName":"United States of America","RegionCode":"ID","RegionName":"Idaho","Latitude":"44.240500","Longitude":"-114.478800","Population":null,"Region":"ID"},{"Date":"2020-03-08","Key":"US_IL","Confirmed":6,"Deaths":null,"CountryCode":"US","CountryName":"United States of America","RegionCode":"IL","RegionName":"Illinois","Latitude":"40.349500","Longitude":"-88.986100","Population":null,"Region":"IL"},{"Date":"2020-03-08","Key":"US_IN","Confirmed":2,"Deaths":null,"CountryCode":"US","CountryName":"United States of America","RegionCode":"IN","RegionName":"Indiana","Latitude":"39.849400","Longitude":"-86.258300","Population":null,"Region":"IN"},{"Date":"2020-03-08","Key":"US_KS","Confirmed":1,"Deaths":null,"CountryCode":"US","CountryName":"United States of America","RegionCode":"KS","RegionName":"Kansas","Latitude":"38.526600","Longitude":"-96.726500","Population":null,"Region":"KS"},{"Date":"2020-03-08","Key":"US_KY","Confirmed":1,"Deaths":null,"CountryCode":"US","CountryName":"United States of America","RegionCode":"KY","RegionName":"Kentucky","Latitude":"37.668100","Longitude":"-84.670100","Population":null,"Region":"KY"},{"Date":"2020-03-08","Key":"US_LA","Confirmed":0,"Deaths":null,"CountryCode":"US","CountryName":"United States of America","RegionCode":"LA","RegionName":"Louisiana","Latitude":"31.169500","Longitude":"-91.867800","Population":null,"Region":"LA"},{"Date":"2020-03-08","Key":"US_MA","Confirmed":13,"Deaths":null,"CountryCode":"US","CountryName":"United States of America","RegionCode":"MA","RegionName":"Massachusetts","Latitude":"42.230200","Longitude":"-71.530100","Population":null,"Region":"MA"},{"Date":"2020-03-08","Key":"US_MD","Confirmed":3,"Deaths":null,"CountryCode":"US","CountryName":"United States of America","RegionCode":"MD","RegionName":"Maryland","Latitude":"39.063900","Longitude":"-76.802100","Population":null,"Region":"MD"},{"Date":"2020-03-08","Key":"US_ME","Confirmed":0,"Deaths":null,"CountryCode":"US","CountryName":"United States of America","RegionCode":"ME","RegionName":"Maine","Latitude":"44.693900","Longitude":"-69.381900","Population":null,"Region":"ME"},{"Date":"2020-03-08","Key":"US_MI","Confirmed":0,"Deaths":null,"CountryCode":"US","CountryName":"United States of America","RegionCode":"MI","RegionName":"Michigan","Latitude":"43.326600","Longitude":"-84.536100","Population":null,"Region":"MI"},{"Date":"2020-03-08","Key":"US_MN","Confirmed":1,"Deaths":null,"CountryCode":"US","CountryName":"United States of America","RegionCode":"MN","RegionName":"Minnesota","Latitude":"44.825400","Longitude":"-93.784200","Population":null,"Region":"MN"},{"Date":"2020-03-08","Key":"US_MO","Confirmed":1,"Deaths":null,"CountryCode":"US","CountryName":"United States of America","RegionCode":"MO","RegionName":"Missouri","Latitude":"38.456100","Longitude":"-92.288400","Population":null,"Region":"MO"},{"Date":"2020-03-08","Key":"US_MS","Confirmed":0,"Deaths":null,"CountryCode":"US","CountryName":"United States of America","RegionCode":"MS","RegionName":"Mississippi","Latitude":"32.741600","Longitude":"-89.678700","Population":null,"Region":"MS"},{"Date":"2020-03-08","Key":"US_MT","Confirmed":0,"Deaths":null,"CountryCode":"US","CountryName":"United States of America","RegionCode":"MT","RegionName":"Montana","Latitude":"46.921900","Longitude":"-110.454400","Population":null,"Region":"MT"},{"Date":"2020-03-08","Key":"US_NC","Confirmed":2,"Deaths":null,"CountryCode":"US","CountryName":"United States of America","RegionCode":"NC","RegionName":"North Carolina","Latitude":"35.630100","Longitude":"-79.806400","Population":null,"Region":"NC"},{"Date":"2020-03-08","Key":"US_ND","Confirmed":0,"Deaths":null,"CountryCode":"US","CountryName":"United States of America","RegionCode":"ND","RegionName":"North Dakota","Latitude":"47.528900","Longitude":"-99.784000","Population":null,"Region":"ND"},{"Date":"2020-03-08","Key":"US_NE","Confirmed":1,"Deaths":null,"CountryCode":"US","CountryName":"United States of America","RegionCode":"NE","RegionName":"Nebraska","Latitude":"41.314800","Longitude":"-96.195100","Population":null,"Region":"NE"},{"Date":"2020-03-08","Key":"US_NH","Confirmed":4,"Deaths":null,"CountryCode":"US","CountryName":"United States of America","RegionCode":"NH","RegionName":"New Hampshire","Latitude":"42.993100","Longitude":"-71.049800","Population":null,"Region":"NH"},{"Date":"2020-03-08","Key":"US_NJ","Confirmed":6,"Deaths":null,"CountryCode":"US","CountryName":"United States of America","RegionCode":"NJ","RegionName":"New Jersey","Latitude":"40.298900","Longitude":"-74.521000","Population":null,"Region":"NJ"},{"Date":"2020-03-08","Key":"US_NM","Confirmed":0,"Deaths":null,"CountryCode":"US","CountryName":"United States of America","RegionCode":"NM","RegionName":"New Mexico","Latitude":"34.840500","Longitude":"-106.248500","Population":null,"Region":"NM"},{"Date":"2020-03-08","Key":"US_NV","Confirmed":1,"Deaths":null,"CountryCode":"US","CountryName":"United States of America","RegionCode":"NV","RegionName":"Nevada","Latitude":"38.313500","Longitude":"-117.055400","Population":null,"Region":"NV"},{"Date":"2020-03-08","Key":"US_NY","Confirmed":105,"Deaths":null,"CountryCode":"US","CountryName":"United States of America","RegionCode":"NY","RegionName":"New York","Latitude":"42.165700","Longitude":"-74.948100","Population":null,"Region":"NY"},{"Date":"2020-03-08","Key":"US_OH","Confirmed":0,"Deaths":null,"CountryCode":"US","CountryName":"United States of America","RegionCode":"OH","RegionName":"Ohio","Latitude":"40.388800","Longitude":"-82.764900","Population":null,"Region":"OH"},{"Date":"2020-03-08","Key":"US_OK","Confirmed":1,"Deaths":null,"CountryCode":"US","CountryName":"United States of America","RegionCode":"OK","RegionName":"Oklahoma","Latitude":"35.565300","Longitude":"-96.928900","Population":null,"Region":"OK"},{"Date":"2020-03-08","Key":"US_OR","Confirmed":14,"Deaths":null,"CountryCode":"US","CountryName":"United States of America","RegionCode":"OR","RegionName":"Oregon","Latitude":"43.126100","Longitude":"-123.249200","Population":null,"Region":"OR"},{"Date":"2020-03-08","Key":"US_PA","Confirmed":4,"Deaths":null,"CountryCode":"US","CountryName":"United States of America","RegionCode":"PA","RegionName":"Pennsylvania","Latitude":"40.590800","Longitude":"-77.209800","Population":null,"Region":"PA"},{"Date":"2020-03-08","Key":"US_RI","Confirmed":3,"Deaths":null,"CountryCode":"US","CountryName":"United States of America","RegionCode":"RI","RegionName":"Rhode Island","Latitude":"41.888200","Longitude":"-71.477400","Population":null,"Region":"RI"},{"Date":"2020-03-08","Key":"US_SC","Confirmed":2,"Deaths":null,"CountryCode":"US","CountryName":"United States of America","RegionCode":"SC","RegionName":"South Carolina","Latitude":"33.856900","Longitude":"-80.945000","Population":null,"Region":"SC"},{"Date":"2020-03-08","Key":"US_SD","Confirmed":0,"Deaths":null,"CountryCode":"US","CountryName":"United States of America","RegionCode":"SD","RegionName":"South Dakota","Latitude":"43.890100","Longitude":"-102.254800","Population":null,"Region":"SD"},{"Date":"2020-03-08","Key":"US_TN","Confirmed":3,"Deaths":null,"CountryCode":"US","CountryName":"United States of America","RegionCode":"TN","RegionName":"Tennessee","Latitude":"35.747800","Longitude":"-86.692300","Population":null,"Region":"TN"},{"Date":"2020-03-08","Key":"US_TX","Confirmed":8,"Deaths":null,"CountryCode":"US","CountryName":"United States of America","RegionCode":"TX","RegionName":"Texas","Latitude":"31.054500","Longitude":"-97.563500","Population":null,"Region":"TX"},{"Date":"2020-03-08","Key":"US_UT","Confirmed":1,"Deaths":null,"CountryCode":"US","CountryName":"United States of America","RegionCode":"UT","RegionName":"Utah","Latitude":"40.150000","Longitude":"-111.862400","Population":null,"Region":"UT"},{"Date":"2020-03-08","Key":"US_VA","Confirmed":2,"Deaths":null,"CountryCode":"US","CountryName":"United States of America","RegionCode":"VA","RegionName":"Virginia","Latitude":"37.769300","Longitude":"-78.170000","Population":null,"Region":"VA"},{"Date":"2020-03-08","Key":"US_VT","Confirmed":1,"Deaths":null,"CountryCode":"US","CountryName":"United States of America","RegionCode":"VT","RegionName":"Vermont","Latitude":"44.045900","Longitude":"-72.710700","Population":null,"Region":"VT"},{"Date":"2020-03-08","Key":"US_WA","Confirmed":102,"Deaths":null,"CountryCode":"US","CountryName":"United States of America","RegionCode":"WA","RegionName":"Washington","Latitude":"47.400900","Longitude":"-121.490500","Population":null,"Region":"WA"},{"Date":"2020-03-08","Key":"US_WI","Confirmed":1,"Deaths":null,"CountryCode":"US","CountryName":"United States of America","RegionCode":"WI","RegionName":"Wisconsin","Latitude":"43.018600","Longitude":"-89.549800","Population":null,"Region":"WI"},{"Date":"2020-03-08","Key":"US_WV","Confirmed":0,"Deaths":null,"CountryCode":"US","CountryName":"United States of America","RegionCode":"WV","RegionName":"West Virginia","Latitude":"38.491200","Longitude":"-80.954500","Population":null,"Region":"WV"},{"Date":"2020-03-08","Key":"US_WY","Confirmed":0,"Deaths":null,"CountryCode":"US","CountryName":"United States of America","RegionCode":"WY","RegionName":"Wyoming","Latitude":"42.756000","Longitude":"-107.302500","Population":null,"Region":"WY"},{"Date":"2020-03-09","Key":"US_AK","Confirmed":0,"Deaths":null,"CountryCode":"US","CountryName":"United States of America","RegionCode":"AK","RegionName":"Alaska","Latitude":"61.370700","Longitude":"-152.404400","Population":null,"Region":"AK"},{"Date":"2020-03-09","Key":"US_AL","Confirmed":0,"Deaths":null,"CountryCode":"US","CountryName":"United States of America","RegionCode":"AL","RegionName":"Alabama","Latitude":"32.318200","Longitude":"-86.902300","Population":null,"Region":"AL"},{"Date":"2020-03-09","Key":"US_AR","Confirmed":0,"Deaths":null,"CountryCode":"US","CountryName":"United States of America","RegionCode":"AR","RegionName":"Arkansas","Latitude":"34.969700","Longitude":"-92.373100","Population":null,"Region":"AR"},{"Date":"2020-03-09","Key":"US_AZ","Confirmed":5,"Deaths":null,"CountryCode":"US","CountryName":"United States of America","RegionCode":"AZ","RegionName":"Arizona","Latitude":"33.729800","Longitude":"-111.431200","Population":null,"Region":"AZ"},{"Date":"2020-03-09","Key":"US_CA","Confirmed":114,"Deaths":null,"CountryCode":"US","CountryName":"United States of America","RegionCode":"CA","RegionName":"California","Latitude":"36.116200","Longitude":"-119.681600","Population":null,"Region":"CA"},{"Date":"2020-03-09","Key":"US_CO","Confirmed":9,"Deaths":null,"CountryCode":"US","CountryName":"United States of America","RegionCode":"CO","RegionName":"Colorado","Latitude":"39.059800","Longitude":"-105.311100","Population":null,"Region":"CO"},{"Date":"2020-03-09","Key":"US_CT","Confirmed":1,"Deaths":null,"CountryCode":"US","CountryName":"United States of America","RegionCode":"CT","RegionName":"Connecticut","Latitude":"41.597800","Longitude":"-72.755400","Population":null,"Region":"CT"},{"Date":"2020-03-09","Key":"US_DC","Confirmed":1,"Deaths":null,"CountryCode":"US","CountryName":"United States of America","RegionCode":"DC","RegionName":"District of Columbia","Latitude":"38.897400","Longitude":"-77.026800","Population":null,"Region":"DC"},{"Date":"2020-03-09","Key":"US_DE","Confirmed":0,"Deaths":null,"CountryCode":"US","CountryName":"United States of America","RegionCode":"DE","RegionName":"Delaware","Latitude":"39.318500","Longitude":"-75.507100","Population":null,"Region":"DE"},{"Date":"2020-03-09","Key":"US_FL","Confirmed":18,"Deaths":null,"CountryCode":"US","CountryName":"United States of America","RegionCode":"FL","RegionName":"Florida","Latitude":"27.766300","Longitude":"-81.686800","Population":null,"Region":"FL"},{"Date":"2020-03-09","Key":"US_GA","Confirmed":12,"Deaths":null,"CountryCode":"US","CountryName":"United States of America","RegionCode":"GA","RegionName":"Georgia","Latitude":"33.040600","Longitude":"-83.643100","Population":null,"Region":"GA"},{"Date":"2020-03-09","Key":"US_HI","Confirmed":2,"Deaths":null,"CountryCode":"US","CountryName":"United States of America","RegionCode":"HI","RegionName":"Hawaii","Latitude":"21.094300","Longitude":"-157.498300","Population":null,"Region":"HI"},{"Date":"2020-03-09","Key":"US_IA","Confirmed":3,"Deaths":null,"CountryCode":"US","CountryName":"United States of America","RegionCode":"IA","RegionName":"Iowa","Latitude":"42.011500","Longitude":"-93.210500","Population":null,"Region":"IA"},{"Date":"2020-03-09","Key":"US_ID","Confirmed":0,"Deaths":null,"CountryCode":"US","CountryName":"United States of America","RegionCode":"ID","RegionName":"Idaho","Latitude":"44.240500","Longitude":"-114.478800","Population":null,"Region":"ID"},{"Date":"2020-03-09","Key":"US_IL","Confirmed":7,"Deaths":null,"CountryCode":"US","CountryName":"United States of America","RegionCode":"IL","RegionName":"Illinois","Latitude":"40.349500","Longitude":"-88.986100","Population":null,"Region":"IL"},{"Date":"2020-03-09","Key":"US_IN","Confirmed":2,"Deaths":null,"CountryCode":"US","CountryName":"United States of America","RegionCode":"IN","RegionName":"Indiana","Latitude":"39.849400","Longitude":"-86.258300","Population":null,"Region":"IN"},{"Date":"2020-03-09","Key":"US_KS","Confirmed":1,"Deaths":null,"CountryCode":"US","CountryName":"United States of America","RegionCode":"KS","RegionName":"Kansas","Latitude":"38.526600","Longitude":"-96.726500","Population":null,"Region":"KS"},{"Date":"2020-03-09","Key":"US_KY","Confirmed":4,"Deaths":null,"CountryCode":"US","CountryName":"United States of America","RegionCode":"KY","RegionName":"Kentucky","Latitude":"37.668100","Longitude":"-84.670100","Population":null,"Region":"KY"},{"Date":"2020-03-09","Key":"US_LA","Confirmed":1,"Deaths":null,"CountryCode":"US","CountryName":"United States of America","RegionCode":"LA","RegionName":"Louisiana","Latitude":"31.169500","Longitude":"-91.867800","Population":null,"Region":"LA"},{"Date":"2020-03-09","Key":"US_MA","Confirmed":41,"Deaths":null,"CountryCode":"US","CountryName":"United States of America","RegionCode":"MA","RegionName":"Massachusetts","Latitude":"42.230200","Longitude":"-71.530100","Population":null,"Region":"MA"},{"Date":"2020-03-09","Key":"US_MD","Confirmed":5,"Deaths":null,"CountryCode":"US","CountryName":"United States of America","RegionCode":"MD","RegionName":"Maryland","Latitude":"39.063900","Longitude":"-76.802100","Population":null,"Region":"MD"},{"Date":"2020-03-09","Key":"US_ME","Confirmed":0,"Deaths":null,"CountryCode":"US","CountryName":"United States of America","RegionCode":"ME","RegionName":"Maine","Latitude":"44.693900","Longitude":"-69.381900","Population":null,"Region":"ME"},{"Date":"2020-03-09","Key":"US_MI","Confirmed":0,"Deaths":null,"CountryCode":"US","CountryName":"United States of America","RegionCode":"MI","RegionName":"Michigan","Latitude":"43.326600","Longitude":"-84.536100","Population":null,"Region":"MI"},{"Date":"2020-03-09","Key":"US_MN","Confirmed":2,"Deaths":null,"CountryCode":"US","CountryName":"United States of America","RegionCode":"MN","RegionName":"Minnesota","Latitude":"44.825400","Longitude":"-93.784200","Population":null,"Region":"MN"},{"Date":"2020-03-09","Key":"US_MO","Confirmed":1,"Deaths":null,"CountryCode":"US","CountryName":"United States of America","RegionCode":"MO","RegionName":"Missouri","Latitude":"38.456100","Longitude":"-92.288400","Population":null,"Region":"MO"},{"Date":"2020-03-09","Key":"US_MS","Confirmed":0,"Deaths":null,"CountryCode":"US","CountryName":"United States of America","RegionCode":"MS","RegionName":"Mississippi","Latitude":"32.741600","Longitude":"-89.678700","Population":null,"Region":"MS"},{"Date":"2020-03-09","Key":"US_MT","Confirmed":0,"Deaths":null,"CountryCode":"US","CountryName":"United States of America","RegionCode":"MT","RegionName":"Montana","Latitude":"46.921900","Longitude":"-110.454400","Population":null,"Region":"MT"},{"Date":"2020-03-09","Key":"US_NC","Confirmed":2,"Deaths":null,"CountryCode":"US","CountryName":"United States of America","RegionCode":"NC","RegionName":"North Carolina","Latitude":"35.630100","Longitude":"-79.806400","Population":null,"Region":"NC"},{"Date":"2020-03-09","Key":"US_ND","Confirmed":0,"Deaths":null,"CountryCode":"US","CountryName":"United States of America","RegionCode":"ND","RegionName":"North Dakota","Latitude":"47.528900","Longitude":"-99.784000","Population":null,"Region":"ND"},{"Date":"2020-03-09","Key":"US_NE","Confirmed":3,"Deaths":null,"CountryCode":"US","CountryName":"United States of America","RegionCode":"NE","RegionName":"Nebraska","Latitude":"41.314800","Longitude":"-96.195100","Population":null,"Region":"NE"},{"Date":"2020-03-09","Key":"US_NH","Confirmed":4,"Deaths":null,"CountryCode":"US","CountryName":"United States of America","RegionCode":"NH","RegionName":"New Hampshire","Latitude":"42.993100","Longitude":"-71.049800","Population":null,"Region":"NH"},{"Date":"2020-03-09","Key":"US_NJ","Confirmed":11,"Deaths":null,"CountryCode":"US","CountryName":"United States of America","RegionCode":"NJ","RegionName":"New Jersey","Latitude":"40.298900","Longitude":"-74.521000","Population":null,"Region":"NJ"},{"Date":"2020-03-09","Key":"US_NM","Confirmed":0,"Deaths":null,"CountryCode":"US","CountryName":"United States of America","RegionCode":"NM","RegionName":"New Mexico","Latitude":"34.840500","Longitude":"-106.248500","Population":null,"Region":"NM"},{"Date":"2020-03-09","Key":"US_NV","Confirmed":1,"Deaths":null,"CountryCode":"US","CountryName":"United States of America","RegionCode":"NV","RegionName":"Nevada","Latitude":"38.313500","Longitude":"-117.055400","Population":null,"Region":"NV"},{"Date":"2020-03-09","Key":"US_NY","Confirmed":142,"Deaths":null,"CountryCode":"US","CountryName":"United States of America","RegionCode":"NY","RegionName":"New York","Latitude":"42.165700","Longitude":"-74.948100","Population":null,"Region":"NY"},{"Date":"2020-03-09","Key":"US_OH","Confirmed":3,"Deaths":null,"CountryCode":"US","CountryName":"United States of America","RegionCode":"OH","RegionName":"Ohio","Latitude":"40.388800","Longitude":"-82.764900","Population":null,"Region":"OH"},{"Date":"2020-03-09","Key":"US_OK","Confirmed":1,"Deaths":null,"CountryCode":"US","CountryName":"United States of America","RegionCode":"OK","RegionName":"Oklahoma","Latitude":"35.565300","Longitude":"-96.928900","Population":null,"Region":"OK"},{"Date":"2020-03-09","Key":"US_OR","Confirmed":14,"Deaths":null,"CountryCode":"US","CountryName":"United States of America","RegionCode":"OR","RegionName":"Oregon","Latitude":"43.126100","Longitude":"-123.249200","Population":null,"Region":"OR"},{"Date":"2020-03-09","Key":"US_PA","Confirmed":7,"Deaths":null,"CountryCode":"US","CountryName":"United States of America","RegionCode":"PA","RegionName":"Pennsylvania","Latitude":"40.590800","Longitude":"-77.209800","Population":null,"Region":"PA"},{"Date":"2020-03-09","Key":"US_RI","Confirmed":3,"Deaths":null,"CountryCode":"US","CountryName":"United States of America","RegionCode":"RI","RegionName":"Rhode Island","Latitude":"41.888200","Longitude":"-71.477400","Population":null,"Region":"RI"},{"Date":"2020-03-09","Key":"US_SC","Confirmed":7,"Deaths":null,"CountryCode":"US","CountryName":"United States of America","RegionCode":"SC","RegionName":"South Carolina","Latitude":"33.856900","Longitude":"-80.945000","Population":null,"Region":"SC"},{"Date":"2020-03-09","Key":"US_SD","Confirmed":0,"Deaths":null,"CountryCode":"US","CountryName":"United States of America","RegionCode":"SD","RegionName":"South Dakota","Latitude":"43.890100","Longitude":"-102.254800","Population":null,"Region":"SD"},{"Date":"2020-03-09","Key":"US_TN","Confirmed":3,"Deaths":null,"CountryCode":"US","CountryName":"United States of America","RegionCode":"TN","RegionName":"Tennessee","Latitude":"35.747800","Longitude":"-86.692300","Population":null,"Region":"TN"},{"Date":"2020-03-09","Key":"US_TX","Confirmed":12,"Deaths":null,"CountryCode":"US","CountryName":"United States of America","RegionCode":"TX","RegionName":"Texas","Latitude":"31.054500","Longitude":"-97.563500","Population":null,"Region":"TX"},{"Date":"2020-03-09","Key":"US_UT","Confirmed":1,"Deaths":null,"CountryCode":"US","CountryName":"United States of America","RegionCode":"UT","RegionName":"Utah","Latitude":"40.150000","Longitude":"-111.862400","Population":null,"Region":"UT"},{"Date":"2020-03-09","Key":"US_VA","Confirmed":3,"Deaths":null,"CountryCode":"US","CountryName":"United States of America","RegionCode":"VA","RegionName":"Virginia","Latitude":"37.769300","Longitude":"-78.170000","Population":null,"Region":"VA"},{"Date":"2020-03-09","Key":"US_VT","Confirmed":1,"Deaths":null,"CountryCode":"US","CountryName":"United States of America","RegionCode":"VT","RegionName":"Vermont","Latitude":"44.045900","Longitude":"-72.710700","Population":null,"Region":"VT"},{"Date":"2020-03-09","Key":"US_WA","Confirmed":136,"Deaths":null,"CountryCode":"US","CountryName":"United States of America","RegionCode":"WA","RegionName":"Washington","Latitude":"47.400900","Longitude":"-121.490500","Population":null,"Region":"WA"},{"Date":"2020-03-09","Key":"US_WI","Confirmed":1,"Deaths":null,"CountryCode":"US","CountryName":"United States of America","RegionCode":"WI","RegionName":"Wisconsin","Latitude":"43.018600","Longitude":"-89.549800","Population":null,"Region":"WI"},{"Date":"2020-03-09","Key":"US_WV","Confirmed":0,"Deaths":null,"CountryCode":"US","CountryName":"United States of America","RegionCode":"WV","RegionName":"West Virginia","Latitude":"38.491200","Longitude":"-80.954500","Population":null,"Region":"WV"},{"Date":"2020-03-09","Key":"US_WY","Confirmed":0,"Deaths":null,"CountryCode":"US","CountryName":"United States of America","RegionCode":"WY","RegionName":"Wyoming","Latitude":"42.756000","Longitude":"-107.302500","Population":null,"Region":"WY"},{"Date":"2020-03-10","Key":"US_AK","Confirmed":0,"Deaths":null,"CountryCode":"US","CountryName":"United States of America","RegionCode":"AK","RegionName":"Alaska","Latitude":"61.370700","Longitude":"-152.404400","Population":null,"Region":"AK"},{"Date":"2020-03-10","Key":"US_AL","Confirmed":0,"Deaths":null,"CountryCode":"US","CountryName":"United States of America","RegionCode":"AL","RegionName":"Alabama","Latitude":"32.318200","Longitude":"-86.902300","Population":null,"Region":"AL"},{"Date":"2020-03-10","Key":"US_AR","Confirmed":0,"Deaths":null,"CountryCode":"US","CountryName":"United States of America","RegionCode":"AR","RegionName":"Arkansas","Latitude":"34.969700","Longitude":"-92.373100","Population":null,"Region":"AR"},{"Date":"2020-03-10","Key":"US_AZ","Confirmed":6,"Deaths":null,"CountryCode":"US","CountryName":"United States of America","RegionCode":"AZ","RegionName":"Arizona","Latitude":"33.729800","Longitude":"-111.431200","Population":null,"Region":"AZ"},{"Date":"2020-03-10","Key":"US_CA","Confirmed":133,"Deaths":null,"CountryCode":"US","CountryName":"United States of America","RegionCode":"CA","RegionName":"California","Latitude":"36.116200","Longitude":"-119.681600","Population":null,"Region":"CA"},{"Date":"2020-03-10","Key":"US_CO","Confirmed":12,"Deaths":null,"CountryCode":"US","CountryName":"United States of America","RegionCode":"CO","RegionName":"Colorado","Latitude":"39.059800","Longitude":"-105.311100","Population":null,"Region":"CO"},{"Date":"2020-03-10","Key":"US_CT","Confirmed":2,"Deaths":null,"CountryCode":"US","CountryName":"United States of America","RegionCode":"CT","RegionName":"Connecticut","Latitude":"41.597800","Longitude":"-72.755400","Population":null,"Region":"CT"},{"Date":"2020-03-10","Key":"US_DC","Confirmed":5,"Deaths":null,"CountryCode":"US","CountryName":"United States of America","RegionCode":"DC","RegionName":"District of Columbia","Latitude":"38.897400","Longitude":"-77.026800","Population":null,"Region":"DC"},{"Date":"2020-03-10","Key":"US_DE","Confirmed":0,"Deaths":null,"CountryCode":"US","CountryName":"United States of America","RegionCode":"DE","RegionName":"Delaware","Latitude":"39.318500","Longitude":"-75.507100","Population":null,"Region":"DE"},{"Date":"2020-03-10","Key":"US_FL","Confirmed":19,"Deaths":null,"CountryCode":"US","CountryName":"United States of America","RegionCode":"FL","RegionName":"Florida","Latitude":"27.766300","Longitude":"-81.686800","Population":null,"Region":"FL"},{"Date":"2020-03-10","Key":"US_GA","Confirmed":17,"Deaths":null,"CountryCode":"US","CountryName":"United States of America","RegionCode":"GA","RegionName":"Georgia","Latitude":"33.040600","Longitude":"-83.643100","Population":null,"Region":"GA"},{"Date":"2020-03-10","Key":"US_HI","Confirmed":2,"Deaths":null,"CountryCode":"US","CountryName":"United States of America","RegionCode":"HI","RegionName":"Hawaii","Latitude":"21.094300","Longitude":"-157.498300","Population":null,"Region":"HI"},{"Date":"2020-03-10","Key":"US_IA","Confirmed":8,"Deaths":null,"CountryCode":"US","CountryName":"United States of America","RegionCode":"IA","RegionName":"Iowa","Latitude":"42.011500","Longitude":"-93.210500","Population":null,"Region":"IA"},{"Date":"2020-03-10","Key":"US_ID","Confirmed":0,"Deaths":null,"CountryCode":"US","CountryName":"United States of America","RegionCode":"ID","RegionName":"Idaho","Latitude":"44.240500","Longitude":"-114.478800","Population":null,"Region":"ID"},{"Date":"2020-03-10","Key":"US_IL","Confirmed":19,"Deaths":null,"CountryCode":"US","CountryName":"United States of America","RegionCode":"IL","RegionName":"Illinois","Latitude":"40.349500","Longitude":"-88.986100","Population":null,"Region":"IL"},{"Date":"2020-03-10","Key":"US_IN","Confirmed":6,"Deaths":null,"CountryCode":"US","CountryName":"United States of America","RegionCode":"IN","RegionName":"Indiana","Latitude":"39.849400","Longitude":"-86.258300","Population":null,"Region":"IN"},{"Date":"2020-03-10","Key":"US_KS","Confirmed":1,"Deaths":null,"CountryCode":"US","CountryName":"United States of America","RegionCode":"KS","RegionName":"Kansas","Latitude":"38.526600","Longitude":"-96.726500","Population":null,"Region":"KS"},{"Date":"2020-03-10","Key":"US_KY","Confirmed":6,"Deaths":null,"CountryCode":"US","CountryName":"United States of America","RegionCode":"KY","RegionName":"Kentucky","Latitude":"37.668100","Longitude":"-84.670100","Population":null,"Region":"KY"},{"Date":"2020-03-10","Key":"US_LA","Confirmed":1,"Deaths":null,"CountryCode":"US","CountryName":"United States of America","RegionCode":"LA","RegionName":"Louisiana","Latitude":"31.169500","Longitude":"-91.867800","Population":null,"Region":"LA"},{"Date":"2020-03-10","Key":"US_MA","Confirmed":92,"Deaths":null,"CountryCode":"US","CountryName":"United States of America","RegionCode":"MA","RegionName":"Massachusetts","Latitude":"42.230200","Longitude":"-71.530100","Population":null,"Region":"MA"},{"Date":"2020-03-10","Key":"US_MD","Confirmed":6,"Deaths":null,"CountryCode":"US","CountryName":"United States of America","RegionCode":"MD","RegionName":"Maryland","Latitude":"39.063900","Longitude":"-76.802100","Population":null,"Region":"MD"},{"Date":"2020-03-10","Key":"US_ME","Confirmed":0,"Deaths":null,"CountryCode":"US","CountryName":"United States of America","RegionCode":"ME","RegionName":"Maine","Latitude":"44.693900","Longitude":"-69.381900","Population":null,"Region":"ME"},{"Date":"2020-03-10","Key":"US_MI","Confirmed":0,"Deaths":null,"CountryCode":"US","CountryName":"United States of America","RegionCode":"MI","RegionName":"Michigan","Latitude":"43.326600","Longitude":"-84.536100","Population":null,"Region":"MI"},{"Date":"2020-03-10","Key":"US_MN","Confirmed":3,"Deaths":null,"CountryCode":"US","CountryName":"United States of America","RegionCode":"MN","RegionName":"Minnesota","Latitude":"44.825400","Longitude":"-93.784200","Population":null,"Region":"MN"},{"Date":"2020-03-10","Key":"US_MO","Confirmed":1,"Deaths":null,"CountryCode":"US","CountryName":"United States of America","RegionCode":"MO","RegionName":"Missouri","Latitude":"38.456100","Longitude":"-92.288400","Population":null,"Region":"MO"},{"Date":"2020-03-10","Key":"US_MS","Confirmed":0,"Deaths":null,"CountryCode":"US","CountryName":"United States of America","RegionCode":"MS","RegionName":"Mississippi","Latitude":"32.741600","Longitude":"-89.678700","Population":null,"Region":"MS"},{"Date":"2020-03-10","Key":"US_MT","Confirmed":0,"Deaths":null,"CountryCode":"US","CountryName":"United States of America","RegionCode":"MT","RegionName":"Montana","Latitude":"46.921900","Longitude":"-110.454400","Population":null,"Region":"MT"},{"Date":"2020-03-10","Key":"US_NC","Confirmed":7,"Deaths":null,"CountryCode":"US","CountryName":"United States of America","RegionCode":"NC","RegionName":"North Carolina","Latitude":"35.630100","Longitude":"-79.806400","Population":null,"Region":"NC"},{"Date":"2020-03-10","Key":"US_ND","Confirmed":0,"Deaths":null,"CountryCode":"US","CountryName":"United States of America","RegionCode":"ND","RegionName":"North Dakota","Latitude":"47.528900","Longitude":"-99.784000","Population":null,"Region":"ND"},{"Date":"2020-03-10","Key":"US_NE","Confirmed":3,"Deaths":null,"CountryCode":"US","CountryName":"United States of America","RegionCode":"NE","RegionName":"Nebraska","Latitude":"41.314800","Longitude":"-96.195100","Population":null,"Region":"NE"},{"Date":"2020-03-10","Key":"US_NH","Confirmed":4,"Deaths":null,"CountryCode":"US","CountryName":"United States of America","RegionCode":"NH","RegionName":"New Hampshire","Latitude":"42.993100","Longitude":"-71.049800","Population":null,"Region":"NH"},{"Date":"2020-03-10","Key":"US_NJ","Confirmed":15,"Deaths":null,"CountryCode":"US","CountryName":"United States of America","RegionCode":"NJ","RegionName":"New Jersey","Latitude":"40.298900","Longitude":"-74.521000","Population":null,"Region":"NJ"},{"Date":"2020-03-10","Key":"US_NM","Confirmed":0,"Deaths":null,"CountryCode":"US","CountryName":"United States of America","RegionCode":"NM","RegionName":"New Mexico","Latitude":"34.840500","Longitude":"-106.248500","Population":null,"Region":"NM"},{"Date":"2020-03-10","Key":"US_NV","Confirmed":0,"Deaths":null,"CountryCode":"US","CountryName":"United States of America","RegionCode":"NV","RegionName":"Nevada","Latitude":"38.313500","Longitude":"-117.055400","Population":null,"Region":"NV"},{"Date":"2020-03-10","Key":"US_NY","Confirmed":173,"Deaths":null,"CountryCode":"US","CountryName":"United States of America","RegionCode":"NY","RegionName":"New York","Latitude":"42.165700","Longitude":"-74.948100","Population":null,"Region":"NY"},{"Date":"2020-03-10","Key":"US_OH","Confirmed":3,"Deaths":null,"CountryCode":"US","CountryName":"United States of America","RegionCode":"OH","RegionName":"Ohio","Latitude":"40.388800","Longitude":"-82.764900","Population":null,"Region":"OH"},{"Date":"2020-03-10","Key":"US_OK","Confirmed":2,"Deaths":null,"CountryCode":"US","CountryName":"United States of America","RegionCode":"OK","RegionName":"Oklahoma","Latitude":"35.565300","Longitude":"-96.928900","Population":null,"Region":"OK"},{"Date":"2020-03-10","Key":"US_OR","Confirmed":15,"Deaths":null,"CountryCode":"US","CountryName":"United States of America","RegionCode":"OR","RegionName":"Oregon","Latitude":"43.126100","Longitude":"-123.249200","Population":null,"Region":"OR"},{"Date":"2020-03-10","Key":"US_PA","Confirmed":12,"Deaths":null,"CountryCode":"US","CountryName":"United States of America","RegionCode":"PA","RegionName":"Pennsylvania","Latitude":"40.590800","Longitude":"-77.209800","Population":null,"Region":"PA"},{"Date":"2020-03-10","Key":"US_RI","Confirmed":3,"Deaths":null,"CountryCode":"US","CountryName":"United States of America","RegionCode":"RI","RegionName":"Rhode Island","Latitude":"41.888200","Longitude":"-71.477400","Population":null,"Region":"RI"},{"Date":"2020-03-10","Key":"US_SC","Confirmed":7,"Deaths":null,"CountryCode":"US","CountryName":"United States of America","RegionCode":"SC","RegionName":"South Carolina","Latitude":"33.856900","Longitude":"-80.945000","Population":null,"Region":"SC"},{"Date":"2020-03-10","Key":"US_SD","Confirmed":0,"Deaths":null,"CountryCode":"US","CountryName":"United States of America","RegionCode":"SD","RegionName":"South Dakota","Latitude":"43.890100","Longitude":"-102.254800","Population":null,"Region":"SD"},{"Date":"2020-03-10","Key":"US_TN","Confirmed":7,"Deaths":null,"CountryCode":"US","CountryName":"United States of America","RegionCode":"TN","RegionName":"Tennessee","Latitude":"35.747800","Longitude":"-86.692300","Population":null,"Region":"TN"},{"Date":"2020-03-10","Key":"US_TX","Confirmed":13,"Deaths":null,"CountryCode":"US","CountryName":"United States of America","RegionCode":"TX","RegionName":"Texas","Latitude":"31.054500","Longitude":"-97.563500","Population":null,"Region":"TX"},{"Date":"2020-03-10","Key":"US_UT","Confirmed":2,"Deaths":null,"CountryCode":"US","CountryName":"United States of America","RegionCode":"UT","RegionName":"Utah","Latitude":"40.150000","Longitude":"-111.862400","Population":null,"Region":"UT"},{"Date":"2020-03-10","Key":"US_VA","Confirmed":8,"Deaths":null,"CountryCode":"US","CountryName":"United States of America","RegionCode":"VA","RegionName":"Virginia","Latitude":"37.769300","Longitude":"-78.170000","Population":null,"Region":"VA"},{"Date":"2020-03-10","Key":"US_VT","Confirmed":1,"Deaths":null,"CountryCode":"US","CountryName":"United States of America","RegionCode":"VT","RegionName":"Vermont","Latitude":"44.045900","Longitude":"-72.710700","Population":null,"Region":"VT"},{"Date":"2020-03-10","Key":"US_WA","Confirmed":162,"Deaths":null,"CountryCode":"US","CountryName":"United States of America","RegionCode":"WA","RegionName":"Washington","Latitude":"47.400900","Longitude":"-121.490500","Population":null,"Region":"WA"},{"Date":"2020-03-10","Key":"US_WI","Confirmed":2,"Deaths":null,"CountryCode":"US","CountryName":"United States of America","RegionCode":"WI","RegionName":"Wisconsin","Latitude":"43.018600","Longitude":"-89.549800","Population":null,"Region":"WI"},{"Date":"2020-03-10","Key":"US_WV","Confirmed":0,"Deaths":null,"CountryCode":"US","CountryName":"United States of America","RegionCode":"WV","RegionName":"West Virginia","Latitude":"38.491200","Longitude":"-80.954500","Population":null,"Region":"WV"},{"Date":"2020-03-10","Key":"US_WY","Confirmed":0,"Deaths":null,"CountryCode":"US","CountryName":"United States of America","RegionCode":"WY","RegionName":"Wyoming","Latitude":"42.756000","Longitude":"-107.302500","Population":null,"Region":"WY"},{"Date":"2020-03-11","Key":"US_AK","Confirmed":0,"Deaths":null,"CountryCode":"US","CountryName":"United States of America","RegionCode":"AK","RegionName":"Alaska","Latitude":"61.370700","Longitude":"-152.404400","Population":null,"Region":"AK"},{"Date":"2020-03-11","Key":"US_AL","Confirmed":0,"Deaths":null,"CountryCode":"US","CountryName":"United States of America","RegionCode":"AL","RegionName":"Alabama","Latitude":"32.318200","Longitude":"-86.902300","Population":null,"Region":"AL"},{"Date":"2020-03-11","Key":"US_AR","Confirmed":0,"Deaths":null,"CountryCode":"US","CountryName":"United States of America","RegionCode":"AR","RegionName":"Arkansas","Latitude":"34.969700","Longitude":"-92.373100","Population":null,"Region":"AR"},{"Date":"2020-03-11","Key":"US_AZ","Confirmed":9,"Deaths":null,"CountryCode":"US","CountryName":"United States of America","RegionCode":"AZ","RegionName":"Arizona","Latitude":"33.729800","Longitude":"-111.431200","Population":null,"Region":"AZ"},{"Date":"2020-03-11","Key":"US_CA","Confirmed":157,"Deaths":null,"CountryCode":"US","CountryName":"United States of America","RegionCode":"CA","RegionName":"California","Latitude":"36.116200","Longitude":"-119.681600","Population":null,"Region":"CA"},{"Date":"2020-03-11","Key":"US_CO","Confirmed":28,"Deaths":null,"CountryCode":"US","CountryName":"United States of America","RegionCode":"CO","RegionName":"Colorado","Latitude":"39.059800","Longitude":"-105.311100","Population":null,"Region":"CO"},{"Date":"2020-03-11","Key":"US_CT","Confirmed":3,"Deaths":null,"CountryCode":"US","CountryName":"United States of America","RegionCode":"CT","RegionName":"Connecticut","Latitude":"41.597800","Longitude":"-72.755400","Population":null,"Region":"CT"},{"Date":"2020-03-11","Key":"US_DC","Confirmed":4,"Deaths":null,"CountryCode":"US","CountryName":"United States of America","RegionCode":"DC","RegionName":"District of Columbia","Latitude":"38.897400","Longitude":"-77.026800","Population":null,"Region":"DC"},{"Date":"2020-03-11","Key":"US_DE","Confirmed":1,"Deaths":null,"CountryCode":"US","CountryName":"United States of America","RegionCode":"DE","RegionName":"Delaware","Latitude":"39.318500","Longitude":"-75.507100","Population":null,"Region":"DE"},{"Date":"2020-03-11","Key":"US_FL","Confirmed":28,"Deaths":2,"CountryCode":"US","CountryName":"United States of America","RegionCode":"FL","RegionName":"Florida","Latitude":"27.766300","Longitude":"-81.686800","Population":null,"Region":"FL"},{"Date":"2020-03-11","Key":"US_GA","Confirmed":22,"Deaths":null,"CountryCode":"US","CountryName":"United States of America","RegionCode":"GA","RegionName":"Georgia","Latitude":"33.040600","Longitude":"-83.643100","Population":null,"Region":"GA"},{"Date":"2020-03-11","Key":"US_HI","Confirmed":2,"Deaths":null,"CountryCode":"US","CountryName":"United States of America","RegionCode":"HI","RegionName":"Hawaii","Latitude":"21.094300","Longitude":"-157.498300","Population":null,"Region":"HI"},{"Date":"2020-03-11","Key":"US_IA","Confirmed":13,"Deaths":null,"CountryCode":"US","CountryName":"United States of America","RegionCode":"IA","RegionName":"Iowa","Latitude":"42.011500","Longitude":"-93.210500","Population":null,"Region":"IA"},{"Date":"2020-03-11","Key":"US_ID","Confirmed":0,"Deaths":null,"CountryCode":"US","CountryName":"United States of America","RegionCode":"ID","RegionName":"Idaho","Latitude":"44.240500","Longitude":"-114.478800","Population":null,"Region":"ID"},{"Date":"2020-03-11","Key":"US_IL","Confirmed":19,"Deaths":null,"CountryCode":"US","CountryName":"United States of America","RegionCode":"IL","RegionName":"Illinois","Latitude":"40.349500","Longitude":"-88.986100","Population":null,"Region":"IL"},{"Date":"2020-03-11","Key":"US_IN","Confirmed":10,"Deaths":null,"CountryCode":"US","CountryName":"United States of America","RegionCode":"IN","RegionName":"Indiana","Latitude":"39.849400","Longitude":"-86.258300","Population":null,"Region":"IN"},{"Date":"2020-03-11","Key":"US_KS","Confirmed":1,"Deaths":null,"CountryCode":"US","CountryName":"United States of America","RegionCode":"KS","RegionName":"Kansas","Latitude":"38.526600","Longitude":"-96.726500","Population":null,"Region":"KS"},{"Date":"2020-03-11","Key":"US_KY","Confirmed":8,"Deaths":null,"CountryCode":"US","CountryName":"United States of America","RegionCode":"KY","RegionName":"Kentucky","Latitude":"37.668100","Longitude":"-84.670100","Population":null,"Region":"KY"},{"Date":"2020-03-11","Key":"US_LA","Confirmed":6,"Deaths":null,"CountryCode":"US","CountryName":"United States of America","RegionCode":"LA","RegionName":"Louisiana","Latitude":"31.169500","Longitude":"-91.867800","Population":null,"Region":"LA"},{"Date":"2020-03-11","Key":"US_MA","Confirmed":92,"Deaths":null,"CountryCode":"US","CountryName":"United States of America","RegionCode":"MA","RegionName":"Massachusetts","Latitude":"42.230200","Longitude":"-71.530100","Population":null,"Region":"MA"},{"Date":"2020-03-11","Key":"US_MD","Confirmed":9,"Deaths":null,"CountryCode":"US","CountryName":"United States of America","RegionCode":"MD","RegionName":"Maryland","Latitude":"39.063900","Longitude":"-76.802100","Population":null,"Region":"MD"},{"Date":"2020-03-11","Key":"US_ME","Confirmed":0,"Deaths":null,"CountryCode":"US","CountryName":"United States of America","RegionCode":"ME","RegionName":"Maine","Latitude":"44.693900","Longitude":"-69.381900","Population":null,"Region":"ME"},{"Date":"2020-03-11","Key":"US_MI","Confirmed":2,"Deaths":null,"CountryCode":"US","CountryName":"United States of America","RegionCode":"MI","RegionName":"Michigan","Latitude":"43.326600","Longitude":"-84.536100","Population":null,"Region":"MI"},{"Date":"2020-03-11","Key":"US_MN","Confirmed":5,"Deaths":null,"CountryCode":"US","CountryName":"United States of America","RegionCode":"MN","RegionName":"Minnesota","Latitude":"44.825400","Longitude":"-93.784200","Population":null,"Region":"MN"},{"Date":"2020-03-11","Key":"US_MO","Confirmed":1,"Deaths":null,"CountryCode":"US","CountryName":"United States of America","RegionCode":"MO","RegionName":"Missouri","Latitude":"38.456100","Longitude":"-92.288400","Population":null,"Region":"MO"},{"Date":"2020-03-11","Key":"US_MS","Confirmed":0,"Deaths":null,"CountryCode":"US","CountryName":"United States of America","RegionCode":"MS","RegionName":"Mississippi","Latitude":"32.741600","Longitude":"-89.678700","Population":null,"Region":"MS"},{"Date":"2020-03-11","Key":"US_MT","Confirmed":0,"Deaths":null,"CountryCode":"US","CountryName":"United States of America","RegionCode":"MT","RegionName":"Montana","Latitude":"46.921900","Longitude":"-110.454400","Population":null,"Region":"MT"},{"Date":"2020-03-11","Key":"US_NC","Confirmed":7,"Deaths":null,"CountryCode":"US","CountryName":"United States of America","RegionCode":"NC","RegionName":"North Carolina","Latitude":"35.630100","Longitude":"-79.806400","Population":null,"Region":"NC"},{"Date":"2020-03-11","Key":"US_ND","Confirmed":0,"Deaths":null,"CountryCode":"US","CountryName":"United States of America","RegionCode":"ND","RegionName":"North Dakota","Latitude":"47.528900","Longitude":"-99.784000","Population":null,"Region":"ND"},{"Date":"2020-03-11","Key":"US_NE","Confirmed":5,"Deaths":null,"CountryCode":"US","CountryName":"United States of America","RegionCode":"NE","RegionName":"Nebraska","Latitude":"41.314800","Longitude":"-96.195100","Population":null,"Region":"NE"},{"Date":"2020-03-11","Key":"US_NH","Confirmed":4,"Deaths":null,"CountryCode":"US","CountryName":"United States of America","RegionCode":"NH","RegionName":"New Hampshire","Latitude":"42.993100","Longitude":"-71.049800","Population":null,"Region":"NH"},{"Date":"2020-03-11","Key":"US_NJ","Confirmed":24,"Deaths":1,"CountryCode":"US","CountryName":"United States of America","RegionCode":"NJ","RegionName":"New Jersey","Latitude":"40.298900","Longitude":"-74.521000","Population":null,"Region":"NJ"},{"Date":"2020-03-11","Key":"US_NM","Confirmed":3,"Deaths":null,"CountryCode":"US","CountryName":"United States of America","RegionCode":"NM","RegionName":"New Mexico","Latitude":"34.840500","Longitude":"-106.248500","Population":null,"Region":"NM"},{"Date":"2020-03-11","Key":"US_NV","Confirmed":5,"Deaths":null,"CountryCode":"US","CountryName":"United States of America","RegionCode":"NV","RegionName":"Nevada","Latitude":"38.313500","Longitude":"-117.055400","Population":null,"Region":"NV"},{"Date":"2020-03-11","Key":"US_NY","Confirmed":216,"Deaths":null,"CountryCode":"US","CountryName":"United States of America","RegionCode":"NY","RegionName":"New York","Latitude":"42.165700","Longitude":"-74.948100","Population":null,"Region":"NY"},{"Date":"2020-03-11","Key":"US_OH","Confirmed":4,"Deaths":null,"CountryCode":"US","CountryName":"United States of America","RegionCode":"OH","RegionName":"Ohio","Latitude":"40.388800","Longitude":"-82.764900","Population":null,"Region":"OH"},{"Date":"2020-03-11","Key":"US_OK","Confirmed":2,"Deaths":null,"CountryCode":"US","CountryName":"United States of America","RegionCode":"OK","RegionName":"Oklahoma","Latitude":"35.565300","Longitude":"-96.928900","Population":null,"Region":"OK"},{"Date":"2020-03-11","Key":"US_OR","Confirmed":19,"Deaths":null,"CountryCode":"US","CountryName":"United States of America","RegionCode":"OR","RegionName":"Oregon","Latitude":"43.126100","Longitude":"-123.249200","Population":null,"Region":"OR"},{"Date":"2020-03-11","Key":"US_PA","Confirmed":15,"Deaths":null,"CountryCode":"US","CountryName":"United States of America","RegionCode":"PA","RegionName":"Pennsylvania","Latitude":"40.590800","Longitude":"-77.209800","Population":null,"Region":"PA"},{"Date":"2020-03-11","Key":"US_RI","Confirmed":5,"Deaths":null,"CountryCode":"US","CountryName":"United States of America","RegionCode":"RI","RegionName":"Rhode Island","Latitude":"41.888200","Longitude":"-71.477400","Population":null,"Region":"RI"},{"Date":"2020-03-11","Key":"US_SC","Confirmed":9,"Deaths":null,"CountryCode":"US","CountryName":"United States of America","RegionCode":"SC","RegionName":"South Carolina","Latitude":"33.856900","Longitude":"-80.945000","Population":null,"Region":"SC"},{"Date":"2020-03-11","Key":"US_SD","Confirmed":5,"Deaths":null,"CountryCode":"US","CountryName":"United States of America","RegionCode":"SD","RegionName":"South Dakota","Latitude":"43.890100","Longitude":"-102.254800","Population":null,"Region":"SD"},{"Date":"2020-03-11","Key":"US_TN","Confirmed":7,"Deaths":null,"CountryCode":"US","CountryName":"United States of America","RegionCode":"TN","RegionName":"Tennessee","Latitude":"35.747800","Longitude":"-86.692300","Population":null,"Region":"TN"},{"Date":"2020-03-11","Key":"US_TX","Confirmed":21,"Deaths":null,"CountryCode":"US","CountryName":"United States of America","RegionCode":"TX","RegionName":"Texas","Latitude":"31.054500","Longitude":"-97.563500","Population":null,"Region":"TX"},{"Date":"2020-03-11","Key":"US_UT","Confirmed":2,"Deaths":null,"CountryCode":"US","CountryName":"United States of America","RegionCode":"UT","RegionName":"Utah","Latitude":"40.150000","Longitude":"-111.862400","Population":null,"Region":"UT"},{"Date":"2020-03-11","Key":"US_VA","Confirmed":9,"Deaths":null,"CountryCode":"US","CountryName":"United States of America","RegionCode":"VA","RegionName":"Virginia","Latitude":"37.769300","Longitude":"-78.170000","Population":null,"Region":"VA"},{"Date":"2020-03-11","Key":"US_VT","Confirmed":1,"Deaths":null,"CountryCode":"US","CountryName":"United States of America","RegionCode":"VT","RegionName":"Vermont","Latitude":"44.045900","Longitude":"-72.710700","Population":null,"Region":"VT"},{"Date":"2020-03-11","Key":"US_WA","Confirmed":267,"Deaths":24,"CountryCode":"US","CountryName":"United States of America","RegionCode":"WA","RegionName":"Washington","Latitude":"47.400900","Longitude":"-121.490500","Population":null,"Region":"WA"},{"Date":"2020-03-11","Key":"US_WI","Confirmed":3,"Deaths":null,"CountryCode":"US","CountryName":"United States of America","RegionCode":"WI","RegionName":"Wisconsin","Latitude":"43.018600","Longitude":"-89.549800","Population":null,"Region":"WI"},{"Date":"2020-03-11","Key":"US_WV","Confirmed":0,"Deaths":null,"CountryCode":"US","CountryName":"United States of America","RegionCode":"WV","RegionName":"West Virginia","Latitude":"38.491200","Longitude":"-80.954500","Population":null,"Region":"WV"},{"Date":"2020-03-11","Key":"US_WY","Confirmed":0,"Deaths":null,"CountryCode":"US","CountryName":"United States of America","RegionCode":"WY","RegionName":"Wyoming","Latitude":"42.756000","Longitude":"-107.302500","Population":null,"Region":"WY"},{"Date":"2020-03-12","Key":"US_AK","Confirmed":0,"Deaths":null,"CountryCode":"US","CountryName":"United States of America","RegionCode":"AK","RegionName":"Alaska","Latitude":"61.370700","Longitude":"-152.404400","Population":null,"Region":"AK"},{"Date":"2020-03-12","Key":"US_AL","Confirmed":0,"Deaths":null,"CountryCode":"US","CountryName":"United States of America","RegionCode":"AL","RegionName":"Alabama","Latitude":"32.318200","Longitude":"-86.902300","Population":null,"Region":"AL"},{"Date":"2020-03-12","Key":"US_AR","Confirmed":6,"Deaths":null,"CountryCode":"US","CountryName":"United States of America","RegionCode":"AR","RegionName":"Arkansas","Latitude":"34.969700","Longitude":"-92.373100","Population":null,"Region":"AR"},{"Date":"2020-03-12","Key":"US_AZ","Confirmed":9,"Deaths":null,"CountryCode":"US","CountryName":"United States of America","RegionCode":"AZ","RegionName":"Arizona","Latitude":"33.729800","Longitude":"-111.431200","Population":null,"Region":"AZ"},{"Date":"2020-03-12","Key":"US_CA","Confirmed":202,"Deaths":4,"CountryCode":"US","CountryName":"United States of America","RegionCode":"CA","RegionName":"California","Latitude":"36.116200","Longitude":"-119.681600","Population":null,"Region":"CA"},{"Date":"2020-03-12","Key":"US_CO","Confirmed":45,"Deaths":null,"CountryCode":"US","CountryName":"United States of America","RegionCode":"CO","RegionName":"Colorado","Latitude":"39.059800","Longitude":"-105.311100","Population":null,"Region":"CO"},{"Date":"2020-03-12","Key":"US_CT","Confirmed":6,"Deaths":null,"CountryCode":"US","CountryName":"United States of America","RegionCode":"CT","RegionName":"Connecticut","Latitude":"41.597800","Longitude":"-72.755400","Population":null,"Region":"CT"},{"Date":"2020-03-12","Key":"US_DC","Confirmed":10,"Deaths":null,"CountryCode":"US","CountryName":"United States of America","RegionCode":"DC","RegionName":"District of Columbia","Latitude":"38.897400","Longitude":"-77.026800","Population":null,"Region":"DC"},{"Date":"2020-03-12","Key":"US_DE","Confirmed":4,"Deaths":null,"CountryCode":"US","CountryName":"United States of America","RegionCode":"DE","RegionName":"Delaware","Latitude":"39.318500","Longitude":"-75.507100","Population":null,"Region":"DE"},{"Date":"2020-03-12","Key":"US_FL","Confirmed":32,"Deaths":2,"CountryCode":"US","CountryName":"United States of America","RegionCode":"FL","RegionName":"Florida","Latitude":"27.766300","Longitude":"-81.686800","Population":null,"Region":"FL"},{"Date":"2020-03-12","Key":"US_GA","Confirmed":31,"Deaths":null,"CountryCode":"US","CountryName":"United States of America","RegionCode":"GA","RegionName":"Georgia","Latitude":"33.040600","Longitude":"-83.643100","Population":null,"Region":"GA"},{"Date":"2020-03-12","Key":"US_HI","Confirmed":2,"Deaths":null,"CountryCode":"US","CountryName":"United States of America","RegionCode":"HI","RegionName":"Hawaii","Latitude":"21.094300","Longitude":"-157.498300","Population":null,"Region":"HI"},{"Date":"2020-03-12","Key":"US_IA","Confirmed":14,"Deaths":null,"CountryCode":"US","CountryName":"United States of America","RegionCode":"IA","RegionName":"Iowa","Latitude":"42.011500","Longitude":"-93.210500","Population":null,"Region":"IA"},{"Date":"2020-03-12","Key":"US_ID","Confirmed":0,"Deaths":null,"CountryCode":"US","CountryName":"United States of America","RegionCode":"ID","RegionName":"Idaho","Latitude":"44.240500","Longitude":"-114.478800","Population":null,"Region":"ID"},{"Date":"2020-03-12","Key":"US_IL","Confirmed":25,"Deaths":null,"CountryCode":"US","CountryName":"United States of America","RegionCode":"IL","RegionName":"Illinois","Latitude":"40.349500","Longitude":"-88.986100","Population":null,"Region":"IL"},{"Date":"2020-03-12","Key":"US_IN","Confirmed":12,"Deaths":null,"CountryCode":"US","CountryName":"United States of America","RegionCode":"IN","RegionName":"Indiana","Latitude":"39.849400","Longitude":"-86.258300","Population":null,"Region":"IN"},{"Date":"2020-03-12","Key":"US_KS","Confirmed":4,"Deaths":null,"CountryCode":"US","CountryName":"United States of America","RegionCode":"KS","RegionName":"Kansas","Latitude":"38.526600","Longitude":"-96.726500","Population":null,"Region":"KS"},{"Date":"2020-03-12","Key":"US_KY","Confirmed":8,"Deaths":null,"CountryCode":"US","CountryName":"United States of America","RegionCode":"KY","RegionName":"Kentucky","Latitude":"37.668100","Longitude":"-84.670100","Population":null,"Region":"KY"},{"Date":"2020-03-12","Key":"US_LA","Confirmed":14,"Deaths":null,"CountryCode":"US","CountryName":"United States of America","RegionCode":"LA","RegionName":"Louisiana","Latitude":"31.169500","Longitude":"-91.867800","Population":null,"Region":"LA"},{"Date":"2020-03-12","Key":"US_MA","Confirmed":95,"Deaths":null,"CountryCode":"US","CountryName":"United States of America","RegionCode":"MA","RegionName":"Massachusetts","Latitude":"42.230200","Longitude":"-71.530100","Population":null,"Region":"MA"},{"Date":"2020-03-12","Key":"US_MD","Confirmed":12,"Deaths":null,"CountryCode":"US","CountryName":"United States of America","RegionCode":"MD","RegionName":"Maryland","Latitude":"39.063900","Longitude":"-76.802100","Population":null,"Region":"MD"},{"Date":"2020-03-12","Key":"US_ME","Confirmed":1,"Deaths":null,"CountryCode":"US","CountryName":"United States of America","RegionCode":"ME","RegionName":"Maine","Latitude":"44.693900","Longitude":"-69.381900","Population":null,"Region":"ME"},{"Date":"2020-03-12","Key":"US_MI","Confirmed":2,"Deaths":null,"CountryCode":"US","CountryName":"United States of America","RegionCode":"MI","RegionName":"Michigan","Latitude":"43.326600","Longitude":"-84.536100","Population":null,"Region":"MI"},{"Date":"2020-03-12","Key":"US_MN","Confirmed":9,"Deaths":null,"CountryCode":"US","CountryName":"United States of America","RegionCode":"MN","RegionName":"Minnesota","Latitude":"44.825400","Longitude":"-93.784200","Population":null,"Region":"MN"},{"Date":"2020-03-12","Key":"US_MO","Confirmed":1,"Deaths":null,"CountryCode":"US","CountryName":"United States of America","RegionCode":"MO","RegionName":"Missouri","Latitude":"38.456100","Longitude":"-92.288400","Population":null,"Region":"MO"},{"Date":"2020-03-12","Key":"US_MS","Confirmed":1,"Deaths":null,"CountryCode":"US","CountryName":"United States of America","RegionCode":"MS","RegionName":"Mississippi","Latitude":"32.741600","Longitude":"-89.678700","Population":null,"Region":"MS"},{"Date":"2020-03-12","Key":"US_MT","Confirmed":1,"Deaths":null,"CountryCode":"US","CountryName":"United States of America","RegionCode":"MT","RegionName":"Montana","Latitude":"46.921900","Longitude":"-110.454400","Population":null,"Region":"MT"},{"Date":"2020-03-12","Key":"US_NC","Confirmed":12,"Deaths":null,"CountryCode":"US","CountryName":"United States of America","RegionCode":"NC","RegionName":"North Carolina","Latitude":"35.630100","Longitude":"-79.806400","Population":null,"Region":"NC"},{"Date":"2020-03-12","Key":"US_ND","Confirmed":1,"Deaths":null,"CountryCode":"US","CountryName":"United States of America","RegionCode":"ND","RegionName":"North Dakota","Latitude":"47.528900","Longitude":"-99.784000","Population":null,"Region":"ND"},{"Date":"2020-03-12","Key":"US_NE","Confirmed":10,"Deaths":null,"CountryCode":"US","CountryName":"United States of America","RegionCode":"NE","RegionName":"Nebraska","Latitude":"41.314800","Longitude":"-96.195100","Population":null,"Region":"NE"},{"Date":"2020-03-12","Key":"US_NH","Confirmed":6,"Deaths":null,"CountryCode":"US","CountryName":"United States of America","RegionCode":"NH","RegionName":"New Hampshire","Latitude":"42.993100","Longitude":"-71.049800","Population":null,"Region":"NH"},{"Date":"2020-03-12","Key":"US_NJ","Confirmed":30,"Deaths":1,"CountryCode":"US","CountryName":"United States of America","RegionCode":"NJ","RegionName":"New Jersey","Latitude":"40.298900","Longitude":"-74.521000","Population":null,"Region":"NJ"},{"Date":"2020-03-12","Key":"US_NM","Confirmed":5,"Deaths":null,"CountryCode":"US","CountryName":"United States of America","RegionCode":"NM","RegionName":"New Mexico","Latitude":"34.840500","Longitude":"-106.248500","Population":null,"Region":"NM"},{"Date":"2020-03-12","Key":"US_NV","Confirmed":7,"Deaths":null,"CountryCode":"US","CountryName":"United States of America","RegionCode":"NV","RegionName":"Nevada","Latitude":"38.313500","Longitude":"-117.055400","Population":null,"Region":"NV"},{"Date":"2020-03-12","Key":"US_NY","Confirmed":216,"Deaths":null,"CountryCode":"US","CountryName":"United States of America","RegionCode":"NY","RegionName":"New York","Latitude":"42.165700","Longitude":"-74.948100","Population":null,"Region":"NY"},{"Date":"2020-03-12","Key":"US_OH","Confirmed":5,"Deaths":null,"CountryCode":"US","CountryName":"United States of America","RegionCode":"OH","RegionName":"Ohio","Latitude":"40.388800","Longitude":"-82.764900","Population":null,"Region":"OH"},{"Date":"2020-03-12","Key":"US_OK","Confirmed":3,"Deaths":null,"CountryCode":"US","CountryName":"United States of America","RegionCode":"OK","RegionName":"Oklahoma","Latitude":"35.565300","Longitude":"-96.928900","Population":null,"Region":"OK"},{"Date":"2020-03-12","Key":"US_OR","Confirmed":19,"Deaths":null,"CountryCode":"US","CountryName":"United States of America","RegionCode":"OR","RegionName":"Oregon","Latitude":"43.126100","Longitude":"-123.249200","Population":null,"Region":"OR"},{"Date":"2020-03-12","Key":"US_PA","Confirmed":22,"Deaths":null,"CountryCode":"US","CountryName":"United States of America","RegionCode":"PA","RegionName":"Pennsylvania","Latitude":"40.590800","Longitude":"-77.209800","Population":null,"Region":"PA"},{"Date":"2020-03-12","Key":"US_RI","Confirmed":5,"Deaths":null,"CountryCode":"US","CountryName":"United States of America","RegionCode":"RI","RegionName":"Rhode Island","Latitude":"41.888200","Longitude":"-71.477400","Population":null,"Region":"RI"},{"Date":"2020-03-12","Key":"US_SC","Confirmed":10,"Deaths":null,"CountryCode":"US","CountryName":"United States of America","RegionCode":"SC","RegionName":"South Carolina","Latitude":"33.856900","Longitude":"-80.945000","Population":null,"Region":"SC"},{"Date":"2020-03-12","Key":"US_SD","Confirmed":8,"Deaths":null,"CountryCode":"US","CountryName":"United States of America","RegionCode":"SD","RegionName":"South Dakota","Latitude":"43.890100","Longitude":"-102.254800","Population":null,"Region":"SD"},{"Date":"2020-03-12","Key":"US_TN","Confirmed":18,"Deaths":null,"CountryCode":"US","CountryName":"United States of America","RegionCode":"TN","RegionName":"Tennessee","Latitude":"35.747800","Longitude":"-86.692300","Population":null,"Region":"TN"},{"Date":"2020-03-12","Key":"US_TX","Confirmed":23,"Deaths":null,"CountryCode":"US","CountryName":"United States of America","RegionCode":"TX","RegionName":"Texas","Latitude":"31.054500","Longitude":"-97.563500","Population":null,"Region":"TX"},{"Date":"2020-03-12","Key":"US_UT","Confirmed":4,"Deaths":null,"CountryCode":"US","CountryName":"United States of America","RegionCode":"UT","RegionName":"Utah","Latitude":"40.150000","Longitude":"-111.862400","Population":null,"Region":"UT"},{"Date":"2020-03-12","Key":"US_VA","Confirmed":17,"Deaths":null,"CountryCode":"US","CountryName":"United States of America","RegionCode":"VA","RegionName":"Virginia","Latitude":"37.769300","Longitude":"-78.170000","Population":null,"Region":"VA"},{"Date":"2020-03-12","Key":"US_VT","Confirmed":2,"Deaths":null,"CountryCode":"US","CountryName":"United States of America","RegionCode":"VT","RegionName":"Vermont","Latitude":"44.045900","Longitude":"-72.710700","Population":null,"Region":"VT"},{"Date":"2020-03-12","Key":"US_WA","Confirmed":337,"Deaths":29,"CountryCode":"US","CountryName":"United States of America","RegionCode":"WA","RegionName":"Washington","Latitude":"47.400900","Longitude":"-121.490500","Population":null,"Region":"WA"},{"Date":"2020-03-12","Key":"US_WI","Confirmed":8,"Deaths":null,"CountryCode":"US","CountryName":"United States of America","RegionCode":"WI","RegionName":"Wisconsin","Latitude":"43.018600","Longitude":"-89.549800","Population":null,"Region":"WI"},{"Date":"2020-03-12","Key":"US_WV","Confirmed":0,"Deaths":null,"CountryCode":"US","CountryName":"United States of America","RegionCode":"WV","RegionName":"West Virginia","Latitude":"38.491200","Longitude":"-80.954500","Population":null,"Region":"WV"},{"Date":"2020-03-12","Key":"US_WY","Confirmed":1,"Deaths":null,"CountryCode":"US","CountryName":"United States of America","RegionCode":"WY","RegionName":"Wyoming","Latitude":"42.756000","Longitude":"-107.302500","Population":null,"Region":"WY"},{"Date":"2020-03-13","Key":"US_AK","Confirmed":1,"Deaths":null,"CountryCode":"US","CountryName":"United States of America","RegionCode":"AK","RegionName":"Alaska","Latitude":"61.370700","Longitude":"-152.404400","Population":null,"Region":"AK"},{"Date":"2020-03-13","Key":"US_AL","Confirmed":1,"Deaths":null,"CountryCode":"US","CountryName":"United States of America","RegionCode":"AL","RegionName":"Alabama","Latitude":"32.318200","Longitude":"-86.902300","Population":null,"Region":"AL"},{"Date":"2020-03-13","Key":"US_AR","Confirmed":9,"Deaths":null,"CountryCode":"US","CountryName":"United States of America","RegionCode":"AR","RegionName":"Arkansas","Latitude":"34.969700","Longitude":"-92.373100","Population":null,"Region":"AR"},{"Date":"2020-03-13","Key":"US_AZ","Confirmed":9,"Deaths":0,"CountryCode":"US","CountryName":"United States of America","RegionCode":"AZ","RegionName":"Arizona","Latitude":"33.729800","Longitude":"-111.431200","Population":null,"Region":"AZ"},{"Date":"2020-03-13","Key":"US_CA","Confirmed":202,"Deaths":4,"CountryCode":"US","CountryName":"United States of America","RegionCode":"CA","RegionName":"California","Latitude":"36.116200","Longitude":"-119.681600","Population":null,"Region":"CA"},{"Date":"2020-03-13","Key":"US_CO","Confirmed":72,"Deaths":null,"CountryCode":"US","CountryName":"United States of America","RegionCode":"CO","RegionName":"Colorado","Latitude":"39.059800","Longitude":"-105.311100","Population":null,"Region":"CO"},{"Date":"2020-03-13","Key":"US_CT","Confirmed":6,"Deaths":null,"CountryCode":"US","CountryName":"United States of America","RegionCode":"CT","RegionName":"Connecticut","Latitude":"41.597800","Longitude":"-72.755400","Population":null,"Region":"CT"},{"Date":"2020-03-13","Key":"US_DC","Confirmed":10,"Deaths":null,"CountryCode":"US","CountryName":"United States of America","RegionCode":"DC","RegionName":"District of Columbia","Latitude":"38.897400","Longitude":"-77.026800","Population":null,"Region":"DC"},{"Date":"2020-03-13","Key":"US_DE","Confirmed":4,"Deaths":null,"CountryCode":"US","CountryName":"United States of America","RegionCode":"DE","RegionName":"Delaware","Latitude":"39.318500","Longitude":"-75.507100","Population":null,"Region":"DE"},{"Date":"2020-03-13","Key":"US_FL","Confirmed":50,"Deaths":2,"CountryCode":"US","CountryName":"United States of America","RegionCode":"FL","RegionName":"Florida","Latitude":"27.766300","Longitude":"-81.686800","Population":null,"Region":"FL"},{"Date":"2020-03-13","Key":"US_GA","Confirmed":42,"Deaths":1,"CountryCode":"US","CountryName":"United States of America","RegionCode":"GA","RegionName":"Georgia","Latitude":"33.040600","Longitude":"-83.643100","Population":null,"Region":"GA"},{"Date":"2020-03-13","Key":"US_HI","Confirmed":2,"Deaths":null,"CountryCode":"US","CountryName":"United States of America","RegionCode":"HI","RegionName":"Hawaii","Latitude":"21.094300","Longitude":"-157.498300","Population":null,"Region":"HI"},{"Date":"2020-03-13","Key":"US_IA","Confirmed":16,"Deaths":null,"CountryCode":"US","CountryName":"United States of America","RegionCode":"IA","RegionName":"Iowa","Latitude":"42.011500","Longitude":"-93.210500","Population":null,"Region":"IA"},{"Date":"2020-03-13","Key":"US_ID","Confirmed":0,"Deaths":null,"CountryCode":"US","CountryName":"United States of America","RegionCode":"ID","RegionName":"Idaho","Latitude":"44.240500","Longitude":"-114.478800","Population":null,"Region":"ID"},{"Date":"2020-03-13","Key":"US_IL","Confirmed":32,"Deaths":null,"CountryCode":"US","CountryName":"United States of America","RegionCode":"IL","RegionName":"Illinois","Latitude":"40.349500","Longitude":"-88.986100","Population":null,"Region":"IL"},{"Date":"2020-03-13","Key":"US_IN","Confirmed":12,"Deaths":null,"CountryCode":"US","CountryName":"United States of America","RegionCode":"IN","RegionName":"Indiana","Latitude":"39.849400","Longitude":"-86.258300","Population":null,"Region":"IN"},{"Date":"2020-03-13","Key":"US_KS","Confirmed":6,"Deaths":null,"CountryCode":"US","CountryName":"United States of America","RegionCode":"KS","RegionName":"Kansas","Latitude":"38.526600","Longitude":"-96.726500","Population":null,"Region":"KS"},{"Date":"2020-03-13","Key":"US_KY","Confirmed":11,"Deaths":null,"CountryCode":"US","CountryName":"United States of America","RegionCode":"KY","RegionName":"Kentucky","Latitude":"37.668100","Longitude":"-84.670100","Population":null,"Region":"KY"},{"Date":"2020-03-13","Key":"US_LA","Confirmed":36,"Deaths":null,"CountryCode":"US","CountryName":"United States of America","RegionCode":"LA","RegionName":"Louisiana","Latitude":"31.169500","Longitude":"-91.867800","Population":null,"Region":"LA"},{"Date":"2020-03-13","Key":"US_MA","Confirmed":123,"Deaths":null,"CountryCode":"US","CountryName":"United States of America","RegionCode":"MA","RegionName":"Massachusetts","Latitude":"42.230200","Longitude":"-71.530100","Population":null,"Region":"MA"},{"Date":"2020-03-13","Key":"US_MD","Confirmed":17,"Deaths":null,"CountryCode":"US","CountryName":"United States of America","RegionCode":"MD","RegionName":"Maryland","Latitude":"39.063900","Longitude":"-76.802100","Population":null,"Region":"MD"},{"Date":"2020-03-13","Key":"US_ME","Confirmed":3,"Deaths":null,"CountryCode":"US","CountryName":"United States of America","RegionCode":"ME","RegionName":"Maine","Latitude":"44.693900","Longitude":"-69.381900","Population":null,"Region":"ME"},{"Date":"2020-03-13","Key":"US_MI","Confirmed":16,"Deaths":null,"CountryCode":"US","CountryName":"United States of America","RegionCode":"MI","RegionName":"Michigan","Latitude":"43.326600","Longitude":"-84.536100","Population":null,"Region":"MI"},{"Date":"2020-03-13","Key":"US_MN","Confirmed":14,"Deaths":null,"CountryCode":"US","CountryName":"United States of America","RegionCode":"MN","RegionName":"Minnesota","Latitude":"44.825400","Longitude":"-93.784200","Population":null,"Region":"MN"},