[{"Date":"2020-03-30","CountryCode":"US","CountryName":"United States of America","RegionCode":"AK","RegionName":"Alaska","Confirmed":114,"Deaths":3,"Latitude":"61.370700","Longitude":"-152.404400","Population":null,"Region":"AK"},{"Date":"2020-03-30","CountryCode":"US","CountryName":"United States of America","RegionCode":"AL","RegionName":"Alabama","Confirmed":859,"Deaths":6,"Latitude":"32.318200","Longitude":"-86.902300","Population":null,"Region":"AL"},{"Date":"2020-03-30","CountryCode":"US","CountryName":"United States of America","RegionCode":"AR","RegionName":"Arkansas","Confirmed":473,"Deaths":7,"Latitude":"34.969700","Longitude":"-92.373100","Population":null,"Region":"AR"},{"Date":"2020-03-30","CountryCode":"US","CountryName":"United States of America","RegionCode":"AZ","RegionName":"Arizona","Confirmed":1157,"Deaths":20,"Latitude":"33.729800","Longitude":"-111.431200","Population":null,"Region":"AZ"},{"Date":"2020-03-30","CountryCode":"US","CountryName":"United States of America","RegionCode":"CA","RegionName":"California","Confirmed":6447,"Deaths":133,"Latitude":"36.116200","Longitude":"-119.681600","Population":null,"Region":"CA"},{"Date":"2020-03-30","CountryCode":"US","CountryName":"United States of America","RegionCode":"CO","RegionName":"Colorado","Confirmed":2627,"Deaths":51,"Latitude":"39.059800","Longitude":"-105.311100","Population":null,"Region":"CO"},{"Date":"2020-03-30","CountryCode":"US","CountryName":"United States of America","RegionCode":"CT","RegionName":"Connecticut","Confirmed":2571,"Deaths":36,"Latitude":"41.597800","Longitude":"-72.755400","Population":null,"Region":"CT"},{"Date":"2020-03-30","CountryCode":"US","CountryName":"United States of America","RegionCode":"DC","RegionName":"District of Columbia","Confirmed":401,"Deaths":9,"Latitude":"38.897400","Longitude":"-77.026800","Population":null,"Region":"DC"},{"Date":"2020-03-30","CountryCode":"US","CountryName":"United States of America","RegionCode":"DE","RegionName":"Delaware","Confirmed":264,"Deaths":6,"Latitude":"39.318500","Longitude":"-75.507100","Population":null,"Region":"DE"},{"Date":"2020-03-30","CountryCode":"US","CountryName":"United States of America","RegionCode":"FL","RegionName":"Florida","Confirmed":5473,"Deaths":63,"Latitude":"27.766300","Longitude":"-81.686800","Population":null,"Region":"FL"},{"Date":"2020-03-30","CountryCode":"US","CountryName":"United States of America","RegionCode":"GA","RegionName":"Georgia","Confirmed":2809,"Deaths":87,"Latitude":"33.040600","Longitude":"-83.643100","Population":null,"Region":"GA"},{"Date":"2020-03-30","CountryCode":"US","CountryName":"United States of America","RegionCode":"HI","RegionName":"Hawaii","Confirmed":175,"Deaths":0,"Latitude":"21.094300","Longitude":"-157.498300","Population":null,"Region":"HI"},{"Date":"2020-03-30","CountryCode":"US","CountryName":"United States of America","RegionCode":"IA","RegionName":"Iowa","Confirmed":424,"Deaths":6,"Latitude":"42.011500","Longitude":"-93.210500","Population":null,"Region":"IA"},{"Date":"2020-03-30","CountryCode":"US","CountryName":"United States of America","RegionCode":"ID","RegionName":"Idaho","Confirmed":310,"Deaths":6,"Latitude":"44.240500","Longitude":"-114.478800","Population":null,"Region":"ID"},{"Date":"2020-03-30","CountryCode":"US","CountryName":"United States of America","RegionCode":"IL","RegionName":"Illinois","Confirmed":5057,"Deaths":73,"Latitude":"40.349500","Longitude":"-88.986100","Population":null,"Region":"IL"},{"Date":"2020-03-30","CountryCode":"US","CountryName":"United States of America","RegionCode":"IN","RegionName":"Indiana","Confirmed":1786,"Deaths":35,"Latitude":"39.849400","Longitude":"-86.258300","Population":null,"Region":"IN"},{"Date":"2020-03-30","CountryCode":"US","CountryName":"United States of America","RegionCode":"KS","RegionName":"Kansas","Confirmed":368,"Deaths":8,"Latitude":"38.526600","Longitude":"-96.726500","Population":null,"Region":"KS"},{"Date":"2020-03-30","CountryCode":"US","CountryName":"United States of America","RegionCode":"KY","RegionName":"Kentucky","Confirmed":439,"Deaths":9,"Latitude":"37.668100","Longitude":"-84.670100","Population":null,"Region":"KY"},{"Date":"2020-03-30","CountryCode":"US","CountryName":"United States of America","RegionCode":"LA","RegionName":"Louisiana","Confirmed":4025,"Deaths":185,"Latitude":"31.169500","Longitude":"-91.867800","Population":null,"Region":"LA"},{"Date":"2020-03-30","CountryCode":"US","CountryName":"United States of America","RegionCode":"MA","RegionName":"Massachusetts","Confirmed":5752,"Deaths":56,"Latitude":"42.230200","Longitude":"-71.530100","Population":null,"Region":"MA"},{"Date":"2020-03-30","CountryCode":"US","CountryName":"United States of America","RegionCode":"MD","RegionName":"Maryland","Confirmed":1413,"Deaths":15,"Latitude":"39.063900","Longitude":"-76.802100","Population":null,"Region":"MD"},{"Date":"2020-03-30","CountryCode":"US","CountryName":"United States of America","RegionCode":"ME","RegionName":"Maine","Confirmed":275,"Deaths":3,"Latitude":"44.693900","Longitude":"-69.381900","Population":null,"Region":"ME"},{"Date":"2020-03-30","CountryCode":"US","CountryName":"United States of America","RegionCode":"MI","RegionName":"Michigan","Confirmed":6498,"Deaths":184,"Latitude":"43.326600","Longitude":"-84.536100","Population":null,"Region":"MI"},{"Date":"2020-03-30","CountryCode":"US","CountryName":"United States of America","RegionCode":"MN","RegionName":"Minnesota","Confirmed":576,"Deaths":10,"Latitude":"44.825400","Longitude":"-93.784200","Population":null,"Region":"MN"},{"Date":"2020-03-30","CountryCode":"US","CountryName":"United States of America","RegionCode":"MO","RegionName":"Missouri","Confirmed":1031,"Deaths":13,"Latitude":"38.456100","Longitude":"-92.288400","Population":null,"Region":"MO"},{"Date":"2020-03-30","CountryCode":"US","CountryName":"United States of America","RegionCode":"MS","RegionName":"Mississippi","Confirmed":847,"Deaths":16,"Latitude":"32.741600","Longitude":"-89.678700","Population":null,"Region":"MS"},{"Date":"2020-03-30","CountryCode":"US","CountryName":"United States of America","RegionCode":"MT","RegionName":"Montana","Confirmed":171,"Deaths":4,"Latitude":"46.921900","Longitude":"-110.454400","Population":null,"Region":"MT"},{"Date":"2020-03-30","CountryCode":"US","CountryName":"United States of America","RegionCode":"NC","RegionName":"North Carolina","Confirmed":1307,"Deaths":6,"Latitude":"35.630100","Longitude":"-79.806400","Population":null,"Region":"NC"},{"Date":"2020-03-30","CountryCode":"US","CountryName":"United States of America","RegionCode":"ND","RegionName":"North Dakota","Confirmed":109,"Deaths":2,"Latitude":"47.528900","Longitude":"-99.784000","Population":null,"Region":"ND"},{"Date":"2020-03-30","CountryCode":"US","CountryName":"United States of America","RegionCode":"NE","RegionName":"Nebraska","Confirmed":145,"Deaths":2,"Latitude":"41.314800","Longitude":"-96.195100","Population":null,"Region":"NE"},{"Date":"2020-03-30","CountryCode":"US","CountryName":"United States of America","RegionCode":"NH","RegionName":"New Hampshire","Confirmed":314,"Deaths":3,"Latitude":"42.993100","Longitude":"-71.049800","Population":null,"Region":"NH"},{"Date":"2020-03-30","CountryCode":"US","CountryName":"United States of America","RegionCode":"NJ","RegionName":"New Jersey","Confirmed":16636,"Deaths":198,"Latitude":"40.298900","Longitude":"-74.521000","Population":null,"Region":"NJ"},{"Date":"2020-03-30","CountryCode":"US","CountryName":"United States of America","RegionCode":"NM","RegionName":"New Mexico","Confirmed":237,"Deaths":2,"Latitude":"34.840500","Longitude":"-106.248500","Population":null,"Region":"NM"},{"Date":"2020-03-30","CountryCode":"US","CountryName":"United States of America","RegionCode":"NV","RegionName":"Nevada","Confirmed":1008,"Deaths":15,"Latitude":"38.313500","Longitude":"-117.055400","Population":null,"Region":"NV"},{"Date":"2020-03-30","CountryCode":"US","CountryName":"United States of America","RegionCode":"NY","RegionName":"New York","Confirmed":66497,"Deaths":1218,"Latitude":"42.165700","Longitude":"-74.948100","Population":null,"Region":"NY"},{"Date":"2020-03-30","CountryCode":"US","CountryName":"United States of America","RegionCode":"OH","RegionName":"Ohio","Confirmed":1933,"Deaths":39,"Latitude":"40.388800","Longitude":"-82.764900","Population":null,"Region":"OH"},{"Date":"2020-03-30","CountryCode":"US","CountryName":"United States of America","RegionCode":"OK","RegionName":"Oklahoma","Confirmed":481,"Deaths":17,"Latitude":"35.565300","Longitude":"-96.928900","Population":null,"Region":"OK"},{"Date":"2020-03-30","CountryCode":"US","CountryName":"United States of America","RegionCode":"OR","RegionName":"Oregon","Confirmed":606,"Deaths":16,"Latitude":"43.126100","Longitude":"-123.249200","Population":null,"Region":"OR"},{"Date":"2020-03-30","CountryCode":"US","CountryName":"United States of America","RegionCode":"PA","RegionName":"Pennsylvania","Confirmed":4087,"Deaths":49,"Latitude":"40.590800","Longitude":"-77.209800","Population":null,"Region":"PA"},{"Date":"2020-03-30","CountryCode":"US","CountryName":"United States of America","RegionCode":"RI","RegionName":"Rhode Island","Confirmed":408,"Deaths":4,"Latitude":"41.888200","Longitude":"-71.477400","Population":null,"Region":"RI"},{"Date":"2020-03-30","CountryCode":"US","CountryName":"United States of America","RegionCode":"SC","RegionName":"South Carolina","Confirmed":925,"Deaths":18,"Latitude":"33.856900","Longitude":"-80.945000","Population":null,"Region":"SC"},{"Date":"2020-03-30","CountryCode":"US","CountryName":"United States of America","RegionCode":"SD","RegionName":"South Dakota","Confirmed":101,"Deaths":1,"Latitude":"43.890100","Longitude":"-102.254800","Population":null,"Region":"SD"},{"Date":"2020-03-30","CountryCode":"US","CountryName":"United States of America","RegionCode":"TN","RegionName":"Tennessee","Confirmed":1834,"Deaths":13,"Latitude":"35.747800","Longitude":"-86.692300","Population":null,"Region":"TN"},{"Date":"2020-03-30","CountryCode":"US","CountryName":"United States of America","RegionCode":"TX","RegionName":"Texas","Confirmed":2877,"Deaths":34,"Latitude":"31.054500","Longitude":"-97.563500","Population":null,"Region":"TX"},{"Date":"2020-03-30","CountryCode":"US","CountryName":"United States of America","RegionCode":"UT","RegionName":"Utah","Confirmed":806,"Deaths":4,"Latitude":"40.150000","Longitude":"-111.862400","Population":null,"Region":"UT"},{"Date":"2020-03-30","CountryCode":"US","CountryName":"United States of America","RegionCode":"VA","RegionName":"Virginia","Confirmed":1020,"Deaths":25,"Latitude":"37.769300","Longitude":"-78.170000","Population":null,"Region":"VA"},{"Date":"2020-03-30","CountryCode":"US","CountryName":"United States of America","RegionCode":"VT","RegionName":"Vermont","Confirmed":256,"Deaths":12,"Latitude":"44.045900","Longitude":"-72.710700","Population":null,"Region":"VT"},{"Date":"2020-03-30","CountryCode":"US","CountryName":"United States of America","RegionCode":"WA","RegionName":"Washington","Confirmed":4896,"Deaths":195,"Latitude":"47.400900","Longitude":"-121.490500","Population":null,"Region":"WA"},{"Date":"2020-03-30","CountryCode":"US","CountryName":"United States of America","RegionCode":"WI","RegionName":"Wisconsin","Confirmed":1221,"Deaths":14,"Latitude":"43.018600","Longitude":"-89.549800","Population":null,"Region":"WI"},{"Date":"2020-03-30","CountryCode":"US","CountryName":"United States of America","RegionCode":"WV","RegionName":"West Virginia","Confirmed":126,"Deaths":1,"Latitude":"38.491200","Longitude":"-80.954500","Population":null,"Region":"WV"},{"Date":"2020-03-30","CountryCode":"US","CountryName":"United States of America","RegionCode":"WY","RegionName":"Wyoming","Confirmed":94,"Deaths":0,"Latitude":"42.756000","Longitude":"-107.302500","Population":null,"Region":"WY"},{"Date":"2020-03-31","CountryCode":"US","CountryName":"United States of America","RegionCode":"","RegionName":"","Confirmed":164620,"Deaths":3170,"Latitude":"37.090240","Longitude":"-95.712891","Population":329064917,"Region":""}]