[{"Date":"2020-04-17","Key":"US_AK","CountryCode":"US","CountryName":"United States of America","RegionCode":"AK","RegionName":"Alaska","Confirmed":309.0,"Deaths":9.0,"Latitude":"61.370700","Longitude":"-152.404400","Population":710249,"Region":"AK"},{"Date":"2020-04-17","Key":"US_AL","CountryCode":"US","CountryName":"United States of America","RegionCode":"AL","RegionName":"Alabama","Confirmed":4530.0,"Deaths":144.0,"Latitude":"32.318200","Longitude":"-86.902300","Population":4903185,"Region":"AL"},{"Date":"2020-04-17","Key":"US_AR","CountryCode":"US","CountryName":"United States of America","RegionCode":"AR","RegionName":"Arkansas","Confirmed":1695.0,"Deaths":37.0,"Latitude":"34.969700","Longitude":"-92.373100","Population":3017804,"Region":"AR"},{"Date":"2020-04-17","Key":"US_AZ","CountryCode":"US","CountryName":"United States of America","RegionCode":"AZ","RegionName":"Arizona","Confirmed":4507.0,"Deaths":169.0,"Latitude":"33.729800","Longitude":"-111.431200","Population":7278717,"Region":"AZ"},{"Date":"2020-04-17","Key":"US_CA","CountryCode":"US","CountryName":"United States of America","RegionCode":"CA","RegionName":"California","Confirmed":27528.0,"Deaths":985.0,"Latitude":"36.116200","Longitude":"-119.681600","Population":39512223,"Region":"CA"},{"Date":"2020-04-17","Key":"US_CO","CountryCode":"US","CountryName":"United States of America","RegionCode":"CO","RegionName":"Colorado","Confirmed":8675.0,"Deaths":374.0,"Latitude":"39.059800","Longitude":"-105.311100","Population":5758736,"Region":"CO"},{"Date":"2020-04-17","Key":"US_CT","CountryCode":"US","CountryName":"United States of America","RegionCode":"CT","RegionName":"Connecticut","Confirmed":16809.0,"Deaths":1036.0,"Latitude":"41.597800","Longitude":"-72.755400","Population":3565287,"Region":"CT"},{"Date":"2020-04-17","Key":"US_DC","CountryCode":"US","CountryName":"United States of America","RegionCode":"DC","RegionName":"District of Columbia","Confirmed":2476.0,"Deaths":86.0,"Latitude":"38.897400","Longitude":"-77.026800","Population":705749,"Region":"DC"},{"Date":"2020-04-17","Key":"US_DE","CountryCode":"US","CountryName":"United States of America","RegionCode":"DE","RegionName":"Delaware","Confirmed":2323.0,"Deaths":61.0,"Latitude":"39.318500","Longitude":"-75.507100","Population":973764,"Region":"DE"},{"Date":"2020-04-17","Key":"US_FL","CountryCode":"US","CountryName":"United States of America","RegionCode":"FL","RegionName":"Florida","Confirmed":24119.0,"Deaths":699.0,"Latitude":"27.766300","Longitude":"-81.686800","Population":21477737,"Region":"FL"},{"Date":"2020-04-17","Key":"US_GA","CountryCode":"US","CountryName":"United States of America","RegionCode":"GA","RegionName":"Georgia","Confirmed":17194.0,"Deaths":650.0,"Latitude":"33.040600","Longitude":"-83.643100","Population":10617423,"Region":"GA"},{"Date":"2020-04-17","Key":"US_HI","CountryCode":"US","CountryName":"United States of America","RegionCode":"HI","RegionName":"Hawaii","Confirmed":541.0,"Deaths":9.0,"Latitude":"21.094300","Longitude":"-157.498300","Population":1415872,"Region":"HI"},{"Date":"2020-04-17","Key":"US_IA","CountryCode":"US","CountryName":"United States of America","RegionCode":"IA","RegionName":"Iowa","Confirmed":2332.0,"Deaths":64.0,"Latitude":"42.011500","Longitude":"-93.210500","Population":3155070,"Region":"IA"},{"Date":"2020-04-17","Key":"US_ID","CountryCode":"US","CountryName":"United States of America","RegionCode":"ID","RegionName":"Idaho","Confirmed":1609.0,"Deaths":41.0,"Latitude":"44.240500","Longitude":"-114.478800","Population":1787065,"Region":"ID"},{"Date":"2020-04-17","Key":"US_IL","CountryCode":"US","CountryName":"United States of America","RegionCode":"IL","RegionName":"Illinois","Confirmed":27575.0,"Deaths":1134.0,"Latitude":"40.349500","Longitude":"-88.986100","Population":12671821,"Region":"IL"},{"Date":"2020-04-17","Key":"US_IN","CountryCode":"US","CountryName":"United States of America","RegionCode":"IN","RegionName":"Indiana","Confirmed":10154.0,"Deaths":519.0,"Latitude":"39.849400","Longitude":"-86.258300","Population":6732219,"Region":"IN"},{"Date":"2020-04-17","Key":"US_KS","CountryCode":"US","CountryName":"United States of America","RegionCode":"KS","RegionName":"Kansas","Confirmed":1705.0,"Deaths":84.0,"Latitude":"38.526600","Longitude":"-96.726500","Population":2911505,"Region":"KS"},{"Date":"2020-04-17","Key":"US_KY","CountryCode":"US","CountryName":"United States of America","RegionCode":"KY","RegionName":"Kentucky","Confirmed":2429.0,"Deaths":129.0,"Latitude":"37.668100","Longitude":"-84.670100","Population":4468402,"Region":"KY"},{"Date":"2020-04-17","Key":"US_LA","CountryCode":"US","CountryName":"United States of America","RegionCode":"LA","RegionName":"Louisiana","Confirmed":23118.0,"Deaths":1213.0,"Latitude":"31.169500","Longitude":"-91.867800","Population":4648794,"Region":"LA"},{"Date":"2020-04-17","Key":"US_MA","CountryCode":"US","CountryName":"United States of America","RegionCode":"MA","RegionName":"Massachusetts","Confirmed":34402.0,"Deaths":1404.0,"Latitude":"42.230200","Longitude":"-71.530100","Population":6939373,"Region":"MA"},{"Date":"2020-04-17","Key":"US_MD","CountryCode":"US","CountryName":"United States of America","RegionCode":"MD","RegionName":"Maryland","Confirmed":11572.0,"Deaths":425.0,"Latitude":"39.063900","Longitude":"-76.802100","Population":6045680,"Region":"MD"},{"Date":"2020-04-17","Key":"US_ME","CountryCode":"US","CountryName":"United States of America","RegionCode":"ME","RegionName":"Maine","Confirmed":827.0,"Deaths":29.0,"Latitude":"44.693900","Longitude":"-69.381900","Population":1338404,"Region":"ME"},{"Date":"2020-04-17","Key":"US_MI","CountryCode":"US","CountryName":"United States of America","RegionCode":"MI","RegionName":"Michigan","Confirmed":30023.0,"Deaths":2227.0,"Latitude":"43.326600","Longitude":"-84.536100","Population":9883635,"Region":"MI"},{"Date":"2020-04-17","Key":"US_MN","CountryCode":"US","CountryName":"United States of America","RegionCode":"MN","RegionName":"Minnesota","Confirmed":2071.0,"Deaths":111.0,"Latitude":"44.825400","Longitude":"-93.784200","Population":5639632,"Region":"MN"},{"Date":"2020-04-17","Key":"US_MO","CountryCode":"US","CountryName":"United States of America","RegionCode":"MO","RegionName":"Missouri","Confirmed":5283.0,"Deaths":165.0,"Latitude":"38.456100","Longitude":"-92.288400","Population":6126452,"Region":"MO"},{"Date":"2020-04-17","Key":"US_MS","CountryCode":"US","CountryName":"United States of America","RegionCode":"MS","RegionName":"Mississippi","Confirmed":3793.0,"Deaths":140.0,"Latitude":"32.741600","Longitude":"-89.678700","Population":2976149,"Region":"MS"},{"Date":"2020-04-17","Key":"US_MT","CountryCode":"US","CountryName":"United States of America","RegionCode":"MT","RegionName":"Montana","Confirmed":422.0,"Deaths":8.0,"Latitude":"46.921900","Longitude":"-110.454400","Population":1068778,"Region":"MT"},{"Date":"2020-04-17","Key":"US_NC","CountryCode":"US","CountryName":"United States of America","RegionCode":"NC","RegionName":"North Carolina","Confirmed":5859.0,"Deaths":152.0,"Latitude":"35.630100","Longitude":"-79.806400","Population":10488084,"Region":"NC"},{"Date":"2020-04-17","Key":"US_ND","CountryCode":"US","CountryName":"United States of America","RegionCode":"ND","RegionName":"North Dakota","Confirmed":439.0,"Deaths":9.0,"Latitude":"47.528900","Longitude":"-99.784000","Population":762062,"Region":"ND"},{"Date":"2020-04-17","Key":"US_NE","CountryCode":"US","CountryName":"United States of America","RegionCode":"NE","RegionName":"Nebraska","Confirmed":1066.0,"Deaths":24.0,"Latitude":"41.314800","Longitude":"-96.195100","Population":1934408,"Region":"NE"},{"Date":"2020-04-17","Key":"US_NH","CountryCode":"US","CountryName":"United States of America","RegionCode":"NH","RegionName":"New Hampshire","Confirmed":1287.0,"Deaths":37.0,"Latitude":"42.993100","Longitude":"-71.049800","Population":1359711,"Region":"NH"},{"Date":"2020-04-17","Key":"US_NJ","CountryCode":"US","CountryName":"United States of America","RegionCode":"NJ","RegionName":"New Jersey","Confirmed":78467.0,"Deaths":3840.0,"Latitude":"40.298900","Longitude":"-74.521000","Population":8882190,"Region":"NJ"},{"Date":"2020-04-17","Key":"US_NM","CountryCode":"US","CountryName":"United States of America","RegionCode":"NM","RegionName":"New Mexico","Confirmed":1597.0,"Deaths":44.0,"Latitude":"34.840500","Longitude":"-106.248500","Population":2096829,"Region":"NM"},{"Date":"2020-04-17","Key":"US_NV","CountryCode":"US","CountryName":"United States of America","RegionCode":"NV","RegionName":"Nevada","Confirmed":3524.0,"Deaths":142.0,"Latitude":"38.313500","Longitude":"-117.055400","Population":3080156,"Region":"NV"},{"Date":"2020-04-17","Key":"US_NY","CountryCode":"US","CountryName":"United States of America","RegionCode":"NY","RegionName":"New York","Confirmed":229642.0,"Deaths":12822.0,"Latitude":"42.165700","Longitude":"-74.948100","Population":19453561,"Region":"NY"},{"Date":"2020-04-17","Key":"US_OH","CountryCode":"US","CountryName":"United States of America","RegionCode":"OH","RegionName":"Ohio","Confirmed":8858.0,"Deaths":418.0,"Latitude":"40.388800","Longitude":"-82.764900","Population":11689100,"Region":"OH"},{"Date":"2020-04-17","Key":"US_OK","CountryCode":"US","CountryName":"United States of America","RegionCode":"OK","RegionName":"Oklahoma","Confirmed":2465.0,"Deaths":136.0,"Latitude":"35.565300","Longitude":"-96.928900","Population":3956971,"Region":"OK"},{"Date":"2020-04-17","Key":"US_OR","CountryCode":"US","CountryName":"United States of America","RegionCode":"OR","RegionName":"Oregon","Confirmed":1785.0,"Deaths":70.0,"Latitude":"43.126100","Longitude":"-123.249200","Population":4190713,"Region":"OR"},{"Date":"2020-04-17","Key":"US_PA","CountryCode":"US","CountryName":"United States of America","RegionCode":"PA","RegionName":"Pennsylvania","Confirmed":29441.0,"Deaths":756.0,"Latitude":"40.590800","Longitude":"-77.209800","Population":12801989,"Region":"PA"},{"Date":"2020-04-17","Key":"US_RI","CountryCode":"US","CountryName":"United States of America","RegionCode":"RI","RegionName":"Rhode Island","Confirmed":4177.0,"Deaths":118.0,"Latitude":"41.888200","Longitude":"-71.477400","Population":1057315,"Region":"RI"},{"Date":"2020-04-17","Key":"US_SC","CountryCode":"US","CountryName":"United States of America","RegionCode":"SC","RegionName":"South Carolina","Confirmed":3931.0,"Deaths":109.0,"Latitude":"33.856900","Longitude":"-80.945000","Population":5148714,"Region":"SC"},{"Date":"2020-04-17","Key":"US_SD","CountryCode":"US","CountryName":"United States of America","RegionCode":"SD","RegionName":"South Dakota","Confirmed":1411.0,"Deaths":7.0,"Latitude":"43.890100","Longitude":"-102.254800","Population":884659,"Region":"SD"},{"Date":"2020-04-17","Key":"US_TN","CountryCode":"US","CountryName":"United States of America","RegionCode":"TN","RegionName":"Tennessee","Confirmed":6589.0,"Deaths":142.0,"Latitude":"35.747800","Longitude":"-86.692300","Population":6833793,"Region":"TN"},{"Date":"2020-04-17","Key":"US_TX","CountryCode":"US","CountryName":"United States of America","RegionCode":"TX","RegionName":"Texas","Confirmed":17371.0,"Deaths":428.0,"Latitude":"31.054500","Longitude":"-97.563500","Population":28995881,"Region":"TX"},{"Date":"2020-04-17","Key":"US_UT","CountryCode":"US","CountryName":"United States of America","RegionCode":"UT","RegionName":"Utah","Confirmed":2805.0,"Deaths":23.0,"Latitude":"40.150000","Longitude":"-111.862400","Population":3205958,"Region":"UT"},{"Date":"2020-04-17","Key":"US_VA","CountryCode":"US","CountryName":"United States of America","RegionCode":"VA","RegionName":"Virginia","Confirmed":7491.0,"Deaths":231.0,"Latitude":"37.769300","Longitude":"-78.170000","Population":8535519,"Region":"VA"},{"Date":"2020-04-17","Key":"US_VT","CountryCode":"US","CountryName":"United States of America","RegionCode":"VT","RegionName":"Vermont","Confirmed":779.0,"Deaths":35.0,"Latitude":"44.045900","Longitude":"-72.710700","Population":623989,"Region":"VT"},{"Date":"2020-04-17","Key":"US_WA","CountryCode":"US","CountryName":"United States of America","RegionCode":"WA","RegionName":"Washington","Confirmed":11152.0,"Deaths":583.0,"Latitude":"47.400900","Longitude":"-121.490500","Population":7614893,"Region":"WA"},{"Date":"2020-04-17","Key":"US_WI","CountryCode":"US","CountryName":"United States of America","RegionCode":"WI","RegionName":"Wisconsin","Confirmed":4045.0,"Deaths":205.0,"Latitude":"43.018600","Longitude":"-89.549800","Population":5822434,"Region":"WI"},{"Date":"2020-04-17","Key":"US_WV","CountryCode":"US","CountryName":"United States of America","RegionCode":"WV","RegionName":"West Virginia","Confirmed":754.0,"Deaths":13.0,"Latitude":"38.491200","Longitude":"-80.954500","Population":1792147,"Region":"WV"},{"Date":"2020-04-17","Key":"US_WY","CountryCode":"US","CountryName":"United States of America","RegionCode":"WY","RegionName":"Wyoming","Confirmed":296.0,"Deaths":2.0,"Latitude":"42.756000","Longitude":"-107.302500","Population":578759,"Region":"WY"}]