[{"Date":"2020-03-24","CountryCode":"US","CountryName":"United States of America","RegionCode":"AK","RegionName":"Alaska","Confirmed":"36","Deaths":null,"Latitude":"61.3707","Longitude":"-152.4044","Population":null,"Region":"AK"},{"Date":"2020-03-24","CountryCode":"US","CountryName":"United States of America","RegionCode":"AL","RegionName":"Alabama","Confirmed":"215","Deaths":"0","Latitude":"32.3182","Longitude":"-86.9023","Population":null,"Region":"AL"},{"Date":"2020-03-24","CountryCode":"US","CountryName":"United States of America","RegionCode":"AR","RegionName":"Arkansas","Confirmed":"218","Deaths":"0","Latitude":"34.9697","Longitude":"-92.3731","Population":null,"Region":"AR"},{"Date":"2020-03-24","CountryCode":"US","CountryName":"United States of America","RegionCode":"AZ","RegionName":"Arizona","Confirmed":"357","Deaths":"5","Latitude":"33.7298","Longitude":"-111.4312","Population":null,"Region":"AZ"},{"Date":"2020-03-24","CountryCode":"US","CountryName":"United States of America","RegionCode":"CA","RegionName":"California","Confirmed":"2102","Deaths":"40","Latitude":"36.1162","Longitude":"-119.6816","Population":null,"Region":"CA"},{"Date":"2020-03-24","CountryCode":"US","CountryName":"United States of America","RegionCode":"CO","RegionName":"Colorado","Confirmed":"720","Deaths":"7","Latitude":"39.0598","Longitude":"-105.3111","Population":null,"Region":"CO"},{"Date":"2020-03-24","CountryCode":"US","CountryName":"United States of America","RegionCode":"CT","RegionName":"Connecticut","Confirmed":"618","Deaths":"12","Latitude":"41.5978","Longitude":"-72.7554","Population":null,"Region":"CT"},{"Date":"2020-03-24","CountryCode":"US","CountryName":"United States of America","RegionCode":"DC","RegionName":"District of Columbia","Confirmed":"137","Deaths":"2","Latitude":"38.8974","Longitude":"-77.0268","Population":null,"Region":"DC"},{"Date":"2020-03-24","CountryCode":"US","CountryName":"United States of America","RegionCode":"DE","RegionName":"Delaware","Confirmed":"91","Deaths":"0","Latitude":"39.3185","Longitude":"-75.5071","Population":null,"Region":"DE"},{"Date":"2020-03-24","CountryCode":"US","CountryName":"United States of America","RegionCode":"FL","RegionName":"Florida","Confirmed":"1412","Deaths":"18","Latitude":"27.7663","Longitude":"-81.6868","Population":null,"Region":"FL"},{"Date":"2020-03-24","CountryCode":"US","CountryName":"United States of America","RegionCode":"GA","RegionName":"Georgia","Confirmed":"1026","Deaths":"32","Latitude":"33.0406","Longitude":"-83.6431","Population":null,"Region":"GA"},{"Date":"2020-03-24","CountryCode":"US","CountryName":"United States of America","RegionCode":"HI","RegionName":"Hawaii","Confirmed":"77","Deaths":"1","Latitude":"21.0943","Longitude":"-157.4983","Population":null,"Region":"HI"},{"Date":"2020-03-24","CountryCode":"US","CountryName":"United States of America","RegionCode":"IA","RegionName":"Iowa","Confirmed":"124","Deaths":null,"Latitude":"42.0115","Longitude":"-93.2105","Population":null,"Region":"IA"},{"Date":"2020-03-24","CountryCode":"US","CountryName":"United States of America","RegionCode":"ID","RegionName":"Idaho","Confirmed":"50","Deaths":"0","Latitude":"44.2405","Longitude":"-114.4788","Population":null,"Region":"ID"},{"Date":"2020-03-24","CountryCode":"US","CountryName":"United States of America","RegionCode":"IL","RegionName":"Illinois","Confirmed":"1551","Deaths":"16","Latitude":"40.3495","Longitude":"-88.9861","Population":null,"Region":"IL"},{"Date":"2020-03-24","CountryCode":"US","CountryName":"United States of America","RegionCode":"IN","RegionName":"Indiana","Confirmed":"365","Deaths":"12","Latitude":"39.8494","Longitude":"-86.2583","Population":null,"Region":"IN"},{"Date":"2020-03-24","CountryCode":"US","CountryName":"United States of America","RegionCode":"KS","RegionName":"Kansas","Confirmed":"98","Deaths":"2","Latitude":"38.5266","Longitude":"-96.7265","Population":null,"Region":"KS"},{"Date":"2020-03-24","CountryCode":"US","CountryName":"United States of America","RegionCode":"KY","RegionName":"Kentucky","Confirmed":"124","Deaths":"4","Latitude":"37.6681","Longitude":"-84.6701","Population":null,"Region":"KY"},{"Date":"2020-03-24","CountryCode":"US","CountryName":"United States of America","RegionCode":"LA","RegionName":"Louisiana","Confirmed":"1388","Deaths":"46","Latitude":"31.1695","Longitude":"-91.8678","Population":null,"Region":"LA"},{"Date":"2020-03-24","CountryCode":"US","CountryName":"United States of America","RegionCode":"MA","RegionName":"Massachusetts","Confirmed":"1159","Deaths":"11","Latitude":"42.2302","Longitude":"-71.5301","Population":null,"Region":"MA"},{"Date":"2020-03-24","CountryCode":"US","CountryName":"United States of America","RegionCode":"MD","RegionName":"Maryland","Confirmed":"349","Deaths":"3","Latitude":"39.0639","Longitude":"-76.8021","Population":null,"Region":"MD"},{"Date":"2020-03-24","CountryCode":"US","CountryName":"United States of America","RegionCode":"ME","RegionName":"Maine","Confirmed":"125","Deaths":null,"Latitude":"44.6939","Longitude":"-69.3819","Population":null,"Region":"ME"},{"Date":"2020-03-24","CountryCode":"US","CountryName":"United States of America","RegionCode":"MI","RegionName":"Michigan","Confirmed":"1791","Deaths":"24","Latitude":"43.3266","Longitude":"-84.5361","Population":null,"Region":"MI"},{"Date":"2020-03-24","CountryCode":"US","CountryName":"United States of America","RegionCode":"MN","RegionName":"Minnesota","Confirmed":"262","Deaths":"1","Latitude":"44.8254","Longitude":"-93.7842","Population":null,"Region":"MN"},{"Date":"2020-03-24","CountryCode":"US","CountryName":"United States of America","RegionCode":"MO","RegionName":"Missouri","Confirmed":"183","Deaths":"3","Latitude":"38.4561","Longitude":"-92.2884","Population":null,"Region":"MO"},{"Date":"2020-03-24","CountryCode":"US","CountryName":"United States of America","RegionCode":"MS","RegionName":"Mississippi","Confirmed":"320","Deaths":"1","Latitude":"32.7416","Longitude":"-89.6787","Population":null,"Region":"MS"},{"Date":"2020-03-24","CountryCode":"US","CountryName":"United States of America","RegionCode":"MT","RegionName":"Montana","Confirmed":"46","Deaths":null,"Latitude":"46.9219","Longitude":"-110.4544","Population":null,"Region":"MT"},{"Date":"2020-03-24","CountryCode":"US","CountryName":"United States of America","RegionCode":"NC","RegionName":"North Carolina","Confirmed":"398","Deaths":"0","Latitude":"35.6301","Longitude":"-79.8064","Population":null,"Region":"NC"},{"Date":"2020-03-24","CountryCode":"US","CountryName":"United States of America","RegionCode":"ND","RegionName":"North Dakota","Confirmed":"34","Deaths":"0","Latitude":"47.5289","Longitude":"-99.784","Population":null,"Region":"ND"},{"Date":"2020-03-24","CountryCode":"US","CountryName":"United States of America","RegionCode":"NE","RegionName":"Nebraska","Confirmed":"52","Deaths":"0","Latitude":"41.3148","Longitude":"-96.1951","Population":null,"Region":"NE"},{"Date":"2020-03-24","CountryCode":"US","CountryName":"United States of America","RegionCode":"NH","RegionName":"New Hampshire","Confirmed":"101","Deaths":"1","Latitude":"42.9931","Longitude":"-71.0498","Population":null,"Region":"NH"},{"Date":"2020-03-24","CountryCode":"US","CountryName":"United States of America","RegionCode":"NJ","RegionName":"New Jersey","Confirmed":"3675","Deaths":"44","Latitude":"40.2989","Longitude":"-74.521","Population":null,"Region":"NJ"},{"Date":"2020-03-24","CountryCode":"US","CountryName":"United States of America","RegionCode":"NM","RegionName":"New Mexico","Confirmed":"83","Deaths":null,"Latitude":"34.8405","Longitude":"-106.2485","Population":null,"Region":"NM"},{"Date":"2020-03-24","CountryCode":"US","CountryName":"United States of America","RegionCode":"NV","RegionName":"Nevada","Confirmed":"278","Deaths":"4","Latitude":"38.3135","Longitude":"-117.0554","Population":null,"Region":"NV"},{"Date":"2020-03-24","CountryCode":"US","CountryName":"United States of America","RegionCode":"NY","RegionName":"New York","Confirmed":"25665","Deaths":"210","Latitude":"42.1657","Longitude":"-74.9481","Population":null,"Region":"NY"},{"Date":"2020-03-24","CountryCode":"US","CountryName":"United States of America","RegionCode":"OH","RegionName":"Ohio","Confirmed":"564","Deaths":"8","Latitude":"40.3888","Longitude":"-82.7649","Population":null,"Region":"OH"},{"Date":"2020-03-24","CountryCode":"US","CountryName":"United States of America","RegionCode":"OK","RegionName":"Oklahoma","Confirmed":"106","Deaths":"3","Latitude":"35.5653","Longitude":"-96.9289","Population":null,"Region":"OK"},{"Date":"2020-03-24","CountryCode":"US","CountryName":"United States of America","RegionCode":"OR","RegionName":"Oregon","Confirmed":"209","Deaths":"8","Latitude":"43.1261","Longitude":"-123.2492","Population":null,"Region":"OR"},{"Date":"2020-03-24","CountryCode":"US","CountryName":"United States of America","RegionCode":"PA","RegionName":"Pennsylvania","Confirmed":"851","Deaths":"7","Latitude":"40.5908","Longitude":"-77.2098","Population":null,"Region":"PA"},{"Date":"2020-03-24","CountryCode":"US","CountryName":"United States of America","RegionCode":"RI","RegionName":"Rhode Island","Confirmed":"106","Deaths":null,"Latitude":"41.8882","Longitude":"-71.4774","Population":null,"Region":"RI"},{"Date":"2020-03-24","CountryCode":"US","CountryName":"United States of America","RegionCode":"SC","RegionName":"South Carolina","Confirmed":"298","Deaths":"5","Latitude":"33.8569","Longitude":"-80.945","Population":null,"Region":"SC"},{"Date":"2020-03-24","CountryCode":"US","CountryName":"United States of America","RegionCode":"SD","RegionName":"South Dakota","Confirmed":"30","Deaths":"1","Latitude":"43.8901","Longitude":"-102.2548","Population":null,"Region":"SD"},{"Date":"2020-03-24","CountryCode":"US","CountryName":"United States of America","RegionCode":"TN","RegionName":"Tennessee","Confirmed":"667","Deaths":"2","Latitude":"35.7478","Longitude":"-86.6923","Population":null,"Region":"TN"},{"Date":"2020-03-24","CountryCode":"US","CountryName":"United States of America","RegionCode":"TX","RegionName":"Texas","Confirmed":"410","Deaths":"9","Latitude":"31.0545","Longitude":"-97.5635","Population":null,"Region":"TX"},{"Date":"2020-03-24","CountryCode":"US","CountryName":"United States of America","RegionCode":"UT","RegionName":"Utah","Confirmed":"299","Deaths":"1","Latitude":"40.15","Longitude":"-111.8624","Population":null,"Region":"UT"},{"Date":"2020-03-24","CountryCode":"US","CountryName":"United States of America","RegionCode":"VA","RegionName":"Virginia","Confirmed":"290","Deaths":"7","Latitude":"37.7693","Longitude":"-78.17","Population":null,"Region":"VA"},{"Date":"2020-03-24","CountryCode":"US","CountryName":"United States of America","RegionCode":"VT","RegionName":"Vermont","Confirmed":"95","Deaths":"7","Latitude":"44.0459","Longitude":"-72.7107","Population":null,"Region":"VT"},{"Date":"2020-03-24","CountryCode":"US","CountryName":"United States of America","RegionCode":"WA","RegionName":"Washington","Confirmed":"2221","Deaths":"110","Latitude":"47.4009","Longitude":"-121.4905","Population":null,"Region":"WA"},{"Date":"2020-03-24","CountryCode":"US","CountryName":"United States of America","RegionCode":"WI","RegionName":"Wisconsin","Confirmed":"457","Deaths":"5","Latitude":"43.0186","Longitude":"-89.5498","Population":null,"Region":"WI"},{"Date":"2020-03-24","CountryCode":"US","CountryName":"United States of America","RegionCode":"WV","RegionName":"West Virginia","Confirmed":"20","Deaths":"0","Latitude":"38.4912","Longitude":"-80.9545","Population":null,"Region":"WV"},{"Date":"2020-03-24","CountryCode":"US","CountryName":"United States of America","RegionCode":"WY","RegionName":"Wyoming","Confirmed":"29","Deaths":null,"Latitude":"42.756","Longitude":"-107.3025","Population":null,"Region":"WY"}]