[{"Date":"2020-03-30","Key":"AW","Confirmed":50,"Deaths":0,"CountryCode":"AW","CountryName":"Aruba","Latitude":"12.521110","Longitude":"-69.968338","Population":106314},{"Date":"2020-03-30","Key":"VI","Confirmed":30,"Deaths":0,"CountryCode":"VI","CountryName":"United States Virgin Islands","Latitude":"18.335765","Longitude":"-64.896335","Population":null},{"Date":"2020-03-31","Key":"AD","Confirmed":370,"Deaths":8,"CountryCode":"AD","CountryName":"Andorra","Latitude":"42.546245","Longitude":"1.601554","Population":77142},{"Date":"2020-03-31","Key":"AE","Confirmed":611,"Deaths":5,"CountryCode":"AE","CountryName":"United Arab Emirates","Latitude":"23.424076","Longitude":"53.847818","Population":9770529},{"Date":"2020-03-31","Key":"AF","Confirmed":141,"Deaths":4,"CountryCode":"AF","CountryName":"Afghanistan","Latitude":"33.939110","Longitude":"67.709953","Population":38041754},{"Date":"2020-03-31","Key":"AG","Confirmed":7,"Deaths":0,"CountryCode":"AG","CountryName":"Antigua and Barbuda","Latitude":"17.060816","Longitude":"-61.796428","Population":97118},{"Date":"2020-03-31","Key":"AI","Confirmed":2,"Deaths":0,"CountryCode":"AI","CountryName":"Anguilla","Latitude":"18.220554","Longitude":"-63.068615","Population":14869},{"Date":"2020-03-31","Key":"AL","Confirmed":223,"Deaths":12,"CountryCode":"AL","CountryName":"Albania","Latitude":"41.153332","Longitude":"20.168331","Population":2880917},{"Date":"2020-03-31","Key":"AM","Confirmed":482,"Deaths":3,"CountryCode":"AM","CountryName":"Armenia","Latitude":"40.069099","Longitude":"45.038189","Population":2957731},{"Date":"2020-03-31","Key":"AO","Confirmed":7,"Deaths":2,"CountryCode":"AO","CountryName":"Angola","Latitude":"-11.202692","Longitude":"17.873887","Population":31825295},{"Date":"2020-03-31","Key":"AR","Confirmed":966,"Deaths":24,"CountryCode":"AR","CountryName":"Argentina","Latitude":"-38.416097","Longitude":"-63.616672","Population":44780677},{"Date":"2020-03-31","Key":"AT","Confirmed":9618,"Deaths":108,"CountryCode":"AT","CountryName":"Austria","Latitude":"47.516231","Longitude":"14.550072","Population":8955102},{"Date":"2020-03-31","Key":"AU","Confirmed":4557,"Deaths":19,"CountryCode":"AU","CountryName":"Australia","Latitude":"-25.274398","Longitude":"133.775136","Population":25203198},{"Date":"2020-03-31","Key":"AZ","Confirmed":273,"Deaths":4,"CountryCode":"AZ","CountryName":"Azerbaijan","Latitude":"40.143105","Longitude":"47.576927","Population":10047718},{"Date":"2020-03-31","Key":"BA","Confirmed":353,"Deaths":8,"CountryCode":"BA","CountryName":"Bosnia and Herzegovina","Latitude":"43.915886","Longitude":"17.679076","Population":3301000},{"Date":"2020-03-31","Key":"BB","Confirmed":34,"Deaths":0,"CountryCode":"BB","CountryName":"Barbados","Latitude":"13.193887","Longitude":"-59.543198","Population":287025},{"Date":"2020-03-31","Key":"BD","Confirmed":49,"Deaths":5,"CountryCode":"BD","CountryName":"Bangladesh","Latitude":"23.684994","Longitude":"90.356331","Population":163046161},{"Date":"2020-03-31","Key":"BE","Confirmed":11899,"Deaths":513,"CountryCode":"BE","CountryName":"Belgium","Latitude":"50.503887","Longitude":"4.469936","Population":11539328},{"Date":"2020-03-31","Key":"BF","Confirmed":222,"Deaths":12,"CountryCode":"BF","CountryName":"Burkina Faso","Latitude":"12.238333","Longitude":"-1.561593","Population":20321378},{"Date":"2020-03-31","Key":"BG","Confirmed":359,"Deaths":8,"CountryCode":"BG","CountryName":"Bulgaria","Latitude":"42.733883","Longitude":"25.485830","Population":7000119},{"Date":"2020-03-31","Key":"BH","Confirmed":515,"Deaths":4,"CountryCode":"BH","CountryName":"Bahrain","Latitude":"25.930414","Longitude":"50.637772","Population":1641172},{"Date":"2020-03-31","Key":"BJ","Confirmed":6,"Deaths":0,"CountryCode":"BJ","CountryName":"Benin","Latitude":"9.307690","Longitude":"2.315834","Population":11801151},{"Date":"2020-03-31","Key":"BM","Confirmed":27,"Deaths":0,"CountryCode":"BM","CountryName":"Bermuda","Latitude":"32.321384","Longitude":"-64.757370","Population":62506},{"Date":"2020-03-31","Key":"BN","Confirmed":127,"Deaths":1,"CountryCode":"BN","CountryName":"Brunei","Latitude":"4.535277","Longitude":"114.727669","Population":433285},{"Date":"2020-03-31","Key":"BO","Confirmed":107,"Deaths":6,"CountryCode":"BO","CountryName":"Bolivia","Latitude":"-16.290154","Longitude":"-63.588653","Population":11513100},{"Date":"2020-03-31","Key":"BR","Confirmed":4579,"Deaths":159,"CountryCode":"BR","CountryName":"Brazil","Latitude":"-14.235004","Longitude":"-51.925280","Population":211049527},{"Date":"2020-03-31","Key":"BS","Confirmed":14,"Deaths":0,"CountryCode":"BS","CountryName":"Bahamas","Latitude":"25.034280","Longitude":"-77.396280","Population":389482},{"Date":"2020-03-31","Key":"BT","Confirmed":4,"Deaths":0,"CountryCode":"BT","CountryName":"Bhutan","Latitude":"27.514162","Longitude":"90.433601","Population":763092},{"Date":"2020-03-31","Key":"BY","Confirmed":105,"Deaths":0,"CountryCode":"BY","CountryName":"Belarus","Latitude":"53.709807","Longitude":"27.953389","Population":9452411},{"Date":"2020-03-31","Key":"BZ","Confirmed":3,"Deaths":0,"CountryCode":"BZ","CountryName":"Belize","Latitude":"17.189877","Longitude":"-88.497650","Population":390353},{"Date":"2020-03-31","Key":"CA","Confirmed":7424,"Deaths":89,"CountryCode":"CA","CountryName":"Canada","Latitude":"56.130366","Longitude":"-106.346771","Population":37411047},{"Date":"2020-03-31","Key":"CD","Confirmed":98,"Deaths":8,"CountryCode":"CD","CountryName":"Democratic Republic of the Congo","Latitude":"-4.038333","Longitude":"21.758664","Population":86790567},{"Date":"2020-03-31","Key":"CF","Confirmed":6,"Deaths":0,"CountryCode":"CF","CountryName":"Central African Republic","Latitude":"6.611111","Longitude":"20.939444","Population":4745185},{"Date":"2020-03-31","Key":"CG","Confirmed":19,"Deaths":0,"CountryCode":"CG","CountryName":"Republic of the Congo","Latitude":"-0.228021","Longitude":"15.827659","Population":5380508},{"Date":"2020-03-31","Key":"CH","Confirmed":15412,"Deaths":295,"CountryCode":"CH","CountryName":"Switzerland","Latitude":"46.818188","Longitude":"8.227512","Population":8591365},{"Date":"2020-03-31","Key":"CI","Confirmed":168,"Deaths":1,"CountryCode":"CI","CountryName":"Ivory Coast","Latitude":"7.539989","Longitude":"-5.547080","Population":25716544},{"Date":"2020-03-31","Key":"CL","Confirmed":2449,"Deaths":8,"CountryCode":"CL","CountryName":"Chile","Latitude":"-35.675147","Longitude":"-71.542969","Population":18952038},{"Date":"2020-03-31","Key":"CM","Confirmed":142,"Deaths":2,"CountryCode":"CM","CountryName":"Cameroon","Latitude":"7.369722","Longitude":"12.354722","Population":25876380},{"Date":"2020-03-31","Key":"CN","Confirmed":82241,"Deaths":3309,"CountryCode":"CN","CountryName":"China","Latitude":"35.861660","Longitude":"104.195397","Population":1433783686},{"Date":"2020-03-31","Key":"CO","Confirmed":798,"Deaths":14,"CountryCode":"CO","CountryName":"Colombia","Latitude":"4.570868","Longitude":"-74.297333","Population":50339443},{"Date":"2020-03-31","Key":"CR","Confirmed":330,"Deaths":2,"CountryCode":"CR","CountryName":"Costa Rica","Latitude":"9.748917","Longitude":"-83.753428","Population":5047561},{"Date":"2020-03-31","Key":"CU","Confirmed":170,"Deaths":4,"CountryCode":"CU","CountryName":"Cuba","Latitude":"21.521757","Longitude":"-77.781167","Population":11333483},{"Date":"2020-03-31","Key":"CV","Confirmed":5,"Deaths":1,"CountryCode":"CV","CountryName":"Cape Verde","Latitude":"16.002082","Longitude":"-24.013197","Population":549935},{"Date":"2020-03-31","Key":"CY","Confirmed":230,"Deaths":7,"CountryCode":"CY","CountryName":"Cyprus","Latitude":"35.126413","Longitude":"33.429859","Population":1179551},{"Date":"2020-03-31","Key":"CZ","Confirmed":3002,"Deaths":24,"CountryCode":"CZ","CountryName":"Czech Republic","Latitude":"49.817492","Longitude":"15.472962","Population":10689209},{"Date":"2020-03-31","Key":"DE","Confirmed":61913,"Deaths":583,"CountryCode":"DE","CountryName":"Germany","Latitude":"51.165691","Longitude":"10.451526","Population":83517045},{"Date":"2020-03-31","Key":"DJ","Confirmed":26,"Deaths":0,"CountryCode":"DJ","CountryName":"Djibouti","Latitude":"11.825138","Longitude":"42.590275","Population":973560},{"Date":"2020-03-31","Key":"DK","Confirmed":2577,"Deaths":77,"CountryCode":"DK","CountryName":"Denmark","Latitude":"56.263920","Longitude":"9.501785","Population":5771876},{"Date":"2020-03-31","Key":"DM","Confirmed":11,"Deaths":0,"CountryCode":"DM","CountryName":"Dominica","Latitude":"15.414999","Longitude":"-61.370976","Population":71808},{"Date":"2020-03-31","Key":"DO","Confirmed":901,"Deaths":42,"CountryCode":"DO","CountryName":"Dominican Republic","Latitude":"18.735693","Longitude":"-70.162651","Population":10738958},{"Date":"2020-03-31","Key":"DZ","Confirmed":511,"Deaths":31,"CountryCode":"DZ","CountryName":"Algeria","Latitude":"28.033886","Longitude":"1.659626","Population":43053054},{"Date":"2020-03-31","Key":"EC","Confirmed":1966,"Deaths":62,"CountryCode":"EC","CountryName":"Ecuador","Latitude":"-1.831239","Longitude":"-78.183406","Population":17373662},{"Date":"2020-03-31","Key":"EE","Confirmed":715,"Deaths":3,"CountryCode":"EE","CountryName":"Estonia","Latitude":"58.595272","Longitude":"25.013607","Population":1325648},{"Date":"2020-03-31","Key":"EG","Confirmed":609,"Deaths":40,"CountryCode":"EG","CountryName":"Egypt","Latitude":"26.820553","Longitude":"30.802498","Population":100388073},{"Date":"2020-03-31","Key":"ER","Confirmed":12,"Deaths":0,"CountryCode":"ER","CountryName":"Eritrea","Latitude":"15.179384","Longitude":"39.782334","Population":3497117},{"Date":"2020-03-31","Key":"ET","Confirmed":23,"Deaths":0,"CountryCode":"ET","CountryName":"Ethiopia","Latitude":"9.145000","Longitude":"40.489673","Population":112078730},{"Date":"2020-03-31","Key":"FI","Confirmed":1313,"Deaths":13,"CountryCode":"FI","CountryName":"Finland","Latitude":"61.924110","Longitude":"25.748151","Population":5532156},{"Date":"2020-03-31","Key":"FJ","Confirmed":5,"Deaths":0,"CountryCode":"FJ","CountryName":"Fiji","Latitude":"-16.578193","Longitude":"179.414413","Population":889953},{"Date":"2020-03-31","Key":"FK","Confirmed":0,"Deaths":0,"CountryCode":"FK","CountryName":"Falkland Islands","Latitude":"-51.796253","Longitude":"-59.523613","Population":3377},{"Date":"2020-03-31","Key":"FO","Confirmed":168,"Deaths":0,"CountryCode":"FO","CountryName":"Faroe Islands","Latitude":"61.892635","Longitude":"-6.911806","Population":48678},{"Date":"2020-03-31","Key":"FR","Confirmed":44550,"Deaths":3024,"CountryCode":"FR","CountryName":"France","Latitude":"46.227638","Longitude":"2.213749","Population":65129728},{"Date":"2020-03-31","Key":"GA","Confirmed":7,"Deaths":1,"CountryCode":"GA","CountryName":"Gabon","Latitude":"-0.803689","Longitude":"11.609444","Population":2172579},{"Date":"2020-03-31","Key":"GB","Confirmed":22141,"Deaths":1408,"CountryCode":"GB","CountryName":"United Kingdom","Latitude":"55.378051","Longitude":"-3.435973","Population":67530172},{"Date":"2020-03-31","Key":"GD","Confirmed":9,"Deaths":0,"CountryCode":"GD","CountryName":"Grenada","Latitude":"12.262776","Longitude":"-61.604171","Population":112003},{"Date":"2020-03-31","Key":"GE","Confirmed":98,"Deaths":0,"CountryCode":"GE","CountryName":"Georgia","Latitude":"42.315407","Longitude":"43.356892","Population":3996765},{"Date":"2020-03-31","Key":"GG","Confirmed":45,"Deaths":0,"CountryCode":"GG","CountryName":"Guernsey","Latitude":"49.465691","Longitude":"-2.585278","Population":172259},{"Date":"2020-03-31","Key":"GH","Confirmed":152,"Deaths":5,"CountryCode":"GH","CountryName":"Ghana","Latitude":"7.946527","Longitude":"-1.023194","Population":28833629},{"Date":"2020-03-31","Key":"GI","Confirmed":69,"Deaths":0,"CountryCode":"GI","CountryName":"Gibraltar","Latitude":"36.137741","Longitude":"-5.345374","Population":33701},{"Date":"2020-03-31","Key":"GL","Confirmed":10,"Deaths":0,"CountryCode":"GL","CountryName":"Greenland","Latitude":"71.706936","Longitude":"-42.604303","Population":56672},{"Date":"2020-03-31","Key":"GM","Confirmed":4,"Deaths":1,"CountryCode":"GM","CountryName":"Gambia","Latitude":"13.443182","Longitude":"-15.310139","Population":2347706},{"Date":"2020-03-31","Key":"GN","Confirmed":16,"Deaths":0,"CountryCode":"GN","CountryName":"Guinea","Latitude":"9.945587","Longitude":"-9.696645","Population":12771246},{"Date":"2020-03-31","Key":"GQ","Confirmed":14,"Deaths":0,"CountryCode":"GQ","CountryName":"Equatorial Guinea","Latitude":"1.650801","Longitude":"10.267895","Population":1355986},{"Date":"2020-03-31","Key":"GR","Confirmed":1212,"Deaths":43,"CountryCode":"GR","CountryName":"Greece","Latitude":"39.074208","Longitude":"21.824312","Population":10473455},{"Date":"2020-03-31","Key":"GT","Confirmed":36,"Deaths":1,"CountryCode":"GT","CountryName":"Guatemala","Latitude":"15.783471","Longitude":"-90.230759","Population":17581472},{"Date":"2020-03-31","Key":"GU","Confirmed":60,"Deaths":1,"CountryCode":"GU","CountryName":"Guam","Latitude":"13.444304","Longitude":"144.793731","Population":167294},{"Date":"2020-03-31","Key":"GW","Confirmed":2,"Deaths":0,"CountryCode":"GW","CountryName":"Guinea-Bissau","Latitude":"11.803749","Longitude":"-15.180413","Population":1920922},{"Date":"2020-03-31","Key":"GY","Confirmed":8,"Deaths":1,"CountryCode":"GY","CountryName":"Guyana","Latitude":"4.860416","Longitude":"-58.930180","Population":782766},{"Date":"2020-03-31","Key":"HN","Confirmed":141,"Deaths":7,"CountryCode":"HN","CountryName":"Honduras","Latitude":"15.199999","Longitude":"-86.241905","Population":9746117},{"Date":"2020-03-31","Key":"HR","Confirmed":790,"Deaths":6,"CountryCode":"HR","CountryName":"Croatia","Latitude":"45.100000","Longitude":"15.200000","Population":4130304},{"Date":"2020-03-31","Key":"HT","Confirmed":15,"Deaths":0,"CountryCode":"HT","CountryName":"Haiti","Latitude":"18.971187","Longitude":"-72.285215","Population":11263770},{"Date":"2020-03-31","Key":"HU","Confirmed":447,"Deaths":15,"CountryCode":"HU","CountryName":"Hungary","Latitude":"47.162494","Longitude":"19.503304","Population":9684679},{"Date":"2020-03-31","Key":"ID","Confirmed":1414,"Deaths":122,"CountryCode":"ID","CountryName":"Indonesia","Latitude":"-0.789275","Longitude":"113.921327","Population":270625568},{"Date":"2020-03-31","Key":"IE","Confirmed":2910,"Deaths":54,"CountryCode":"IE","CountryName":"Ireland","Latitude":"53.412910","Longitude":"-8.243890","Population":4882495},{"Date":"2020-03-31","Key":"IL","Confirmed":4473,"Deaths":17,"CountryCode":"IL","CountryName":"Israel","Latitude":"31.046051","Longitude":"34.851612","Population":8519377},{"Date":"2020-03-31","Key":"IM","Confirmed":42,"Deaths":0,"CountryCode":"IM","CountryName":"Isle of Man","Latitude":"54.236107","Longitude":"-4.548056","Population":84584},{"Date":"2020-03-31","Key":"IN","Confirmed":1251,"Deaths":32,"CountryCode":"IN","CountryName":"India","Latitude":"20.593684","Longitude":"78.962880","Population":1366417754},{"Date":"2020-03-31","Key":"IQ","Confirmed":630,"Deaths":46,"CountryCode":"IQ","CountryName":"Iraq","Latitude":"33.223191","Longitude":"43.679291","Population":39309783},{"Date":"2020-03-31","Key":"IR","Confirmed":41495,"Deaths":2757,"CountryCode":"IR","CountryName":"Iran","Latitude":"32.427908","Longitude":"53.688046","Population":82913906},{"Date":"2020-03-31","Key":"IS","Confirmed":1086,"Deaths":2,"CountryCode":"IS","CountryName":"Iceland","Latitude":"64.963051","Longitude":"-19.020835","Population":339031},{"Date":"2020-03-31","Key":"JE","Confirmed":63,"Deaths":2,"CountryCode":"JE","CountryName":"Jersey","Latitude":"49.214439","Longitude":"-2.131250","Population":172259},{"Date":"2020-03-31","Key":"JM","Confirmed":39,"Deaths":1,"CountryCode":"JM","CountryName":"Jamaica","Latitude":"18.109581","Longitude":"-77.297508","Population":2948279},{"Date":"2020-03-31","Key":"JO","Confirmed":268,"Deaths":5,"CountryCode":"JO","CountryName":"Jordan","Latitude":"30.585164","Longitude":"36.238414","Population":10101694},{"Date":"2020-03-31","Key":"JP","Confirmed":1953,"Deaths":56,"CountryCode":"JP","CountryName":"Japan","Latitude":"36.204824","Longitude":"138.252924","Population":126860301},{"Date":"2020-03-31","Key":"KE","Confirmed":50,"Deaths":1,"CountryCode":"KE","CountryName":"Kenya","Latitude":"-0.023559","Longitude":"37.906193","Population":52573973},{"Date":"2020-03-31","Key":"KG","Confirmed":84,"Deaths":0,"CountryCode":"KG","CountryName":"Kyrgyzstan","Latitude":"41.204380","Longitude":"74.766098","Population":6415850},{"Date":"2020-03-31","Key":"KH","Confirmed":109,"Deaths":0,"CountryCode":"KH","CountryName":"Cambodia","Latitude":"12.565679","Longitude":"104.990963","Population":16486542},{"Date":"2020-03-31","Key":"KN","Confirmed":7,"Deaths":0,"CountryCode":"KN","CountryName":"Saint Kitts and Nevis","Latitude":"17.357822","Longitude":"-62.782998","Population":52823},{"Date":"2020-03-31","Key":"KR","Confirmed":9786,"Deaths":163,"CountryCode":"KR","CountryName":"South Korea","Latitude":"35.907757","Longitude":"127.766922","Population":51225308},{"Date":"2020-03-31","Key":"KW","Confirmed":266,"Deaths":0,"CountryCode":"KW","CountryName":"Kuwait","Latitude":"29.311660","Longitude":"47.481766","Population":4207083},{"Date":"2020-03-31","Key":"KY","Confirmed":12,"Deaths":1,"CountryCode":"KY","CountryName":"Cayman Islands","Latitude":"19.513469","Longitude":"-80.566956","Population":64948},{"Date":"2020-03-31","Key":"KZ","Confirmed":325,"Deaths":1,"CountryCode":"KZ","CountryName":"Kazakhstan","Latitude":"48.019573","Longitude":"66.923684","Population":18551427},{"Date":"2020-03-31","Key":"LA","Confirmed":9,"Deaths":0,"CountryCode":"LA","CountryName":"Laos","Latitude":"19.856270","Longitude":"102.495496","Population":7169455},{"Date":"2020-03-31","Key":"LB","Confirmed":446,"Deaths":11,"CountryCode":"LB","CountryName":"Lebanon","Latitude":"33.854721","Longitude":"35.862285","Population":6855713},{"Date":"2020-03-31","Key":"LC","Confirmed":9,"Deaths":0,"CountryCode":"LC","CountryName":"Saint Lucia","Latitude":"13.909444","Longitude":"-60.978893","Population":182790},{"Date":"2020-03-31","Key":"LI","Confirmed":64,"Deaths":0,"CountryCode":"LI","CountryName":"Liechtenstein","Latitude":"47.166000","Longitude":"9.555373","Population":38019},{"Date":"2020-03-31","Key":"LK","Confirmed":120,"Deaths":1,"CountryCode":"LK","CountryName":"Sri Lanka","Latitude":"7.873054","Longitude":"80.771797","Population":21323733},{"Date":"2020-03-31","Key":"LR","Confirmed":3,"Deaths":0,"CountryCode":"LR","CountryName":"Liberia","Latitude":"6.428055","Longitude":"-9.429499","Population":4937374},{"Date":"2020-03-31","Key":"LT","Confirmed":484,"Deaths":7,"CountryCode":"LT","CountryName":"Lithuania","Latitude":"55.169438","Longitude":"23.881275","Population":2759627},{"Date":"2020-03-31","Key":"LU","Confirmed":1988,"Deaths":22,"CountryCode":"LU","CountryName":"Luxembourg","Latitude":"49.815273","Longitude":"6.129583","Population":615729},{"Date":"2020-03-31","Key":"LV","Confirmed":376,"Deaths":0,"CountryCode":"LV","CountryName":"Latvia","Latitude":"56.879635","Longitude":"24.603189","Population":1906743},{"Date":"2020-03-31","Key":"LY","Confirmed":8,"Deaths":0,"CountryCode":"LY","CountryName":"Libya","Latitude":"26.335100","Longitude":"17.228331","Population":6777452},{"Date":"2020-03-31","Key":"MA","Confirmed":556,"Deaths":33,"CountryCode":"MA","CountryName":"Morocco","Latitude":"31.791702","Longitude":"-7.092620","Population":36471769},{"Date":"2020-03-31","Key":"MC","Confirmed":49,"Deaths":0,"CountryCode":"MC","CountryName":"Monaco","Latitude":"43.750298","Longitude":"7.412841","Population":38964},{"Date":"2020-03-31","Key":"MD","Confirmed":298,"Deaths":2,"CountryCode":"MD","CountryName":"Moldova","Latitude":"47.411631","Longitude":"28.369885","Population":4043263},{"Date":"2020-03-31","Key":"ME","Confirmed":91,"Deaths":1,"CountryCode":"ME","CountryName":"Montenegro","Latitude":"42.708678","Longitude":"19.374390","Population":627987},{"Date":"2020-03-31","Key":"MG","Confirmed":44,"Deaths":0,"CountryCode":"MG","CountryName":"Madagascar","Latitude":"-18.766947","Longitude":"46.869107","Population":26969307},{"Date":"2020-03-31","Key":"MK","Confirmed":285,"Deaths":7,"CountryCode":"MK","CountryName":"Macedonia","Latitude":"41.608635","Longitude":"21.745275","Population":2083459},{"Date":"2020-03-31","Key":"ML","Confirmed":18,"Deaths":0,"CountryCode":"ML","CountryName":"Mali","Latitude":"17.570692","Longitude":"-3.996166","Population":19658031},{"Date":"2020-03-31","Key":"MM","Confirmed":14,"Deaths":0,"CountryCode":"MM","CountryName":"Myanmar","Latitude":"21.913965","Longitude":"95.956223","Population":54045420},{"Date":"2020-03-31","Key":"MN","Confirmed":12,"Deaths":0,"CountryCode":"MN","CountryName":"Mongolia","Latitude":"46.862496","Longitude":"103.846656","Population":3225167},{"Date":"2020-03-31","Key":"MP","Confirmed":2,"Deaths":0,"CountryCode":"MP","CountryName":"Northern Mariana Islands","Latitude":"17.330830","Longitude":"145.384690","Population":56188},{"Date":"2020-03-31","Key":"MR","Confirmed":5,"Deaths":0,"CountryCode":"MR","CountryName":"Mauritania","Latitude":"21.007890","Longitude":"-10.940835","Population":4525696},{"Date":"2020-03-31","Key":"MS","Confirmed":5,"Deaths":0,"CountryCode":"MS","CountryName":"Montserrat","Latitude":"16.742498","Longitude":"-62.187366","Population":4989},{"Date":"2020-03-31","Key":"MT","Confirmed":156,"Deaths":0,"CountryCode":"MT","CountryName":"Malta","Latitude":"35.937496","Longitude":"14.375416","Population":440372},{"Date":"2020-03-31","Key":"MU","Confirmed":128,"Deaths":3,"CountryCode":"MU","CountryName":"Mauritius","Latitude":"-20.348404","Longitude":"57.552152","Population":1198575},{"Date":"2020-03-31","Key":"MV","Confirmed":17,"Deaths":0,"CountryCode":"MV","CountryName":"Maldives","Latitude":"3.202778","Longitude":"73.220680","Population":530953},{"Date":"2020-03-31","Key":"MX","Confirmed":1094,"Deaths":28,"CountryCode":"MX","CountryName":"Mexico","Latitude":"23.634501","Longitude":"-102.552784","Population":127575529},{"Date":"2020-03-31","Key":"MY","Confirmed":2626,"Deaths":37,"CountryCode":"MY","CountryName":"Malaysia","Latitude":"4.210484","Longitude":"101.975766","Population":31949777},{"Date":"2020-03-31","Key":"MZ","Confirmed":8,"Deaths":0,"CountryCode":"MZ","CountryName":"Mozambique","Latitude":"-18.665695","Longitude":"35.529562","Population":30366036},{"Date":"2020-03-31","Key":"NC","Confirmed":16,"Deaths":0,"CountryCode":"NC","CountryName":"New Caledonia","Latitude":"-20.904305","Longitude":"165.618042","Population":282750},{"Date":"2020-03-31","Key":"NE","Confirmed":20,"Deaths":3,"CountryCode":"NE","CountryName":"Niger","Latitude":"17.607789","Longitude":"8.081666","Population":23310715},{"Date":"2020-03-31","Key":"NG","Confirmed":131,"Deaths":2,"CountryCode":"NG","CountryName":"Nigeria","Latitude":"9.081999","Longitude":"8.675277","Population":200963599},{"Date":"2020-03-31","Key":"NI","Confirmed":4,"Deaths":2,"CountryCode":"NI","CountryName":"Nicaragua","Latitude":"12.865416","Longitude":"-85.207229","Population":6545502},{"Date":"2020-03-31","Key":"NL","Confirmed":11750,"Deaths":864,"CountryCode":"NL","CountryName":"Netherlands","Latitude":"52.132633","Longitude":"5.291266","Population":17097130},{"Date":"2020-03-31","Key":"NO","Confirmed":4226,"Deaths":26,"CountryCode":"NO","CountryName":"Norway","Latitude":"60.472024","Longitude":"8.468946","Population":5378857},{"Date":"2020-03-31","Key":"NP","Confirmed":5,"Deaths":0,"CountryCode":"NP","CountryName":"Nepal","Latitude":"28.394857","Longitude":"84.124008","Population":28608710},{"Date":"2020-03-31","Key":"NZ","Confirmed":647,"Deaths":1,"CountryCode":"NZ","CountryName":"New Zealand","Latitude":"-40.900557","Longitude":"174.885971","Population":4783063},{"Date":"2020-03-31","Key":"OM","Confirmed":179,"Deaths":0,"CountryCode":"OM","CountryName":"Oman","Latitude":"21.512583","Longitude":"55.923255","Population":4974986},{"Date":"2020-03-31","Key":"PA","Confirmed":1075,"Deaths":26,"CountryCode":"PA","CountryName":"Panama","Latitude":"8.537981","Longitude":"-80.782127","Population":4246439},{"Date":"2020-03-31","Key":"PE","Confirmed":950,"Deaths":24,"CountryCode":"PE","CountryName":"Peru","Latitude":"-9.189967","Longitude":"-75.015152","Population":32510453},{"Date":"2020-03-31","Key":"PF","Confirmed":36,"Deaths":0,"CountryCode":"PF","CountryName":"French Polynesia","Latitude":"-17.679742","Longitude":"-149.406843","Population":279287},{"Date":"2020-03-31","Key":"PG","Confirmed":1,"Deaths":0,"CountryCode":"PG","CountryName":"Papua New Guinea","Latitude":"-6.314993","Longitude":"143.955550","Population":8776109},{"Date":"2020-03-31","Key":"PH","Confirmed":2084,"Deaths":88,"CountryCode":"PH","CountryName":"Philippines","Latitude":"12.879721","Longitude":"121.774017","Population":108116615},{"Date":"2020-03-31","Key":"PK","Confirmed":1625,"Deaths":18,"CountryCode":"PK","CountryName":"Pakistan","Latitude":"30.375321","Longitude":"69.345116","Population":216565318},{"Date":"2020-03-31","Key":"PL","Confirmed":2055,"Deaths":31,"CountryCode":"PL","CountryName":"Poland","Latitude":"51.919438","Longitude":"19.145136","Population":37887768},{"Date":"2020-03-31","Key":"PR","Confirmed":174,"Deaths":6,"CountryCode":"PR","CountryName":"Puerto Rico","Latitude":"18.220833","Longitude":"-66.590149","Population":2933408},{"Date":"2020-03-31","Key":"PS","Confirmed":115,"Deaths":1,"CountryCode":"PS","CountryName":"Palestine","Latitude":"31.952162","Longitude":"35.233154","Population":4981420},{"Date":"2020-03-31","Key":"PT","Confirmed":6408,"Deaths":140,"CountryCode":"PT","CountryName":"Portugal","Latitude":"39.399872","Longitude":"-8.224454","Population":10226187},{"Date":"2020-03-31","Key":"PY","Confirmed":65,"Deaths":3,"CountryCode":"PY","CountryName":"Paraguay","Latitude":"-23.442503","Longitude":"-58.443832","Population":7044636},{"Date":"2020-03-31","Key":"QA","Confirmed":693,"Deaths":1,"CountryCode":"QA","CountryName":"Qatar","Latitude":"25.354826","Longitude":"51.183884","Population":2832067},{"Date":"2020-03-31","Key":"RO","Confirmed":1952,"Deaths":44,"CountryCode":"RO","CountryName":"Romania","Latitude":"45.943161","Longitude":"24.966760","Population":19364557},{"Date":"2020-03-31","Key":"RS","Confirmed":741,"Deaths":13,"CountryCode":"RS","CountryName":"Serbia","Latitude":"44.016521","Longitude":"21.005859","Population":8772235},{"Date":"2020-03-31","Key":"RU","Confirmed":1836,"Deaths":10,"CountryCode":"RU","CountryName":"Russia","Latitude":"61.524010","Longitude":"105.318756","Population":145872256},{"Date":"2020-03-31","Key":"RW","Confirmed":70,"Deaths":0,"CountryCode":"RW","CountryName":"Rwanda","Latitude":"-1.940278","Longitude":"29.873888","Population":12626950},{"Date":"2020-03-31","Key":"SA","Confirmed":1453,"Deaths":8,"CountryCode":"SA","CountryName":"Saudi Arabia","Latitude":"23.885942","Longitude":"45.079162","Population":34268528},{"Date":"2020-03-31","Key":"SC","Confirmed":10,"Deaths":0,"CountryCode":"SC","CountryName":"Seychelles","Latitude":"-4.679574","Longitude":"55.491977","Population":97739},{"Date":"2020-03-31","Key":"SD","Confirmed":6,"Deaths":2,"CountryCode":"SD","CountryName":"Sudan","Latitude":"12.862807","Longitude":"30.217636","Population":42813238},{"Date":"2020-03-31","Key":"SE","Confirmed":4028,"Deaths":146,"CountryCode":"SE","CountryName":"Sweden","Latitude":"60.128161","Longitude":"18.643501","Population":10036379},{"Date":"2020-03-31","Key":"SG","Confirmed":844,"Deaths":3,"CountryCode":"SG","CountryName":"Singapore","Latitude":"1.352083","Longitude":"103.819836","Population":5804337},{"Date":"2020-03-31","Key":"SI","Confirmed":763,"Deaths":11,"CountryCode":"SI","CountryName":"Slovenia","Latitude":"46.151241","Longitude":"14.995463","Population":2078654},{"Date":"2020-03-31","Key":"SK","Confirmed":336,"Deaths":0,"CountryCode":"SK","CountryName":"Slovakia","Latitude":"48.669026","Longitude":"19.699024","Population":5457013},{"Date":"2020-03-31","Key":"SM","Confirmed":229,"Deaths":25,"CountryCode":"SM","CountryName":"San Marino","Latitude":"43.942360","Longitude":"12.457777","Population":33860},{"Date":"2020-03-31","Key":"SN","Confirmed":162,"Deaths":0,"CountryCode":"SN","CountryName":"Senegal","Latitude":"14.497401","Longitude":"-14.452362","Population":16296364},{"Date":"2020-03-31","Key":"SO","Confirmed":3,"Deaths":0,"CountryCode":"SO","CountryName":"Somalia","Latitude":"5.152149","Longitude":"46.199616","Population":15442905},{"Date":"2020-03-31","Key":"SR","Confirmed":8,"Deaths":0,"CountryCode":"SR","CountryName":"Suriname","Latitude":"3.919305","Longitude":"-56.027783","Population":581372},{"Date":"2020-03-31","Key":"SV","Confirmed":32,"Deaths":0,"CountryCode":"SV","CountryName":"El Salvador","Latitude":"13.794185","Longitude":"-88.896530","Population":6453553},{"Date":"2020-03-31","Key":"SY","Confirmed":10,"Deaths":2,"CountryCode":"SY","CountryName":"Syria","Latitude":"34.802075","Longitude":"38.996815","Population":17070135},{"Date":"2020-03-31","Key":"SZ","Confirmed":9,"Deaths":0,"CountryCode":"SZ","CountryName":"Swaziland","Latitude":"-26.522503","Longitude":"31.465866","Population":1148130},{"Date":"2020-03-31","Key":"TC","Confirmed":5,"Deaths":0,"CountryCode":"TC","CountryName":"Turks and Caicos Islands","Latitude":"21.694025","Longitude":"-71.797928","Population":38191},{"Date":"2020-03-31","Key":"TD","Confirmed":7,"Deaths":0,"CountryCode":"TD","CountryName":"Chad","Latitude":"15.454166","Longitude":"18.732207","Population":15946876},{"Date":"2020-03-31","Key":"TG","Confirmed":34,"Deaths":1,"CountryCode":"TG","CountryName":"Togo","Latitude":"8.619543","Longitude":"0.824782","Population":8082366},{"Date":"2020-03-31","Key":"TH","Confirmed":1651,"Deaths":10,"CountryCode":"TH","CountryName":"Thailand","Latitude":"15.870032","Longitude":"100.992541","Population":69037513},{"Date":"2020-03-31","Key":"TL","Confirmed":1,"Deaths":0,"CountryCode":"TL","CountryName":"East Timor","Latitude":"-8.874217","Longitude":"125.727539","Population":1293119},{"Date":"2020-03-31","Key":"TN","Confirmed":312,"Deaths":8,"CountryCode":"TN","CountryName":"Tunisia","Latitude":"33.886917","Longitude":"9.537499","Population":11694719},{"Date":"2020-03-31","Key":"TR","Confirmed":11535,"Deaths":168,"CountryCode":"TR","CountryName":"Turkey","Latitude":"38.963745","Longitude":"35.243322","Population":83429615},{"Date":"2020-03-31","Key":"TT","Confirmed":85,"Deaths":3,"CountryCode":"TT","CountryName":"Trinidad and Tobago","Latitude":"10.691803","Longitude":"-61.222503","Population":1394973},{"Date":"2020-03-31","Key":"TW","Confirmed":306,"Deaths":5,"CountryCode":"TW","CountryName":"Taiwan","Latitude":"23.697810","Longitude":"120.960515","Population":23773876},{"Date":"2020-03-31","Key":"TZ","Confirmed":19,"Deaths":1,"CountryCode":"TZ","CountryName":"Tanzania","Latitude":"-6.369028","Longitude":"34.888822","Population":58005463},{"Date":"2020-03-31","Key":"UA","Confirmed":480,"Deaths":11,"CountryCode":"UA","CountryName":"Ukraine","Latitude":"48.379433","Longitude":"31.165580","Population":43993638},{"Date":"2020-03-31","Key":"UG","Confirmed":33,"Deaths":0,"CountryCode":"UG","CountryName":"Uganda","Latitude":"1.373333","Longitude":"32.290275","Population":44269594},{"Date":"2020-03-31","Key":"US","Confirmed":164620,"Deaths":3170,"CountryCode":"US","CountryName":"United States of America","Latitude":"37.090240","Longitude":"-95.712891","Population":329064917},{"Date":"2020-03-31","Key":"UY","Confirmed":320,"Deaths":1,"CountryCode":"UY","CountryName":"Uruguay","Latitude":"-32.522779","Longitude":"-55.765835","Population":3461734},{"Date":"2020-03-31","Key":"UZ","Confirmed":149,"Deaths":2,"CountryCode":"UZ","CountryName":"Uzbekistan","Latitude":"41.377491","Longitude":"64.585262","Population":32981716},{"Date":"2020-03-31","Key":"VA","Confirmed":6,"Deaths":0,"CountryCode":"VA","CountryName":"Vatican City","Latitude":"41.902916","Longitude":"12.453389","Population":799},{"Date":"2020-03-31","Key":"VC","Confirmed":1,"Deaths":0,"CountryCode":"VC","CountryName":"Saint Vincent and the Grenadines","Latitude":"12.984305","Longitude":"-61.287228","Population":110589},{"Date":"2020-03-31","Key":"VE","Confirmed":135,"Deaths":3,"CountryCode":"VE","CountryName":"Venezuela","Latitude":"6.423750","Longitude":"-66.589730","Population":28515829},{"Date":"2020-03-31","Key":"VG","Confirmed":3,"Deaths":0,"CountryCode":"VG","CountryName":"British Virgin Islands","Latitude":"18.420695","Longitude":"-64.639968","Population":30030},{"Date":"2020-03-31","Key":"VN","Confirmed":229,"Deaths":0,"CountryCode":"VN","CountryName":"Vietnam","Latitude":"14.058324","Longitude":"108.277199","Population":96462106},{"Date":"2020-03-31","Key":"XK","Confirmed":106,"Deaths":1,"CountryCode":"XK","CountryName":"Kosovo","Latitude":"42.602636","Longitude":"20.902977","Population":null},{"Date":"2020-03-31","Key":"ZA","Confirmed":1326,"Deaths":3,"CountryCode":"ZA","CountryName":"South Africa","Latitude":"-30.559482","Longitude":"22.937506","Population":58558270},{"Date":"2020-03-31","Key":"ZM","Confirmed":35,"Deaths":0,"CountryCode":"ZM","CountryName":"Zambia","Latitude":"-13.133897","Longitude":"27.849332","Population":17861030},{"Date":"2020-03-31","Key":"ZW","Confirmed":7,"Deaths":1,"CountryCode":"ZW","CountryName":"Zimbabwe","Latitude":"-19.015438","Longitude":"29.154857","Population":14645468},{"Date":"2020-04-01","Key":"ES","Confirmed":94417,"Deaths":8189,"CountryCode":"ES","CountryName":"Spain","Latitude":"40.463667","Longitude":"-3.749220","Population":46736776},{"Date":"2020-04-01","Key":"IT","Confirmed":105792,"Deaths":12428,"CountryCode":"IT","CountryName":"Italy","Latitude":"41.871940","Longitude":"12.567380","Population":60550075}]