[{"Date":"2020-05-15","Key":"AD","CountryCode":"AD","CountryName":"Andorra","Confirmed":761.0,"Deaths":49.0,"Latitude":"42.546245","Longitude":"1.601554","Population":77142},{"Date":"2020-05-15","Key":"AE","CountryCode":"AE","CountryName":"United Arab Emirates","Confirmed":21831.0,"Deaths":210.0,"Latitude":"23.424076","Longitude":"53.847818","Population":9770529},{"Date":"2020-05-15","Key":"AF","CountryCode":"AF","CountryName":"Afghanistan","Confirmed":6402.0,"Deaths":168.0,"Latitude":"33.939110","Longitude":"67.709953","Population":38041754},{"Date":"2020-05-15","Key":"AG","CountryCode":"AG","CountryName":"Antigua and Barbuda","Confirmed":25.0,"Deaths":3.0,"Latitude":"17.060816","Longitude":"-61.796428","Population":97118},{"Date":"2020-05-15","Key":"AI","CountryCode":"AI","CountryName":"Anguilla","Confirmed":3.0,"Deaths":0.0,"Latitude":"18.220554","Longitude":"-63.068615","Population":14869},{"Date":"2020-05-15","Key":"AL","CountryCode":"AL","CountryName":"Albania","Confirmed":916.0,"Deaths":31.0,"Latitude":"41.153332","Longitude":"20.168331","Population":2880917},{"Date":"2020-05-15","Key":"AM","CountryCode":"AM","CountryName":"Armenia","Confirmed":4044.0,"Deaths":52.0,"Latitude":"40.069099","Longitude":"45.038189","Population":2957731},{"Date":"2020-05-15","Key":"AO","CountryCode":"AO","CountryName":"Angola","Confirmed":48.0,"Deaths":2.0,"Latitude":"-11.202692","Longitude":"17.873887","Population":31825295},{"Date":"2020-05-15","Key":"AR","CountryCode":"AR","CountryName":"Argentina","Confirmed":7466.0,"Deaths":356.0,"Latitude":"-38.416097","Longitude":"-63.616672","Population":44780677},{"Date":"2020-05-15","Key":"AT","CountryCode":"AT","CountryName":"Austria","Confirmed":16068.0,"Deaths":628.0,"Latitude":"47.516231","Longitude":"14.550072","Population":8955102},{"Date":"2020-05-15","Key":"AU","CountryCode":"AU","CountryName":"Australia","Confirmed":7019.0,"Deaths":98.0,"Latitude":"-25.274398","Longitude":"133.775136","Population":25203198},{"Date":"2020-05-15","Key":"AW","CountryCode":"AW","CountryName":"Aruba","Confirmed":101.0,"Deaths":3.0,"Latitude":"12.521110","Longitude":"-69.968338","Population":106314},{"Date":"2020-05-15","Key":"AZ","CountryCode":"AZ","CountryName":"Azerbaijan","Confirmed":2980.0,"Deaths":36.0,"Latitude":"40.143105","Longitude":"47.576927","Population":10047718},{"Date":"2020-05-15","Key":"BA","CountryCode":"BA","CountryName":"Bosnia and Herzegovina","Confirmed":2237.0,"Deaths":127.0,"Latitude":"43.915886","Longitude":"17.679076","Population":3301000},{"Date":"2020-05-15","Key":"BB","CountryCode":"BB","CountryName":"Barbados","Confirmed":85.0,"Deaths":7.0,"Latitude":"13.193887","Longitude":"-59.543198","Population":287025},{"Date":"2020-05-15","Key":"BD","CountryCode":"BD","CountryName":"Bangladesh","Confirmed":20065.0,"Deaths":298.0,"Latitude":"23.684994","Longitude":"90.356331","Population":163046161},{"Date":"2020-05-15","Key":"BE","CountryCode":"BE","CountryName":"Belgium","Confirmed":54644.0,"Deaths":8959.0,"Latitude":"50.503887","Longitude":"4.469936","Population":11539328},{"Date":"2020-05-15","Key":"BF","CountryCode":"BF","CountryName":"Burkina Faso","Confirmed":782.0,"Deaths":51.0,"Latitude":"12.238333","Longitude":"-1.561593","Population":20321378},{"Date":"2020-05-15","Key":"BG","CountryCode":"BG","CountryName":"Bulgaria","Confirmed":2138.0,"Deaths":102.0,"Latitude":"42.733883","Longitude":"25.485830","Population":7000119},{"Date":"2020-05-15","Key":"BH","CountryCode":"BH","CountryName":"Bahrain","Confirmed":6583.0,"Deaths":12.0,"Latitude":"25.930414","Longitude":"50.637772","Population":1641172},{"Date":"2020-05-15","Key":"BI","CountryCode":"BI","CountryName":"Burundi","Confirmed":27.0,"Deaths":1.0,"Latitude":"-3.373056","Longitude":"29.918886","Population":10864245},{"Date":"2020-05-15","Key":"BJ","CountryCode":"BJ","CountryName":"Benin","Confirmed":339.0,"Deaths":2.0,"Latitude":"9.307690","Longitude":"2.315834","Population":11801151},{"Date":"2020-05-15","Key":"BM","CountryCode":"BM","CountryName":"Bermuda","Confirmed":123.0,"Deaths":9.0,"Latitude":"32.321384","Longitude":"-64.757370","Population":62506},{"Date":"2020-05-15","Key":"BN","CountryCode":"BN","CountryName":"Brunei","Confirmed":141.0,"Deaths":1.0,"Latitude":"4.535277","Longitude":"114.727669","Population":433285},{"Date":"2020-05-15","Key":"BO","CountryCode":"BO","CountryName":"Bolivia","Confirmed":3577.0,"Deaths":164.0,"Latitude":"-16.290154","Longitude":"-63.588653","Population":11513100},{"Date":"2020-05-15","Key":"BQ","CountryCode":"BQ","CountryName":"Caribbean Netherlands","Confirmed":6.0,"Deaths":0.0,"Latitude":null,"Longitude":null,"Population":null},{"Date":"2020-05-15","Key":"BR","CountryCode":"BR","CountryName":"Brazil","Confirmed":218223.0,"Deaths":14817.0,"Latitude":"-14.235004","Longitude":"-51.925280","Population":211049527},{"Date":"2020-05-15","Key":"BS","CountryCode":"BS","CountryName":"Bahamas","Confirmed":96.0,"Deaths":11.0,"Latitude":"25.034280","Longitude":"-77.396280","Population":389482},{"Date":"2020-05-15","Key":"BT","CountryCode":"BT","CountryName":"Bhutan","Confirmed":21.0,"Deaths":0.0,"Latitude":"27.514162","Longitude":"90.433601","Population":763092},{"Date":"2020-05-15","Key":"BW","CountryCode":"BW","CountryName":"Botswana","Confirmed":24.0,"Deaths":1.0,"Latitude":"-22.328474","Longitude":"24.684866","Population":2303697},{"Date":"2020-05-15","Key":"BY","CountryCode":"BY","CountryName":"Belarus","Confirmed":27730.0,"Deaths":156.0,"Latitude":"53.709807","Longitude":"27.953389","Population":9452411},{"Date":"2020-05-15","Key":"BZ","CountryCode":"BZ","CountryName":"Belize","Confirmed":18.0,"Deaths":2.0,"Latitude":"17.189877","Longitude":"-88.497650","Population":390353},{"Date":"2020-05-15","Key":"CA","CountryCode":"CA","CountryName":"Canada","Confirmed":74602.0,"Deaths":5562.0,"Latitude":"56.130366","Longitude":"-106.346771","Population":37411047},{"Date":"2020-05-15","Key":"CD","CountryCode":"CD","CountryName":"Democratic Republic of the Congo","Confirmed":1369.0,"Deaths":61.0,"Latitude":"-4.038333","Longitude":"21.758664","Population":86790567},{"Date":"2020-05-15","Key":"CF","CountryCode":"CF","CountryName":"Central African Republic","Confirmed":301.0,"Deaths":0.0,"Latitude":"6.611111","Longitude":"20.939444","Population":4745185},{"Date":"2020-05-15","Key":"CG","CountryCode":"CG","CountryName":"Republic of the Congo","Confirmed":391.0,"Deaths":15.0,"Latitude":"-0.228021","Longitude":"15.827659","Population":5380508},{"Date":"2020-05-15","Key":"CH","CountryCode":"CH","CountryName":"Switzerland","Confirmed":30431.0,"Deaths":1594.0,"Latitude":"46.818188","Longitude":"8.227512","Population":8591365},{"Date":"2020-05-15","Key":"CI","CountryCode":"CI","CountryName":"Ivory Coast","Confirmed":2017.0,"Deaths":24.0,"Latitude":"7.539989","Longitude":"-5.547080","Population":25716544},{"Date":"2020-05-15","Key":"CL","CountryCode":"CL","CountryName":"Chile","Confirmed":39542.0,"Deaths":394.0,"Latitude":"-35.675147","Longitude":"-71.542969","Population":18952038},{"Date":"2020-05-15","Key":"CM","CountryCode":"CM","CountryName":"Cameroon","Confirmed":3105.0,"Deaths":140.0,"Latitude":"7.369722","Longitude":"12.354722","Population":25876380},{"Date":"2020-05-15","Key":"CN","CountryCode":"CN","CountryName":"China","Confirmed":84038.0,"Deaths":4637.0,"Latitude":"35.861660","Longitude":"104.195397","Population":1433783686},{"Date":"2020-05-15","Key":"CO","CountryCode":"CO","CountryName":"Colombia","Confirmed":14216.0,"Deaths":546.0,"Latitude":"4.570868","Longitude":"-74.297333","Population":50339443},{"Date":"2020-05-15","Key":"CR","CountryCode":"CR","CountryName":"Costa Rica","Confirmed":843.0,"Deaths":8.0,"Latitude":"9.748917","Longitude":"-83.753428","Population":5047561},{"Date":"2020-05-15","Key":"CU","CountryCode":"CU","CountryName":"Cuba","Confirmed":1840.0,"Deaths":79.0,"Latitude":"21.521757","Longitude":"-77.781167","Population":11333483},{"Date":"2020-05-15","Key":"CV","CountryCode":"CV","CountryName":"Cape Verde","Confirmed":326.0,"Deaths":2.0,"Latitude":"16.002082","Longitude":"-24.013197","Population":549935},{"Date":"2020-05-15","Key":"CW","CountryCode":"CW","CountryName":"Curaçao","Confirmed":16.0,"Deaths":1.0,"Latitude":null,"Longitude":null,"Population":null},{"Date":"2020-05-15","Key":"CY","CountryCode":"CY","CountryName":"Cyprus","Confirmed":910.0,"Deaths":17.0,"Latitude":"35.126413","Longitude":"33.429859","Population":1179551},{"Date":"2020-05-15","Key":"CZ","CountryCode":"CZ","CountryName":"Czech Republic","Confirmed":8406.0,"Deaths":295.0,"Latitude":"49.817492","Longitude":"15.472962","Population":10689209},{"Date":"2020-05-15","Key":"DE","CountryCode":"DE","CountryName":"Germany","Confirmed":173772.0,"Deaths":7881.0,"Latitude":"51.165691","Longitude":"10.451526","Population":83517045},{"Date":"2020-05-15","Key":"DJ","CountryCode":"DJ","CountryName":"Djibouti","Confirmed":1309.0,"Deaths":4.0,"Latitude":"11.825138","Longitude":"42.590275","Population":973560},{"Date":"2020-05-15","Key":"DK","CountryCode":"DK","CountryName":"Denmark","Confirmed":10791.0,"Deaths":537.0,"Latitude":"56.263920","Longitude":"9.501785","Population":5771876},{"Date":"2020-05-15","Key":"DM","CountryCode":"DM","CountryName":"Dominica","Confirmed":16.0,"Deaths":0.0,"Latitude":"15.414999","Longitude":"-61.370976","Population":71808},{"Date":"2020-05-15","Key":"DO","CountryCode":"DO","CountryName":"Dominican Republic","Confirmed":11739.0,"Deaths":424.0,"Latitude":"18.735693","Longitude":"-70.162651","Population":10738958},{"Date":"2020-05-15","Key":"DZ","CountryCode":"DZ","CountryName":"Algeria","Confirmed":6629.0,"Deaths":536.0,"Latitude":"28.033886","Longitude":"1.659626","Population":43053054},{"Date":"2020-05-15","Key":"EC","CountryCode":"EC","CountryName":"Ecuador","Confirmed":31467.0,"Deaths":2594.0,"Latitude":"-1.831239","Longitude":"-78.183406","Population":17373662},{"Date":"2020-05-15","Key":"EE","CountryCode":"EE","CountryName":"Estonia","Confirmed":1766.0,"Deaths":63.0,"Latitude":"58.595272","Longitude":"25.013607","Population":1325648},{"Date":"2020-05-15","Key":"EG","CountryCode":"EG","CountryName":"Egypt","Confirmed":11228.0,"Deaths":592.0,"Latitude":"26.820553","Longitude":"30.802498","Population":100388073},{"Date":"2020-05-15","Key":"EH","CountryCode":"EH","CountryName":"Western Sahara","Confirmed":6.0,"Deaths":0.0,"Latitude":"24.215527","Longitude":"-12.885834","Population":582463},{"Date":"2020-05-15","Key":"ER","CountryCode":"ER","CountryName":"Eritrea","Confirmed":39.0,"Deaths":0.0,"Latitude":"15.179384","Longitude":"39.782334","Population":3497117},{"Date":"2020-05-15","Key":"ET","CountryCode":"ET","CountryName":"Ethiopia","Confirmed":287.0,"Deaths":5.0,"Latitude":"9.145000","Longitude":"40.489673","Population":112078730},{"Date":"2020-05-15","Key":"FI","CountryCode":"FI","CountryName":"Finland","Confirmed":6228.0,"Deaths":293.0,"Latitude":"61.924110","Longitude":"25.748151","Population":5532156},{"Date":"2020-05-15","Key":"FK","CountryCode":"FK","CountryName":"Falkland Islands","Confirmed":13.0,"Deaths":0.0,"Latitude":"-51.796253","Longitude":"-59.523613","Population":3377},{"Date":"2020-05-15","Key":"FO","CountryCode":"FO","CountryName":"Faroe Islands","Confirmed":187.0,"Deaths":0.0,"Latitude":"61.892635","Longitude":"-6.911806","Population":48678},{"Date":"2020-05-15","Key":"FR","CountryCode":"FR","CountryName":"France","Confirmed":141919.0,"Deaths":27529.0,"Latitude":"46.227638","Longitude":"2.213749","Population":65129728},{"Date":"2020-05-15","Key":"GA","CountryCode":"GA","CountryName":"Gabon","Confirmed":1209.0,"Deaths":10.0,"Latitude":"-0.803689","Longitude":"11.609444","Population":2172579},{"Date":"2020-05-15","Key":"GB","CountryCode":"GB","CountryName":"United Kingdom","Confirmed":236711.0,"Deaths":33998.0,"Latitude":"55.378051","Longitude":"-3.435973","Population":67530172},{"Date":"2020-05-15","Key":"GD","CountryCode":"GD","CountryName":"Grenada","Confirmed":22.0,"Deaths":0.0,"Latitude":"12.262776","Longitude":"-61.604171","Population":112003},{"Date":"2020-05-15","Key":"GE","CountryCode":"GE","CountryName":"Georgia","Confirmed":671.0,"Deaths":12.0,"Latitude":"42.315407","Longitude":"43.356892","Population":3996765},{"Date":"2020-05-15","Key":"GG","CountryCode":"GG","CountryName":"Guernsey","Confirmed":252.0,"Deaths":13.0,"Latitude":"49.465691","Longitude":"-2.585278","Population":172259},{"Date":"2020-05-15","Key":"GH","CountryCode":"GH","CountryName":"Ghana","Confirmed":5638.0,"Deaths":28.0,"Latitude":"7.946527","Longitude":"-1.023194","Population":28833629},{"Date":"2020-05-15","Key":"GI","CountryCode":"GI","CountryName":"Gibraltar","Confirmed":147.0,"Deaths":0.0,"Latitude":"36.137741","Longitude":"-5.345374","Population":33701},{"Date":"2020-05-15","Key":"GL","CountryCode":"GL","CountryName":"Greenland","Confirmed":11.0,"Deaths":0.0,"Latitude":"71.706936","Longitude":"-42.604303","Population":56672},{"Date":"2020-05-15","Key":"GM","CountryCode":"GM","CountryName":"Gambia","Confirmed":23.0,"Deaths":1.0,"Latitude":"13.443182","Longitude":"-15.310139","Population":2347706},{"Date":"2020-05-15","Key":"GN","CountryCode":"GN","CountryName":"Guinea","Confirmed":2531.0,"Deaths":15.0,"Latitude":"9.945587","Longitude":"-9.696645","Population":12771246},{"Date":"2020-05-15","Key":"GQ","CountryCode":"GQ","CountryName":"Equatorial Guinea","Confirmed":594.0,"Deaths":7.0,"Latitude":"1.650801","Longitude":"10.267895","Population":1355986},{"Date":"2020-05-15","Key":"GR","CountryCode":"GR","CountryName":"Greece","Confirmed":2810.0,"Deaths":160.0,"Latitude":"39.074208","Longitude":"21.824312","Population":10473455},{"Date":"2020-05-15","Key":"GT","CountryCode":"GT","CountryName":"Guatemala","Confirmed":1643.0,"Deaths":30.0,"Latitude":"15.783471","Longitude":"-90.230759","Population":17581472},{"Date":"2020-05-15","Key":"GU","CountryCode":"GU","CountryName":"Guam","Confirmed":154.0,"Deaths":5.0,"Latitude":"13.444304","Longitude":"144.793731","Population":167294},{"Date":"2020-05-15","Key":"GW","CountryCode":"GW","CountryName":"Guinea-Bissau","Confirmed":913.0,"Deaths":3.0,"Latitude":"11.803749","Longitude":"-15.180413","Population":1920922},{"Date":"2020-05-15","Key":"GY","CountryCode":"GY","CountryName":"Guyana","Confirmed":116.0,"Deaths":10.0,"Latitude":"4.860416","Longitude":"-58.930180","Population":782766},{"Date":"2020-05-15","Key":"HN","CountryCode":"HN","CountryName":"Honduras","Confirmed":2460.0,"Deaths":134.0,"Latitude":"15.199999","Longitude":"-86.241905","Population":9746117},{"Date":"2020-05-15","Key":"HR","CountryCode":"HR","CountryName":"Croatia","Confirmed":2222.0,"Deaths":95.0,"Latitude":"45.100000","Longitude":"15.200000","Population":4130304},{"Date":"2020-05-15","Key":"HT","CountryCode":"HT","CountryName":"Haiti","Confirmed":310.0,"Deaths":20.0,"Latitude":"18.971187","Longitude":"-72.285215","Population":11263770},{"Date":"2020-05-15","Key":"HU","CountryCode":"HU","CountryName":"Hungary","Confirmed":3473.0,"Deaths":448.0,"Latitude":"47.162494","Longitude":"19.503304","Population":9684679},{"Date":"2020-05-15","Key":"ID","CountryCode":"ID","CountryName":"Indonesia","Confirmed":16496.0,"Deaths":1076.0,"Latitude":"-0.789275","Longitude":"113.921327","Population":270625568},{"Date":"2020-05-15","Key":"IE","CountryCode":"IE","CountryName":"Ireland","Confirmed":23956.0,"Deaths":1518.0,"Latitude":"53.412910","Longitude":"-8.243890","Population":4882495},{"Date":"2020-05-15","Key":"IL","CountryCode":"IL","CountryName":"Israel","Confirmed":16589.0,"Deaths":266.0,"Latitude":"31.046051","Longitude":"34.851612","Population":8519377},{"Date":"2020-05-15","Key":"IM","CountryCode":"IM","CountryName":"Isle of Man","Confirmed":334.0,"Deaths":24.0,"Latitude":"54.236107","Longitude":"-4.548056","Population":84584},{"Date":"2020-05-15","Key":"IN","CountryCode":"IN","CountryName":"India","Confirmed":85940.0,"Deaths":2752.0,"Latitude":"20.593684","Longitude":"78.962880","Population":1366417754},{"Date":"2020-05-15","Key":"IQ","CountryCode":"IQ","CountryName":"Iraq","Confirmed":3193.0,"Deaths":117.0,"Latitude":"33.223191","Longitude":"43.679291","Population":39309783},{"Date":"2020-05-15","Key":"IR","CountryCode":"IR","CountryName":"Iran","Confirmed":116635.0,"Deaths":6902.0,"Latitude":"32.427908","Longitude":"53.688046","Population":82913906},{"Date":"2020-05-15","Key":"IS","CountryCode":"IS","CountryName":"Iceland","Confirmed":1802.0,"Deaths":10.0,"Latitude":"64.963051","Longitude":"-19.020835","Population":339031},{"Date":"2020-05-15","Key":"JE","CountryCode":"JE","CountryName":"Jersey","Confirmed":297.0,"Deaths":27.0,"Latitude":"49.214439","Longitude":"-2.131250","Population":172259},{"Date":"2020-05-15","Key":"JM","CountryCode":"JM","CountryName":"Jamaica","Confirmed":511.0,"Deaths":9.0,"Latitude":"18.109581","Longitude":"-77.297508","Population":2948279},{"Date":"2020-05-15","Key":"JO","CountryCode":"JO","CountryName":"Jordan","Confirmed":596.0,"Deaths":9.0,"Latitude":"30.585164","Longitude":"36.238414","Population":10101694},{"Date":"2020-05-15","Key":"JP","CountryCode":"JP","CountryName":"Japan","Confirmed":16237.0,"Deaths":725.0,"Latitude":"36.204824","Longitude":"138.252924","Population":126860301},{"Date":"2020-05-15","Key":"KE","CountryCode":"KE","CountryName":"Kenya","Confirmed":781.0,"Deaths":45.0,"Latitude":"-0.023559","Longitude":"37.906193","Population":52573973},{"Date":"2020-05-15","Key":"KG","CountryCode":"KG","CountryName":"Kyrgyzstan","Confirmed":1117.0,"Deaths":14.0,"Latitude":"41.204380","Longitude":"74.766098","Population":6415850},{"Date":"2020-05-15","Key":"KH","CountryCode":"KH","CountryName":"Cambodia","Confirmed":122.0,"Deaths":0.0,"Latitude":"12.565679","Longitude":"104.990963","Population":16486542},{"Date":"2020-05-15","Key":"KM","CountryCode":"KM","CountryName":"Comoros","Confirmed":11.0,"Deaths":1.0,"Latitude":"-11.875001","Longitude":"43.872219","Population":850886},{"Date":"2020-05-15","Key":"KN","CountryCode":"KN","CountryName":"Saint Kitts and Nevis","Confirmed":15.0,"Deaths":0.0,"Latitude":"17.357822","Longitude":"-62.782998","Population":52823},{"Date":"2020-05-15","Key":"KR","CountryCode":"KR","CountryName":"South Korea","Confirmed":11037.0,"Deaths":262.0,"Latitude":"35.907757","Longitude":"127.766922","Population":51225308},{"Date":"2020-05-15","Key":"KW","CountryCode":"KW","CountryName":"Kuwait","Confirmed":12860.0,"Deaths":96.0,"Latitude":"29.311660","Longitude":"47.481766","Population":4207083},{"Date":"2020-05-15","Key":"KY","CountryCode":"KY","CountryName":"Cayman Islands","Confirmed":93.0,"Deaths":1.0,"Latitude":"19.513469","Longitude":"-80.566956","Population":64948},{"Date":"2020-05-15","Key":"KZ","CountryCode":"KZ","CountryName":"Kazakhstan","Confirmed":5850.0,"Deaths":34.0,"Latitude":"48.019573","Longitude":"66.923684","Population":18551427},{"Date":"2020-05-15","Key":"LA","CountryCode":"LA","CountryName":"Laos","Confirmed":19.0,"Deaths":0.0,"Latitude":"19.856270","Longitude":"102.495496","Population":7169455},{"Date":"2020-05-15","Key":"LB","CountryCode":"LB","CountryName":"Lebanon","Confirmed":891.0,"Deaths":26.0,"Latitude":"33.854721","Longitude":"35.862285","Population":6855713},{"Date":"2020-05-15","Key":"LC","CountryCode":"LC","CountryName":"Saint Lucia","Confirmed":18.0,"Deaths":0.0,"Latitude":"13.909444","Longitude":"-60.978893","Population":182790},{"Date":"2020-05-15","Key":"LI","CountryCode":"LI","CountryName":"Liechtenstein","Confirmed":83.0,"Deaths":1.0,"Latitude":"47.166000","Longitude":"9.555373","Population":38019},{"Date":"2020-05-15","Key":"LK","CountryCode":"LK","CountryName":"Sri Lanka","Confirmed":935.0,"Deaths":9.0,"Latitude":"7.873054","Longitude":"80.771797","Population":21323733},{"Date":"2020-05-15","Key":"LR","CountryCode":"LR","CountryName":"Liberia","Confirmed":219.0,"Deaths":20.0,"Latitude":"6.428055","Longitude":"-9.429499","Population":4937374},{"Date":"2020-05-15","Key":"LS","CountryCode":"LS","CountryName":"Lesotho","Confirmed":1.0,"Deaths":0.0,"Latitude":"-29.609988","Longitude":"28.233608","Population":2125268},{"Date":"2020-05-15","Key":"LT","CountryCode":"LT","CountryName":"Lithuania","Confirmed":1523.0,"Deaths":54.0,"Latitude":"55.169438","Longitude":"23.881275","Population":2759627},{"Date":"2020-05-15","Key":"LU","CountryCode":"LU","CountryName":"Luxembourg","Confirmed":3923.0,"Deaths":104.0,"Latitude":"49.815273","Longitude":"6.129583","Population":615729},{"Date":"2020-05-15","Key":"LV","CountryCode":"LV","CountryName":"Latvia","Confirmed":970.0,"Deaths":19.0,"Latitude":"56.879635","Longitude":"24.603189","Population":1906743},{"Date":"2020-05-15","Key":"LY","CountryCode":"LY","CountryName":"Libya","Confirmed":64.0,"Deaths":3.0,"Latitude":"26.335100","Longitude":"17.228331","Population":6777452},{"Date":"2020-05-15","Key":"MA","CountryCode":"MA","CountryName":"Morocco","Confirmed":6652.0,"Deaths":190.0,"Latitude":"31.791702","Longitude":"-7.092620","Population":36471769},{"Date":"2020-05-15","Key":"MC","CountryCode":"MC","CountryName":"Monaco","Confirmed":96.0,"Deaths":5.0,"Latitude":"43.750298","Longitude":"7.412841","Population":38964},{"Date":"2020-05-15","Key":"MD","CountryCode":"MD","CountryName":"Moldova","Confirmed":5745.0,"Deaths":197.0,"Latitude":"47.411631","Longitude":"28.369885","Population":4043263},{"Date":"2020-05-15","Key":"ME","CountryCode":"ME","CountryName":"Montenegro","Confirmed":324.0,"Deaths":9.0,"Latitude":"42.708678","Longitude":"19.374390","Population":627987},{"Date":"2020-05-15","Key":"MG","CountryCode":"MG","CountryName":"Madagascar","Confirmed":238.0,"Deaths":0.0,"Latitude":"-18.766947","Longitude":"46.869107","Population":26969307},{"Date":"2020-05-15","Key":"MK","CountryCode":"MK","CountryName":"Macedonia","Confirmed":1740.0,"Deaths":97.0,"Latitude":"41.608635","Longitude":"21.745275","Population":2083459},{"Date":"2020-05-15","Key":"ML","CountryCode":"ML","CountryName":"Mali","Confirmed":806.0,"Deaths":46.0,"Latitude":"17.570692","Longitude":"-3.996166","Population":19658031},{"Date":"2020-05-15","Key":"MM","CountryCode":"MM","CountryName":"Myanmar","Confirmed":182.0,"Deaths":6.0,"Latitude":"21.913965","Longitude":"95.956223","Population":54045420},{"Date":"2020-05-15","Key":"MN","CountryCode":"MN","CountryName":"Mongolia","Confirmed":135.0,"Deaths":0.0,"Latitude":"46.862496","Longitude":"103.846656","Population":3225167},{"Date":"2020-05-15","Key":"MP","CountryCode":"MP","CountryName":"Northern Mariana Islands","Confirmed":19.0,"Deaths":2.0,"Latitude":"17.330830","Longitude":"145.384690","Population":56188},{"Date":"2020-05-15","Key":"MR","CountryCode":"MR","CountryName":"Mauritania","Confirmed":29.0,"Deaths":3.0,"Latitude":"21.007890","Longitude":"-10.940835","Population":4525696},{"Date":"2020-05-15","Key":"MS","CountryCode":"MS","CountryName":"Montserrat","Confirmed":11.0,"Deaths":1.0,"Latitude":"16.742498","Longitude":"-62.187366","Population":4989},{"Date":"2020-05-15","Key":"MT","CountryCode":"MT","CountryName":"Malta","Confirmed":532.0,"Deaths":6.0,"Latitude":"35.937496","Longitude":"14.375416","Population":440372},{"Date":"2020-05-15","Key":"MU","CountryCode":"MU","CountryName":"Mauritius","Confirmed":332.0,"Deaths":10.0,"Latitude":"-20.348404","Longitude":"57.552152","Population":1198575},{"Date":"2020-05-15","Key":"MV","CountryCode":"MV","CountryName":"Maldives","Confirmed":1031.0,"Deaths":4.0,"Latitude":"3.202778","Longitude":"73.220680","Population":530953},{"Date":"2020-05-15","Key":"MW","CountryCode":"MW","CountryName":"Malawi","Confirmed":63.0,"Deaths":3.0,"Latitude":"-13.254308","Longitude":"34.301525","Population":18628747},{"Date":"2020-05-15","Key":"MX","CountryCode":"MX","CountryName":"Mexico","Confirmed":45032.0,"Deaths":4767.0,"Latitude":"23.634501","Longitude":"-102.552784","Population":127575529},{"Date":"2020-05-15","Key":"MY","CountryCode":"MY","CountryName":"Malaysia","Confirmed":6855.0,"Deaths":112.0,"Latitude":"4.210484","Longitude":"101.975766","Population":31949777},{"Date":"2020-05-15","Key":"MZ","CountryCode":"MZ","CountryName":"Mozambique","Confirmed":119.0,"Deaths":0.0,"Latitude":"-18.665695","Longitude":"35.529562","Population":30366036},{"Date":"2020-05-15","Key":"NC","CountryCode":"NC","CountryName":"New Caledonia","Confirmed":18.0,"Deaths":0.0,"Latitude":"-20.904305","Longitude":"165.618042","Population":282750},{"Date":"2020-05-15","Key":"NE","CountryCode":"NE","CountryName":"Niger","Confirmed":885.0,"Deaths":51.0,"Latitude":"17.607789","Longitude":"8.081666","Population":23310715},{"Date":"2020-05-15","Key":"NG","CountryCode":"NG","CountryName":"Nigeria","Confirmed":5445.0,"Deaths":171.0,"Latitude":"9.081999","Longitude":"8.675277","Population":200963599},{"Date":"2020-05-15","Key":"NI","CountryCode":"NI","CountryName":"Nicaragua","Confirmed":25.0,"Deaths":8.0,"Latitude":"12.865416","Longitude":"-85.207229","Population":6545502},{"Date":"2020-05-15","Key":"NL","CountryCode":"NL","CountryName":"Netherlands","Confirmed":43681.0,"Deaths":5643.0,"Latitude":"52.132633","Longitude":"5.291266","Population":17097130},{"Date":"2020-05-15","Key":"NO","CountryCode":"NO","CountryName":"Norway","Confirmed":8197.0,"Deaths":232.0,"Latitude":"60.472024","Longitude":"8.468946","Population":5378857},{"Date":"2020-05-15","Key":"NP","CountryCode":"NP","CountryName":"Nepal","Confirmed":276.0,"Deaths":0.0,"Latitude":"28.394857","Longitude":"84.124008","Population":28608710},{"Date":"2020-05-15","Key":"OM","CountryCode":"OM","CountryName":"Oman","Confirmed":4625.0,"Deaths":19.0,"Latitude":"21.512583","Longitude":"55.923255","Population":4974986},{"Date":"2020-05-15","Key":"PA","CountryCode":"PA","CountryName":"Panama","Confirmed":9268.0,"Deaths":266.0,"Latitude":"8.537981","Longitude":"-80.782127","Population":4246439},{"Date":"2020-05-15","Key":"PE","CountryCode":"PE","CountryName":"Peru","Confirmed":84495.0,"Deaths":2393.0,"Latitude":"-9.189967","Longitude":"-75.015152","Population":32510453},{"Date":"2020-05-15","Key":"PF","CountryCode":"PF","CountryName":"French Polynesia","Confirmed":60.0,"Deaths":0.0,"Latitude":"-17.679742","Longitude":"-149.406843","Population":279287},{"Date":"2020-05-15","Key":"PG","CountryCode":"PG","CountryName":"Papua New Guinea","Confirmed":8.0,"Deaths":0.0,"Latitude":"-6.314993","Longitude":"143.955550","Population":8776109},{"Date":"2020-05-15","Key":"PH","CountryCode":"PH","CountryName":"Philippines","Confirmed":12091.0,"Deaths":806.0,"Latitude":"12.879721","Longitude":"121.774017","Population":108116615},{"Date":"2020-05-15","Key":"PK","CountryCode":"PK","CountryName":"Pakistan","Confirmed":38799.0,"Deaths":834.0,"Latitude":"30.375321","Longitude":"69.345116","Population":216565318},{"Date":"2020-05-15","Key":"PL","CountryCode":"PL","CountryName":"Poland","Confirmed":18016.0,"Deaths":907.0,"Latitude":"51.919438","Longitude":"19.145136","Population":37887768},{"Date":"2020-05-15","Key":"PR","CountryCode":"PR","CountryName":"Puerto Rico","Confirmed":2542.0,"Deaths":122.0,"Latitude":"18.220833","Longitude":"-66.590149","Population":2933408},{"Date":"2020-05-15","Key":"PS","CountryCode":"PS","CountryName":"Palestine","Confirmed":554.0,"Deaths":4.0,"Latitude":"31.952162","Longitude":"35.233154","Population":4981420},{"Date":"2020-05-15","Key":"PT","CountryCode":"PT","CountryName":"Portugal","Confirmed":28583.0,"Deaths":1190.0,"Latitude":"39.399872","Longitude":"-8.224454","Population":10226187},{"Date":"2020-05-15","Key":"PY","CountryCode":"PY","CountryName":"Paraguay","Confirmed":759.0,"Deaths":11.0,"Latitude":"-23.442503","Longitude":"-58.443832","Population":7044636},{"Date":"2020-05-15","Key":"QA","CountryCode":"QA","CountryName":"Qatar","Confirmed":29425.0,"Deaths":14.0,"Latitude":"25.354826","Longitude":"51.183884","Population":2832067},{"Date":"2020-05-15","Key":"RO","CountryCode":"RO","CountryName":"Romania","Confirmed":16437.0,"Deaths":1056.0,"Latitude":"45.943161","Longitude":"24.966760","Population":19364557},{"Date":"2020-05-15","Key":"RS","CountryCode":"RS","CountryName":"Serbia","Confirmed":10438.0,"Deaths":225.0,"Latitude":"44.016521","Longitude":"21.005859","Population":8772235},{"Date":"2020-05-15","Key":"RW","CountryCode":"RW","CountryName":"Rwanda","Confirmed":287.0,"Deaths":0.0,"Latitude":"-1.940278","Longitude":"29.873888","Population":12626950},{"Date":"2020-05-15","Key":"SA","CountryCode":"SA","CountryName":"Saudi Arabia","Confirmed":49176.0,"Deaths":292.0,"Latitude":"23.885942","Longitude":"45.079162","Population":34268528},{"Date":"2020-05-15","Key":"SC","CountryCode":"SC","CountryName":"Seychelles","Confirmed":11.0,"Deaths":0.0,"Latitude":"-4.679574","Longitude":"55.491977","Population":97739},{"Date":"2020-05-15","Key":"SD","CountryCode":"SD","CountryName":"Sudan","Confirmed":1964.0,"Deaths":91.0,"Latitude":"12.862807","Longitude":"30.217636","Population":42813238},{"Date":"2020-05-15","Key":"SE","CountryCode":"SE","CountryName":"Sweden","Confirmed":29207.0,"Deaths":3646.0,"Latitude":"60.128161","Longitude":"18.643501","Population":10036379},{"Date":"2020-05-15","Key":"SG","CountryCode":"SG","CountryName":"Singapore","Confirmed":26891.0,"Deaths":21.0,"Latitude":"1.352083","Longitude":"103.819836","Population":5804337},{"Date":"2020-05-15","Key":"SI","CountryCode":"SI","CountryName":"Slovenia","Confirmed":1465.0,"Deaths":103.0,"Latitude":"46.151241","Longitude":"14.995463","Population":2078654},{"Date":"2020-05-15","Key":"SK","CountryCode":"SK","CountryName":"Slovakia","Confirmed":1480.0,"Deaths":27.0,"Latitude":"48.669026","Longitude":"19.699024","Population":5457013},{"Date":"2020-05-15","Key":"SL","CountryCode":"SL","CountryName":"Sierra Leone","Confirmed":447.0,"Deaths":27.0,"Latitude":"8.460555","Longitude":"-11.779889","Population":7813215},{"Date":"2020-05-15","Key":"SM","CountryCode":"SM","CountryName":"San Marino","Confirmed":652.0,"Deaths":41.0,"Latitude":"43.942360","Longitude":"12.457777","Population":33860},{"Date":"2020-05-15","Key":"SN","CountryCode":"SN","CountryName":"Senegal","Confirmed":2310.0,"Deaths":25.0,"Latitude":"14.497401","Longitude":"-14.452362","Population":16296364},{"Date":"2020-05-15","Key":"SO","CountryCode":"SO","CountryName":"Somalia","Confirmed":1284.0,"Deaths":53.0,"Latitude":"5.152149","Longitude":"46.199616","Population":15442905},{"Date":"2020-05-15","Key":"SR","CountryCode":"SR","CountryName":"Suriname","Confirmed":10.0,"Deaths":1.0,"Latitude":"3.919305","Longitude":"-56.027783","Population":581372},{"Date":"2020-05-15","Key":"SS","CountryCode":"SS","CountryName":"South Sudan","Confirmed":236.0,"Deaths":4.0,"Latitude":null,"Longitude":null,"Population":null},{"Date":"2020-05-15","Key":"ST","CountryCode":"ST","CountryName":"São Tomé and Príncipe","Confirmed":235.0,"Deaths":7.0,"Latitude":"0.186360","Longitude":"6.613081","Population":215056},{"Date":"2020-05-15","Key":"SV","CountryCode":"SV","CountryName":"El Salvador","Confirmed":1265.0,"Deaths":25.0,"Latitude":"13.794185","Longitude":"-88.896530","Population":6453553},{"Date":"2020-05-15","Key":"SX","CountryCode":"SX","CountryName":"Sint Maarten","Confirmed":77.0,"Deaths":15.0,"Latitude":null,"Longitude":null,"Population":null},{"Date":"2020-05-15","Key":"SY","CountryCode":"SY","CountryName":"Syria","Confirmed":50.0,"Deaths":3.0,"Latitude":"34.802075","Longitude":"38.996815","Population":17070135},{"Date":"2020-05-15","Key":"SZ","CountryCode":"SZ","CountryName":"Swaziland","Confirmed":190.0,"Deaths":2.0,"Latitude":"-26.522503","Longitude":"31.465866","Population":1148130},{"Date":"2020-05-15","Key":"TC","CountryCode":"TC","CountryName":"Turks and Caicos Islands","Confirmed":12.0,"Deaths":1.0,"Latitude":"21.694025","Longitude":"-71.797928","Population":38191},{"Date":"2020-05-15","Key":"TD","CountryCode":"TD","CountryName":"Chad","Confirmed":428.0,"Deaths":48.0,"Latitude":"15.454166","Longitude":"18.732207","Population":15946876},{"Date":"2020-05-15","Key":"TG","CountryCode":"TG","CountryName":"Togo","Confirmed":263.0,"Deaths":11.0,"Latitude":"8.619543","Longitude":"0.824782","Population":8082366},{"Date":"2020-05-15","Key":"TH","CountryCode":"TH","CountryName":"Thailand","Confirmed":3025.0,"Deaths":56.0,"Latitude":"15.870032","Longitude":"100.992541","Population":69037513},{"Date":"2020-05-15","Key":"TJ","CountryCode":"TJ","CountryName":"Tajikistan","Confirmed":1118.0,"Deaths":33.0,"Latitude":"38.861034","Longitude":"71.276093","Population":9321018},{"Date":"2020-05-15","Key":"TL","CountryCode":"TL","CountryName":"East Timor","Confirmed":24.0,"Deaths":0.0,"Latitude":"-8.874217","Longitude":"125.727539","Population":1293119},{"Date":"2020-05-15","Key":"TN","CountryCode":"TN","CountryName":"Tunisia","Confirmed":1035.0,"Deaths":45.0,"Latitude":"33.886917","Longitude":"9.537499","Population":11694719},{"Date":"2020-05-15","Key":"TR","CountryCode":"TR","CountryName":"Turkey","Confirmed":146457.0,"Deaths":4055.0,"Latitude":"38.963745","Longitude":"35.243322","Population":83429615},{"Date":"2020-05-15","Key":"TT","CountryCode":"TT","CountryName":"Trinidad and Tobago","Confirmed":116.0,"Deaths":8.0,"Latitude":"10.691803","Longitude":"-61.222503","Population":1394973},{"Date":"2020-05-15","Key":"TW","CountryCode":"TW","CountryName":"Taiwan","Confirmed":440.0,"Deaths":7.0,"Latitude":"23.697810","Longitude":"120.960515","Population":23773876},{"Date":"2020-05-15","Key":"TZ","CountryCode":"TZ","CountryName":"Tanzania","Confirmed":509.0,"Deaths":21.0,"Latitude":"-6.369028","Longitude":"34.888822","Population":58005463},{"Date":"2020-05-15","Key":"UA","CountryCode":"UA","CountryName":"Ukraine","Confirmed":17330.0,"Deaths":483.0,"Latitude":"48.379433","Longitude":"31.165580","Population":43993638},{"Date":"2020-05-15","Key":"UG","CountryCode":"UG","CountryName":"Uganda","Confirmed":203.0,"Deaths":0.0,"Latitude":"1.373333","Longitude":"32.290275","Population":44269594},{"Date":"2020-05-15","Key":"US","CountryCode":"US","CountryName":"United States of America","Confirmed":1443397.0,"Deaths":87568.0,"Latitude":"37.090240","Longitude":"-95.712891","Population":329064917},{"Date":"2020-05-15","Key":"UY","CountryCode":"UY","CountryName":"Uruguay","Confirmed":732.0,"Deaths":19.0,"Latitude":"-32.522779","Longitude":"-55.765835","Population":3461734},{"Date":"2020-05-15","Key":"UZ","CountryCode":"UZ","CountryName":"Uzbekistan","Confirmed":2691.0,"Deaths":11.0,"Latitude":"41.377491","Longitude":"64.585262","Population":32981716},{"Date":"2020-05-15","Key":"VA","CountryCode":"VA","CountryName":"Vatican City","Confirmed":12.0,"Deaths":0.0,"Latitude":"41.902916","Longitude":"12.453389","Population":799},{"Date":"2020-05-15","Key":"VC","CountryCode":"VC","CountryName":"Saint Vincent and the Grenadines","Confirmed":17.0,"Deaths":0.0,"Latitude":"12.984305","Longitude":"-61.287228","Population":110589},{"Date":"2020-05-15","Key":"VE","CountryCode":"VE","CountryName":"Venezuela","Confirmed":459.0,"Deaths":10.0,"Latitude":"6.423750","Longitude":"-66.589730","Population":28515829},{"Date":"2020-05-15","Key":"VG","CountryCode":"VG","CountryName":"British Virgin Islands","Confirmed":8.0,"Deaths":1.0,"Latitude":"18.420695","Longitude":"-64.639968","Population":30030},{"Date":"2020-05-15","Key":"VI","CountryCode":"VI","CountryName":"United States Virgin Islands","Confirmed":69.0,"Deaths":6.0,"Latitude":"18.335765","Longitude":"-64.896335","Population":null},{"Date":"2020-05-15","Key":"VN","CountryCode":"VN","CountryName":"Vietnam","Confirmed":313.0,"Deaths":0.0,"Latitude":"14.058324","Longitude":"108.277199","Population":96462106},{"Date":"2020-05-15","Key":"YE","CountryCode":"YE","CountryName":"Yemen","Confirmed":106.0,"Deaths":15.0,"Latitude":"15.552727","Longitude":"48.516388","Population":29161922},{"Date":"2020-05-15","Key":"ZA","CountryCode":"ZA","CountryName":"South Africa","Confirmed":13524.0,"Deaths":247.0,"Latitude":"-30.559482","Longitude":"22.937506","Population":58558270},{"Date":"2020-05-15","Key":"ZM","CountryCode":"ZM","CountryName":"Zambia","Confirmed":668.0,"Deaths":7.0,"Latitude":"-13.133897","Longitude":"27.849332","Population":17861030},{"Date":"2020-05-15","Key":"ZW","CountryCode":"ZW","CountryName":"Zimbabwe","Confirmed":42.0,"Deaths":4.0,"Latitude":"-19.015438","Longitude":"29.154857","Population":14645468},{"Date":"2020-05-16","Key":"ES","CountryCode":"ES","CountryName":"Spain","Confirmed":276505.0,"Deaths":27563.0,"Latitude":"40.463667","Longitude":"-3.749220","Population":46736776},{"Date":"2020-05-16","Key":"FJ","CountryCode":"FJ","CountryName":"Fiji","Confirmed":18.0,"Deaths":0.0,"Latitude":"-16.578193","Longitude":"179.414413","Population":889953},{"Date":"2020-05-16","Key":"IT","CountryCode":"IT","CountryName":"Italy","Confirmed":224760.0,"Deaths":31763.0,"Latitude":"41.871940","Longitude":"12.567380","Population":60550075},{"Date":"2020-05-16","Key":"NZ","CountryCode":"NZ","CountryName":"New Zealand","Confirmed":1148.0,"Deaths":21.0,"Latitude":"-40.900557","Longitude":"174.885971","Population":4783063},{"Date":"2020-05-16","Key":"RU","CountryCode":"RU","CountryName":"Russia","Confirmed":262843.0,"Deaths":2418.0,"Latitude":"61.524010","Longitude":"105.318756","Population":145872256},{"Date":"2020-05-16","Key":"XK","CountryCode":"XK","CountryName":"Kosovo","Confirmed":944.0,"Deaths":29.0,"Latitude":"42.602636","Longitude":"20.902977","Population":null}]