[{"Date":"2020-04-11","Key":"AD","CountryCode":"AD","CountryName":"Andorra","Confirmed":601.0,"Deaths":26.0,"Latitude":"42.546245","Longitude":"1.601554","Population":77142},{"Date":"2020-04-11","Key":"AE","CountryCode":"AE","CountryName":"United Arab Emirates","Confirmed":3360.0,"Deaths":16.0,"Latitude":"23.424076","Longitude":"53.847818","Population":9770529},{"Date":"2020-04-11","Key":"AF","CountryCode":"AF","CountryName":"Afghanistan","Confirmed":521.0,"Deaths":15.0,"Latitude":"33.939110","Longitude":"67.709953","Population":38041754},{"Date":"2020-04-11","Key":"AG","CountryCode":"AG","CountryName":"Antigua and Barbuda","Confirmed":21.0,"Deaths":2.0,"Latitude":"17.060816","Longitude":"-61.796428","Population":97118},{"Date":"2020-04-11","Key":"AI","CountryCode":"AI","CountryName":"Anguilla","Confirmed":3.0,"Deaths":0.0,"Latitude":"18.220554","Longitude":"-63.068615","Population":14869},{"Date":"2020-04-11","Key":"AL","CountryCode":"AL","CountryName":"Albania","Confirmed":416.0,"Deaths":23.0,"Latitude":"41.153332","Longitude":"20.168331","Population":2880917},{"Date":"2020-04-11","Key":"AM","CountryCode":"AM","CountryName":"Armenia","Confirmed":937.0,"Deaths":11.0,"Latitude":"40.069099","Longitude":"45.038189","Population":2957731},{"Date":"2020-04-11","Key":"AO","CountryCode":"AO","CountryName":"Angola","Confirmed":19.0,"Deaths":2.0,"Latitude":"-11.202692","Longitude":"17.873887","Population":31825295},{"Date":"2020-04-11","Key":"AR","CountryCode":"AR","CountryName":"Argentina","Confirmed":1975.0,"Deaths":82.0,"Latitude":"-38.416097","Longitude":"-63.616672","Population":44780677},{"Date":"2020-04-11","Key":"AT","CountryCode":"AT","CountryName":"Austria","Confirmed":13560.0,"Deaths":319.0,"Latitude":"47.516231","Longitude":"14.550072","Population":8955102},{"Date":"2020-04-11","Key":"AU","CountryCode":"AU","CountryName":"Australia","Confirmed":6238.0,"Deaths":54.0,"Latitude":"-25.274398","Longitude":"133.775136","Population":25203198},{"Date":"2020-04-11","Key":"AW","CountryCode":"AW","CountryName":"Aruba","Confirmed":86.0,"Deaths":0.0,"Latitude":"12.521110","Longitude":"-69.968338","Population":106314},{"Date":"2020-04-11","Key":"AZ","CountryCode":"AZ","CountryName":"Azerbaijan","Confirmed":991.0,"Deaths":10.0,"Latitude":"40.143105","Longitude":"47.576927","Population":10047718},{"Date":"2020-04-11","Key":"BA","CountryCode":"BA","CountryName":"Bosnia and Herzegovina","Confirmed":901.0,"Deaths":37.0,"Latitude":"43.915886","Longitude":"17.679076","Population":3301000},{"Date":"2020-04-11","Key":"BB","CountryCode":"BB","CountryName":"Barbados","Confirmed":67.0,"Deaths":4.0,"Latitude":"13.193887","Longitude":"-59.543198","Population":287025},{"Date":"2020-04-11","Key":"BD","CountryCode":"BD","CountryName":"Bangladesh","Confirmed":424.0,"Deaths":27.0,"Latitude":"23.684994","Longitude":"90.356331","Population":163046161},{"Date":"2020-04-11","Key":"BE","CountryCode":"BE","CountryName":"Belgium","Confirmed":26667.0,"Deaths":3019.0,"Latitude":"50.503887","Longitude":"4.469936","Population":11539328},{"Date":"2020-04-11","Key":"BF","CountryCode":"BF","CountryName":"Burkina Faso","Confirmed":448.0,"Deaths":26.0,"Latitude":"12.238333","Longitude":"-1.561593","Population":20321378},{"Date":"2020-04-11","Key":"BG","CountryCode":"BG","CountryName":"Bulgaria","Confirmed":635.0,"Deaths":25.0,"Latitude":"42.733883","Longitude":"25.485830","Population":7000119},{"Date":"2020-04-11","Key":"BH","CountryCode":"BH","CountryName":"Bahrain","Confirmed":998.0,"Deaths":6.0,"Latitude":"25.930414","Longitude":"50.637772","Population":1641172},{"Date":"2020-04-11","Key":"BI","CountryCode":"BI","CountryName":"Burundi","Confirmed":3.0,"Deaths":0.0,"Latitude":"-3.373056","Longitude":"29.918886","Population":10864245},{"Date":"2020-04-11","Key":"BJ","CountryCode":"BJ","CountryName":"Benin","Confirmed":35.0,"Deaths":1.0,"Latitude":"9.307690","Longitude":"2.315834","Population":11801151},{"Date":"2020-04-11","Key":"BM","CountryCode":"BM","CountryName":"Bermuda","Confirmed":48.0,"Deaths":4.0,"Latitude":"32.321384","Longitude":"-64.757370","Population":62506},{"Date":"2020-04-11","Key":"BN","CountryCode":"BN","CountryName":"Brunei","Confirmed":136.0,"Deaths":1.0,"Latitude":"4.535277","Longitude":"114.727669","Population":433285},{"Date":"2020-04-11","Key":"BO","CountryCode":"BO","CountryName":"Bolivia","Confirmed":276.0,"Deaths":20.0,"Latitude":"-16.290154","Longitude":"-63.588653","Population":11513100},{"Date":"2020-04-11","Key":"BR","CountryCode":"BR","CountryName":"Brazil","Confirmed":19638.0,"Deaths":1056.0,"Latitude":"-14.235004","Longitude":"-51.925280","Population":211049527},{"Date":"2020-04-11","Key":"BS","CountryCode":"BS","CountryName":"Bahamas","Confirmed":42.0,"Deaths":8.0,"Latitude":"25.034280","Longitude":"-77.396280","Population":389482},{"Date":"2020-04-11","Key":"BT","CountryCode":"BT","CountryName":"Bhutan","Confirmed":5.0,"Deaths":0.0,"Latitude":"27.514162","Longitude":"90.433601","Population":763092},{"Date":"2020-04-11","Key":"BW","CountryCode":"BW","CountryName":"Botswana","Confirmed":13.0,"Deaths":1.0,"Latitude":"-22.328474","Longitude":"24.684866","Population":2303697},{"Date":"2020-04-11","Key":"BY","CountryCode":"BY","CountryName":"Belarus","Confirmed":1981.0,"Deaths":19.0,"Latitude":"53.709807","Longitude":"27.953389","Population":9452411},{"Date":"2020-04-11","Key":"BZ","CountryCode":"BZ","CountryName":"Belize","Confirmed":10.0,"Deaths":2.0,"Latitude":"17.189877","Longitude":"-88.497650","Population":390353},{"Date":"2020-04-11","Key":"CA","CountryCode":"CA","CountryName":"Canada","Confirmed":22133.0,"Deaths":569.0,"Latitude":"56.130366","Longitude":"-106.346771","Population":37411047},{"Date":"2020-04-11","Key":"CD","CountryCode":"CD","CountryName":"Democratic Republic of the Congo","Confirmed":223.0,"Deaths":20.0,"Latitude":"-4.038333","Longitude":"21.758664","Population":86790567},{"Date":"2020-04-11","Key":"CF","CountryCode":"CF","CountryName":"Central African Republic","Confirmed":11.0,"Deaths":0.0,"Latitude":"6.611111","Longitude":"20.939444","Population":4745185},{"Date":"2020-04-11","Key":"CG","CountryCode":"CG","CountryName":"Republic of the Congo","Confirmed":60.0,"Deaths":5.0,"Latitude":"-0.228021","Longitude":"15.827659","Population":5380508},{"Date":"2020-04-11","Key":"CH","CountryCode":"CH","CountryName":"Switzerland","Confirmed":24228.0,"Deaths":805.0,"Latitude":"46.818188","Longitude":"8.227512","Population":8591365},{"Date":"2020-04-11","Key":"CI","CountryCode":"CI","CountryName":"Ivory Coast","Confirmed":480.0,"Deaths":3.0,"Latitude":"7.539989","Longitude":"-5.547080","Population":25716544},{"Date":"2020-04-11","Key":"CL","CountryCode":"CL","CountryName":"Chile","Confirmed":6501.0,"Deaths":65.0,"Latitude":"-35.675147","Longitude":"-71.542969","Population":18952038},{"Date":"2020-04-11","Key":"CM","CountryCode":"CM","CountryName":"Cameroon","Confirmed":803.0,"Deaths":10.0,"Latitude":"7.369722","Longitude":"12.354722","Population":25876380},{"Date":"2020-04-11","Key":"CN","CountryCode":"CN","CountryName":"China","Confirmed":83004.0,"Deaths":3343.0,"Latitude":"35.861660","Longitude":"104.195397","Population":1433783686},{"Date":"2020-04-11","Key":"CO","CountryCode":"CO","CountryName":"Colombia","Confirmed":2473.0,"Deaths":80.0,"Latitude":"4.570868","Longitude":"-74.297333","Population":50339443},{"Date":"2020-04-11","Key":"CR","CountryCode":"CR","CountryName":"Costa Rica","Confirmed":558.0,"Deaths":3.0,"Latitude":"9.748917","Longitude":"-83.753428","Population":5047561},{"Date":"2020-04-11","Key":"CU","CountryCode":"CU","CountryName":"Cuba","Confirmed":564.0,"Deaths":15.0,"Latitude":"21.521757","Longitude":"-77.781167","Population":11333483},{"Date":"2020-04-11","Key":"CV","CountryCode":"CV","CountryName":"Cape Verde","Confirmed":7.0,"Deaths":1.0,"Latitude":"16.002082","Longitude":"-24.013197","Population":549935},{"Date":"2020-04-11","Key":"CY","CountryCode":"CY","CountryName":"Cyprus","Confirmed":595.0,"Deaths":15.0,"Latitude":"35.126413","Longitude":"33.429859","Population":1179551},{"Date":"2020-04-11","Key":"CZ","CountryCode":"CZ","CountryName":"Czech Republic","Confirmed":5732.0,"Deaths":119.0,"Latitude":"49.817492","Longitude":"15.472962","Population":10689209},{"Date":"2020-04-11","Key":"DE","CountryCode":"DE","CountryName":"Germany","Confirmed":117658.0,"Deaths":2544.0,"Latitude":"51.165691","Longitude":"10.451526","Population":83517045},{"Date":"2020-04-11","Key":"DJ","CountryCode":"DJ","CountryName":"Djibouti","Confirmed":150.0,"Deaths":1.0,"Latitude":"11.825138","Longitude":"42.590275","Population":973560},{"Date":"2020-04-11","Key":"DK","CountryCode":"DK","CountryName":"Denmark","Confirmed":5819.0,"Deaths":247.0,"Latitude":"56.263920","Longitude":"9.501785","Population":5771876},{"Date":"2020-04-11","Key":"DM","CountryCode":"DM","CountryName":"Dominica","Confirmed":16.0,"Deaths":0.0,"Latitude":"15.414999","Longitude":"-61.370976","Population":71808},{"Date":"2020-04-11","Key":"DO","CountryCode":"DO","CountryName":"Dominican Republic","Confirmed":2620.0,"Deaths":126.0,"Latitude":"18.735693","Longitude":"-70.162651","Population":10738958},{"Date":"2020-04-11","Key":"DZ","CountryCode":"DZ","CountryName":"Algeria","Confirmed":1761.0,"Deaths":256.0,"Latitude":"28.033886","Longitude":"1.659626","Population":43053054},{"Date":"2020-04-11","Key":"EC","CountryCode":"EC","CountryName":"Ecuador","Confirmed":7161.0,"Deaths":297.0,"Latitude":"-1.831239","Longitude":"-78.183406","Population":17373662},{"Date":"2020-04-11","Key":"EE","CountryCode":"EE","CountryName":"Estonia","Confirmed":1258.0,"Deaths":24.0,"Latitude":"58.595272","Longitude":"25.013607","Population":1325648},{"Date":"2020-04-11","Key":"EG","CountryCode":"EG","CountryName":"Egypt","Confirmed":1794.0,"Deaths":135.0,"Latitude":"26.820553","Longitude":"30.802498","Population":100388073},{"Date":"2020-04-11","Key":"ER","CountryCode":"ER","CountryName":"Eritrea","Confirmed":34.0,"Deaths":0.0,"Latitude":"15.179384","Longitude":"39.782334","Population":3497117},{"Date":"2020-04-11","Key":"ET","CountryCode":"ET","CountryName":"Ethiopia","Confirmed":65.0,"Deaths":2.0,"Latitude":"9.145000","Longitude":"40.489673","Population":112078730},{"Date":"2020-04-11","Key":"FI","CountryCode":"FI","CountryName":"Finland","Confirmed":2769.0,"Deaths":48.0,"Latitude":"61.924110","Longitude":"25.748151","Population":5532156},{"Date":"2020-04-11","Key":"FJ","CountryCode":"FJ","CountryName":"Fiji","Confirmed":16.0,"Deaths":0.0,"Latitude":"-16.578193","Longitude":"179.414413","Population":889953},{"Date":"2020-04-11","Key":"FK","CountryCode":"FK","CountryName":"Falkland Islands","Confirmed":5.0,"Deaths":0.0,"Latitude":"-51.796253","Longitude":"-59.523613","Population":3377},{"Date":"2020-04-11","Key":"FO","CountryCode":"FO","CountryName":"Faroe Islands","Confirmed":184.0,"Deaths":0.0,"Latitude":"61.892635","Longitude":"-6.911806","Population":48678},{"Date":"2020-04-11","Key":"FR","CountryCode":"FR","CountryName":"France","Confirmed":90676.0,"Deaths":13197.0,"Latitude":"46.227638","Longitude":"2.213749","Population":65129728},{"Date":"2020-04-11","Key":"GA","CountryCode":"GA","CountryName":"Gabon","Confirmed":46.0,"Deaths":1.0,"Latitude":"-0.803689","Longitude":"11.609444","Population":2172579},{"Date":"2020-04-11","Key":"GB","CountryCode":"GB","CountryName":"United Kingdom","Confirmed":70272.0,"Deaths":8958.0,"Latitude":"55.378051","Longitude":"-3.435973","Population":67530172},{"Date":"2020-04-11","Key":"GD","CountryCode":"GD","CountryName":"Grenada","Confirmed":14.0,"Deaths":0.0,"Latitude":"12.262776","Longitude":"-61.604171","Population":112003},{"Date":"2020-04-11","Key":"GE","CountryCode":"GE","CountryName":"Georgia","Confirmed":234.0,"Deaths":3.0,"Latitude":"42.315407","Longitude":"43.356892","Population":3996765},{"Date":"2020-04-11","Key":"GG","CountryCode":"GG","CountryName":"Guernsey","Confirmed":200.0,"Deaths":6.0,"Latitude":"49.465691","Longitude":"-2.585278","Population":172259},{"Date":"2020-04-11","Key":"GH","CountryCode":"GH","CountryName":"Ghana","Confirmed":378.0,"Deaths":6.0,"Latitude":"7.946527","Longitude":"-1.023194","Population":28833629},{"Date":"2020-04-11","Key":"GI","CountryCode":"GI","CountryName":"Gibraltar","Confirmed":127.0,"Deaths":0.0,"Latitude":"36.137741","Longitude":"-5.345374","Population":33701},{"Date":"2020-04-11","Key":"GL","CountryCode":"GL","CountryName":"Greenland","Confirmed":11.0,"Deaths":0.0,"Latitude":"71.706936","Longitude":"-42.604303","Population":56672},{"Date":"2020-04-11","Key":"GM","CountryCode":"GM","CountryName":"Gambia","Confirmed":4.0,"Deaths":1.0,"Latitude":"13.443182","Longitude":"-15.310139","Population":2347706},{"Date":"2020-04-11","Key":"GN","CountryCode":"GN","CountryName":"Guinea","Confirmed":212.0,"Deaths":0.0,"Latitude":"9.945587","Longitude":"-9.696645","Population":12771246},{"Date":"2020-04-11","Key":"GQ","CountryCode":"GQ","CountryName":"Equatorial Guinea","Confirmed":18.0,"Deaths":0.0,"Latitude":"1.650801","Longitude":"10.267895","Population":1355986},{"Date":"2020-04-11","Key":"GR","CountryCode":"GR","CountryName":"Greece","Confirmed":2011.0,"Deaths":90.0,"Latitude":"39.074208","Longitude":"21.824312","Population":10473455},{"Date":"2020-04-11","Key":"GT","CountryCode":"GT","CountryName":"Guatemala","Confirmed":137.0,"Deaths":3.0,"Latitude":"15.783471","Longitude":"-90.230759","Population":17581472},{"Date":"2020-04-11","Key":"GU","CountryCode":"GU","CountryName":"Guam","Confirmed":130.0,"Deaths":4.0,"Latitude":"13.444304","Longitude":"144.793731","Population":167294},{"Date":"2020-04-11","Key":"GW","CountryCode":"GW","CountryName":"Guinea-Bissau","Confirmed":35.0,"Deaths":0.0,"Latitude":"11.803749","Longitude":"-15.180413","Population":1920922},{"Date":"2020-04-11","Key":"GY","CountryCode":"GY","CountryName":"Guyana","Confirmed":40.0,"Deaths":6.0,"Latitude":"4.860416","Longitude":"-58.930180","Population":782766},{"Date":"2020-04-11","Key":"HN","CountryCode":"HN","CountryName":"Honduras","Confirmed":392.0,"Deaths":24.0,"Latitude":"15.199999","Longitude":"-86.241905","Population":9746117},{"Date":"2020-04-11","Key":"HR","CountryCode":"HR","CountryName":"Croatia","Confirmed":1495.0,"Deaths":21.0,"Latitude":"45.100000","Longitude":"15.200000","Population":4130304},{"Date":"2020-04-11","Key":"HT","CountryCode":"HT","CountryName":"Haiti","Confirmed":31.0,"Deaths":2.0,"Latitude":"18.971187","Longitude":"-72.285215","Population":11263770},{"Date":"2020-04-11","Key":"HU","CountryCode":"HU","CountryName":"Hungary","Confirmed":1310.0,"Deaths":85.0,"Latitude":"47.162494","Longitude":"19.503304","Population":9684679},{"Date":"2020-04-11","Key":"ID","CountryCode":"ID","CountryName":"Indonesia","Confirmed":3512.0,"Deaths":306.0,"Latitude":"-0.789275","Longitude":"113.921327","Population":270625568},{"Date":"2020-04-11","Key":"IE","CountryCode":"IE","CountryName":"Ireland","Confirmed":8089.0,"Deaths":287.0,"Latitude":"53.412910","Longitude":"-8.243890","Population":4882495},{"Date":"2020-04-11","Key":"IL","CountryCode":"IL","CountryName":"Israel","Confirmed":10408.0,"Deaths":95.0,"Latitude":"31.046051","Longitude":"34.851612","Population":8519377},{"Date":"2020-04-11","Key":"IM","CountryCode":"IM","CountryName":"Isle of Man","Confirmed":201.0,"Deaths":1.0,"Latitude":"54.236107","Longitude":"-4.548056","Population":84584},{"Date":"2020-04-11","Key":"IN","CountryCode":"IN","CountryName":"India","Confirmed":7447.0,"Deaths":239.0,"Latitude":"20.593684","Longitude":"78.962880","Population":1366417754},{"Date":"2020-04-11","Key":"IQ","CountryCode":"IQ","CountryName":"Iraq","Confirmed":1279.0,"Deaths":70.0,"Latitude":"33.223191","Longitude":"43.679291","Population":39309783},{"Date":"2020-04-11","Key":"IR","CountryCode":"IR","CountryName":"Iran","Confirmed":68192.0,"Deaths":4232.0,"Latitude":"32.427908","Longitude":"53.688046","Population":82913906},{"Date":"2020-04-11","Key":"IS","CountryCode":"IS","CountryName":"Iceland","Confirmed":1675.0,"Deaths":7.0,"Latitude":"64.963051","Longitude":"-19.020835","Population":339031},{"Date":"2020-04-11","Key":"IT","CountryCode":"IT","CountryName":"Italy","Confirmed":147577.0,"Deaths":18849.0,"Latitude":"41.871940","Longitude":"12.567380","Population":60550075},{"Date":"2020-04-11","Key":"JE","CountryCode":"JE","CountryName":"Jersey","Confirmed":198.0,"Deaths":4.0,"Latitude":"49.214439","Longitude":"-2.131250","Population":172259},{"Date":"2020-04-11","Key":"JM","CountryCode":"JM","CountryName":"Jamaica","Confirmed":65.0,"Deaths":4.0,"Latitude":"18.109581","Longitude":"-77.297508","Population":2948279},{"Date":"2020-04-11","Key":"JO","CountryCode":"JO","CountryName":"Jordan","Confirmed":372.0,"Deaths":7.0,"Latitude":"30.585164","Longitude":"36.238414","Population":10101694},{"Date":"2020-04-11","Key":"JP","CountryCode":"JP","CountryName":"Japan","Confirmed":5347.0,"Deaths":88.0,"Latitude":"36.204824","Longitude":"138.252924","Population":126860301},{"Date":"2020-04-11","Key":"KE","CountryCode":"KE","CountryName":"Kenya","Confirmed":189.0,"Deaths":7.0,"Latitude":"-0.023559","Longitude":"37.906193","Population":52573973},{"Date":"2020-04-11","Key":"KG","CountryCode":"KG","CountryName":"Kyrgyzstan","Confirmed":339.0,"Deaths":5.0,"Latitude":"41.204380","Longitude":"74.766098","Population":6415850},{"Date":"2020-04-11","Key":"KH","CountryCode":"KH","CountryName":"Cambodia","Confirmed":120.0,"Deaths":0.0,"Latitude":"12.565679","Longitude":"104.990963","Population":16486542},{"Date":"2020-04-11","Key":"KN","CountryCode":"KN","CountryName":"Saint Kitts and Nevis","Confirmed":12.0,"Deaths":0.0,"Latitude":"17.357822","Longitude":"-62.782998","Population":52823},{"Date":"2020-04-11","Key":"KR","CountryCode":"KR","CountryName":"South Korea","Confirmed":10450.0,"Deaths":208.0,"Latitude":"35.907757","Longitude":"127.766922","Population":51225308},{"Date":"2020-04-11","Key":"KW","CountryCode":"KW","CountryName":"Kuwait","Confirmed":993.0,"Deaths":1.0,"Latitude":"29.311660","Longitude":"47.481766","Population":4207083},{"Date":"2020-04-11","Key":"KY","CountryCode":"KY","CountryName":"Cayman Islands","Confirmed":45.0,"Deaths":1.0,"Latitude":"19.513469","Longitude":"-80.566956","Population":64948},{"Date":"2020-04-11","Key":"KZ","CountryCode":"KZ","CountryName":"Kazakhstan","Confirmed":840.0,"Deaths":10.0,"Latitude":"48.019573","Longitude":"66.923684","Population":18551427},{"Date":"2020-04-11","Key":"LA","CountryCode":"LA","CountryName":"Laos","Confirmed":16.0,"Deaths":0.0,"Latitude":"19.856270","Longitude":"102.495496","Population":7169455},{"Date":"2020-04-11","Key":"LB","CountryCode":"LB","CountryName":"Lebanon","Confirmed":609.0,"Deaths":20.0,"Latitude":"33.854721","Longitude":"35.862285","Population":6855713},{"Date":"2020-04-11","Key":"LC","CountryCode":"LC","CountryName":"Saint Lucia","Confirmed":15.0,"Deaths":0.0,"Latitude":"13.909444","Longitude":"-60.978893","Population":182790},{"Date":"2020-04-11","Key":"LI","CountryCode":"LI","CountryName":"Liechtenstein","Confirmed":80.0,"Deaths":1.0,"Latitude":"47.166000","Longitude":"9.555373","Population":38019},{"Date":"2020-04-11","Key":"LK","CountryCode":"LK","CountryName":"Sri Lanka","Confirmed":197.0,"Deaths":7.0,"Latitude":"7.873054","Longitude":"80.771797","Population":21323733},{"Date":"2020-04-11","Key":"LR","CountryCode":"LR","CountryName":"Liberia","Confirmed":37.0,"Deaths":4.0,"Latitude":"6.428055","Longitude":"-9.429499","Population":4937374},{"Date":"2020-04-11","Key":"LT","CountryCode":"LT","CountryName":"Lithuania","Confirmed":999.0,"Deaths":17.0,"Latitude":"55.169438","Longitude":"23.881275","Population":2759627},{"Date":"2020-04-11","Key":"LU","CountryCode":"LU","CountryName":"Luxembourg","Confirmed":3223.0,"Deaths":54.0,"Latitude":"49.815273","Longitude":"6.129583","Population":615729},{"Date":"2020-04-11","Key":"LV","CountryCode":"LV","CountryName":"Latvia","Confirmed":612.0,"Deaths":2.0,"Latitude":"56.879635","Longitude":"24.603189","Population":1906743},{"Date":"2020-04-11","Key":"LY","CountryCode":"LY","CountryName":"Libya","Confirmed":24.0,"Deaths":1.0,"Latitude":"26.335100","Longitude":"17.228331","Population":6777452},{"Date":"2020-04-11","Key":"MA","CountryCode":"MA","CountryName":"Morocco","Confirmed":1448.0,"Deaths":107.0,"Latitude":"31.791702","Longitude":"-7.092620","Population":36471769},{"Date":"2020-04-11","Key":"MC","CountryCode":"MC","CountryName":"Monaco","Confirmed":90.0,"Deaths":2.0,"Latitude":"43.750298","Longitude":"7.412841","Population":38964},{"Date":"2020-04-11","Key":"MD","CountryCode":"MD","CountryName":"Moldova","Confirmed":1438.0,"Deaths":29.0,"Latitude":"47.411631","Longitude":"28.369885","Population":4043263},{"Date":"2020-04-11","Key":"ME","CountryCode":"ME","CountryName":"Montenegro","Confirmed":257.0,"Deaths":2.0,"Latitude":"42.708678","Longitude":"19.374390","Population":627987},{"Date":"2020-04-11","Key":"MG","CountryCode":"MG","CountryName":"Madagascar","Confirmed":102.0,"Deaths":0.0,"Latitude":"-18.766947","Longitude":"46.869107","Population":26969307},{"Date":"2020-04-11","Key":"MK","CountryCode":"MK","CountryName":"Macedonia","Confirmed":711.0,"Deaths":32.0,"Latitude":"41.608635","Longitude":"21.745275","Population":2083459},{"Date":"2020-04-11","Key":"ML","CountryCode":"ML","CountryName":"Mali","Confirmed":87.0,"Deaths":7.0,"Latitude":"17.570692","Longitude":"-3.996166","Population":19658031},{"Date":"2020-04-11","Key":"MM","CountryCode":"MM","CountryName":"Myanmar","Confirmed":28.0,"Deaths":3.0,"Latitude":"21.913965","Longitude":"95.956223","Population":54045420},{"Date":"2020-04-11","Key":"MN","CountryCode":"MN","CountryName":"Mongolia","Confirmed":16.0,"Deaths":0.0,"Latitude":"46.862496","Longitude":"103.846656","Population":3225167},{"Date":"2020-04-11","Key":"MP","CountryCode":"MP","CountryName":"Northern Mariana Islands","Confirmed":11.0,"Deaths":2.0,"Latitude":"17.330830","Longitude":"145.384690","Population":56188},{"Date":"2020-04-11","Key":"MR","CountryCode":"MR","CountryName":"Mauritania","Confirmed":7.0,"Deaths":1.0,"Latitude":"21.007890","Longitude":"-10.940835","Population":4525696},{"Date":"2020-04-11","Key":"MS","CountryCode":"MS","CountryName":"Montserrat","Confirmed":9.0,"Deaths":0.0,"Latitude":"16.742498","Longitude":"-62.187366","Population":4989},{"Date":"2020-04-11","Key":"MT","CountryCode":"MT","CountryName":"Malta","Confirmed":350.0,"Deaths":2.0,"Latitude":"35.937496","Longitude":"14.375416","Population":440372},{"Date":"2020-04-11","Key":"MU","CountryCode":"MU","CountryName":"Mauritius","Confirmed":318.0,"Deaths":9.0,"Latitude":"-20.348404","Longitude":"57.552152","Population":1198575},{"Date":"2020-04-11","Key":"MV","CountryCode":"MV","CountryName":"Maldives","Confirmed":19.0,"Deaths":0.0,"Latitude":"3.202778","Longitude":"73.220680","Population":530953},{"Date":"2020-04-11","Key":"MW","CountryCode":"MW","CountryName":"Malawi","Confirmed":9.0,"Deaths":1.0,"Latitude":"-13.254308","Longitude":"34.301525","Population":18628747},{"Date":"2020-04-11","Key":"MX","CountryCode":"MX","CountryName":"Mexico","Confirmed":3844.0,"Deaths":233.0,"Latitude":"23.634501","Longitude":"-102.552784","Population":127575529},{"Date":"2020-04-11","Key":"MY","CountryCode":"MY","CountryName":"Malaysia","Confirmed":4346.0,"Deaths":70.0,"Latitude":"4.210484","Longitude":"101.975766","Population":31949777},{"Date":"2020-04-11","Key":"MZ","CountryCode":"MZ","CountryName":"Mozambique","Confirmed":20.0,"Deaths":0.0,"Latitude":"-18.665695","Longitude":"35.529562","Population":30366036},{"Date":"2020-04-11","Key":"NC","CountryCode":"NC","CountryName":"New Caledonia","Confirmed":18.0,"Deaths":0.0,"Latitude":"-20.904305","Longitude":"165.618042","Population":282750},{"Date":"2020-04-11","Key":"NE","CountryCode":"NE","CountryName":"Niger","Confirmed":438.0,"Deaths":11.0,"Latitude":"17.607789","Longitude":"8.081666","Population":23310715},{"Date":"2020-04-11","Key":"NG","CountryCode":"NG","CountryName":"Nigeria","Confirmed":305.0,"Deaths":7.0,"Latitude":"9.081999","Longitude":"8.675277","Population":200963599},{"Date":"2020-04-11","Key":"NI","CountryCode":"NI","CountryName":"Nicaragua","Confirmed":6.0,"Deaths":1.0,"Latitude":"12.865416","Longitude":"-85.207229","Population":6545502},{"Date":"2020-04-11","Key":"NL","CountryCode":"NL","CountryName":"Netherlands","Confirmed":23097.0,"Deaths":2511.0,"Latitude":"52.132633","Longitude":"5.291266","Population":17097130},{"Date":"2020-04-11","Key":"NO","CountryCode":"NO","CountryName":"Norway","Confirmed":6244.0,"Deaths":92.0,"Latitude":"60.472024","Longitude":"8.468946","Population":5378857},{"Date":"2020-04-11","Key":"NP","CountryCode":"NP","CountryName":"Nepal","Confirmed":9.0,"Deaths":0.0,"Latitude":"28.394857","Longitude":"84.124008","Population":28608710},{"Date":"2020-04-11","Key":"NZ","CountryCode":"NZ","CountryName":"New Zealand","Confirmed":1035.0,"Deaths":4.0,"Latitude":"-40.900557","Longitude":"174.885971","Population":4783063},{"Date":"2020-04-11","Key":"OM","CountryCode":"OM","CountryName":"Oman","Confirmed":484.0,"Deaths":3.0,"Latitude":"21.512583","Longitude":"55.923255","Population":4974986},{"Date":"2020-04-11","Key":"PA","CountryCode":"PA","CountryName":"Panama","Confirmed":2974.0,"Deaths":74.0,"Latitude":"8.537981","Longitude":"-80.782127","Population":4246439},{"Date":"2020-04-11","Key":"PE","CountryCode":"PE","CountryName":"Peru","Confirmed":5897.0,"Deaths":169.0,"Latitude":"-9.189967","Longitude":"-75.015152","Population":32510453},{"Date":"2020-04-11","Key":"PF","CountryCode":"PF","CountryName":"French Polynesia","Confirmed":51.0,"Deaths":0.0,"Latitude":"-17.679742","Longitude":"-149.406843","Population":279287},{"Date":"2020-04-11","Key":"PG","CountryCode":"PG","CountryName":"Papua New Guinea","Confirmed":2.0,"Deaths":0.0,"Latitude":"-6.314993","Longitude":"143.955550","Population":8776109},{"Date":"2020-04-11","Key":"PH","CountryCode":"PH","CountryName":"Philippines","Confirmed":4076.0,"Deaths":203.0,"Latitude":"12.879721","Longitude":"121.774017","Population":108116615},{"Date":"2020-04-11","Key":"PK","CountryCode":"PK","CountryName":"Pakistan","Confirmed":4788.0,"Deaths":71.0,"Latitude":"30.375321","Longitude":"69.345116","Population":216565318},{"Date":"2020-04-11","Key":"PL","CountryCode":"PL","CountryName":"Poland","Confirmed":5955.0,"Deaths":181.0,"Latitude":"51.919438","Longitude":"19.145136","Population":37887768},{"Date":"2020-04-11","Key":"PR","CountryCode":"PR","CountryName":"Puerto Rico","Confirmed":725.0,"Deaths":39.0,"Latitude":"18.220833","Longitude":"-66.590149","Population":2933408},{"Date":"2020-04-11","Key":"PS","CountryCode":"PS","CountryName":"Palestine","Confirmed":266.0,"Deaths":2.0,"Latitude":"31.952162","Longitude":"35.233154","Population":4981420},{"Date":"2020-04-11","Key":"PT","CountryCode":"PT","CountryName":"Portugal","Confirmed":15472.0,"Deaths":435.0,"Latitude":"39.399872","Longitude":"-8.224454","Population":10226187},{"Date":"2020-04-11","Key":"PY","CountryCode":"PY","CountryName":"Paraguay","Confirmed":133.0,"Deaths":6.0,"Latitude":"-23.442503","Longitude":"-58.443832","Population":7044636},{"Date":"2020-04-11","Key":"QA","CountryCode":"QA","CountryName":"Qatar","Confirmed":2512.0,"Deaths":6.0,"Latitude":"25.354826","Longitude":"51.183884","Population":2832067},{"Date":"2020-04-11","Key":"RO","CountryCode":"RO","CountryName":"Romania","Confirmed":5467.0,"Deaths":257.0,"Latitude":"45.943161","Longitude":"24.966760","Population":19364557},{"Date":"2020-04-11","Key":"RS","CountryCode":"RS","CountryName":"Serbia","Confirmed":3105.0,"Deaths":71.0,"Latitude":"44.016521","Longitude":"21.005859","Population":8772235},{"Date":"2020-04-11","Key":"RU","CountryCode":"RU","CountryName":"Russia","Confirmed":11917.0,"Deaths":94.0,"Latitude":"61.524010","Longitude":"105.318756","Population":145872256},{"Date":"2020-04-11","Key":"RW","CountryCode":"RW","CountryName":"Rwanda","Confirmed":118.0,"Deaths":0.0,"Latitude":"-1.940278","Longitude":"29.873888","Population":12626950},{"Date":"2020-04-11","Key":"SA","CountryCode":"SA","CountryName":"Saudi Arabia","Confirmed":3651.0,"Deaths":47.0,"Latitude":"23.885942","Longitude":"45.079162","Population":34268528},{"Date":"2020-04-11","Key":"SC","CountryCode":"SC","CountryName":"Seychelles","Confirmed":10.0,"Deaths":0.0,"Latitude":"-4.679574","Longitude":"55.491977","Population":97739},{"Date":"2020-04-11","Key":"SD","CountryCode":"SD","CountryName":"Sudan","Confirmed":15.0,"Deaths":2.0,"Latitude":"12.862807","Longitude":"30.217636","Population":42813238},{"Date":"2020-04-11","Key":"SE","CountryCode":"SE","CountryName":"Sweden","Confirmed":9685.0,"Deaths":870.0,"Latitude":"60.128161","Longitude":"18.643501","Population":10036379},{"Date":"2020-04-11","Key":"SG","CountryCode":"SG","CountryName":"Singapore","Confirmed":1909.0,"Deaths":6.0,"Latitude":"1.352083","Longitude":"103.819836","Population":5804337},{"Date":"2020-04-11","Key":"SI","CountryCode":"SI","CountryName":"Slovenia","Confirmed":1160.0,"Deaths":45.0,"Latitude":"46.151241","Longitude":"14.995463","Population":2078654},{"Date":"2020-04-11","Key":"SK","CountryCode":"SK","CountryName":"Slovakia","Confirmed":715.0,"Deaths":2.0,"Latitude":"48.669026","Longitude":"19.699024","Population":5457013},{"Date":"2020-04-11","Key":"SL","CountryCode":"SL","CountryName":"Sierra Leone","Confirmed":8.0,"Deaths":0.0,"Latitude":"8.460555","Longitude":"-11.779889","Population":7813215},{"Date":"2020-04-11","Key":"SM","CountryCode":"SM","CountryName":"San Marino","Confirmed":344.0,"Deaths":34.0,"Latitude":"43.942360","Longitude":"12.457777","Population":33860},{"Date":"2020-04-11","Key":"SN","CountryCode":"SN","CountryName":"Senegal","Confirmed":265.0,"Deaths":2.0,"Latitude":"14.497401","Longitude":"-14.452362","Population":16296364},{"Date":"2020-04-11","Key":"SO","CountryCode":"SO","CountryName":"Somalia","Confirmed":21.0,"Deaths":1.0,"Latitude":"5.152149","Longitude":"46.199616","Population":15442905},{"Date":"2020-04-11","Key":"SR","CountryCode":"SR","CountryName":"Suriname","Confirmed":10.0,"Deaths":1.0,"Latitude":"3.919305","Longitude":"-56.027783","Population":581372},{"Date":"2020-04-11","Key":"ST","CountryCode":"ST","CountryName":"São Tomé and Príncipe","Confirmed":4.0,"Deaths":0.0,"Latitude":"0.186360","Longitude":"6.613081","Population":215056},{"Date":"2020-04-11","Key":"SV","CountryCode":"SV","CountryName":"El Salvador","Confirmed":118.0,"Deaths":6.0,"Latitude":"13.794185","Longitude":"-88.896530","Population":6453553},{"Date":"2020-04-11","Key":"SY","CountryCode":"SY","CountryName":"Syria","Confirmed":19.0,"Deaths":2.0,"Latitude":"34.802075","Longitude":"38.996815","Population":17070135},{"Date":"2020-04-11","Key":"SZ","CountryCode":"SZ","CountryName":"Swaziland","Confirmed":12.0,"Deaths":0.0,"Latitude":"-26.522503","Longitude":"31.465866","Population":1148130},{"Date":"2020-04-11","Key":"TC","CountryCode":"TC","CountryName":"Turks and Caicos Islands","Confirmed":9.0,"Deaths":1.0,"Latitude":"21.694025","Longitude":"-71.797928","Population":38191},{"Date":"2020-04-11","Key":"TD","CountryCode":"TD","CountryName":"Chad","Confirmed":11.0,"Deaths":0.0,"Latitude":"15.454166","Longitude":"18.732207","Population":15946876},{"Date":"2020-04-11","Key":"TG","CountryCode":"TG","CountryName":"Togo","Confirmed":76.0,"Deaths":3.0,"Latitude":"8.619543","Longitude":"0.824782","Population":8082366},{"Date":"2020-04-11","Key":"TH","CountryCode":"TH","CountryName":"Thailand","Confirmed":2518.0,"Deaths":35.0,"Latitude":"15.870032","Longitude":"100.992541","Population":69037513},{"Date":"2020-04-11","Key":"TL","CountryCode":"TL","CountryName":"East Timor","Confirmed":2.0,"Deaths":0.0,"Latitude":"-8.874217","Longitude":"125.727539","Population":1293119},{"Date":"2020-04-11","Key":"TN","CountryCode":"TN","CountryName":"Tunisia","Confirmed":671.0,"Deaths":25.0,"Latitude":"33.886917","Longitude":"9.537499","Population":11694719},{"Date":"2020-04-11","Key":"TR","CountryCode":"TR","CountryName":"Turkey","Confirmed":47029.0,"Deaths":1006.0,"Latitude":"38.963745","Longitude":"35.243322","Population":83429615},{"Date":"2020-04-11","Key":"TT","CountryCode":"TT","CountryName":"Trinidad and Tobago","Confirmed":109.0,"Deaths":8.0,"Latitude":"10.691803","Longitude":"-61.222503","Population":1394973},{"Date":"2020-04-11","Key":"TW","CountryCode":"TW","CountryName":"Taiwan","Confirmed":380.0,"Deaths":5.0,"Latitude":"23.697810","Longitude":"120.960515","Population":23773876},{"Date":"2020-04-11","Key":"TZ","CountryCode":"TZ","CountryName":"Tanzania","Confirmed":32.0,"Deaths":3.0,"Latitude":"-6.369028","Longitude":"34.888822","Population":58005463},{"Date":"2020-04-11","Key":"UA","CountryCode":"UA","CountryName":"Ukraine","Confirmed":2203.0,"Deaths":69.0,"Latitude":"48.379433","Longitude":"31.165580","Population":43993638},{"Date":"2020-04-11","Key":"UG","CountryCode":"UG","CountryName":"Uganda","Confirmed":53.0,"Deaths":0.0,"Latitude":"1.373333","Longitude":"32.290275","Population":44269594},{"Date":"2020-04-11","Key":"US","CountryCode":"US","CountryName":"United States of America","Confirmed":501560.0,"Deaths":18777.0,"Latitude":"37.090240","Longitude":"-95.712891","Population":329064917},{"Date":"2020-04-11","Key":"UY","CountryCode":"UY","CountryName":"Uruguay","Confirmed":494.0,"Deaths":7.0,"Latitude":"-32.522779","Longitude":"-55.765835","Population":3461734},{"Date":"2020-04-11","Key":"UZ","CountryCode":"UZ","CountryName":"Uzbekistan","Confirmed":624.0,"Deaths":3.0,"Latitude":"41.377491","Longitude":"64.585262","Population":32981716},{"Date":"2020-04-11","Key":"VA","CountryCode":"VA","CountryName":"Vatican City","Confirmed":8.0,"Deaths":0.0,"Latitude":"41.902916","Longitude":"12.453389","Population":799},{"Date":"2020-04-11","Key":"VC","CountryCode":"VC","CountryName":"Saint Vincent and the Grenadines","Confirmed":12.0,"Deaths":0.0,"Latitude":"12.984305","Longitude":"-61.287228","Population":110589},{"Date":"2020-04-11","Key":"VE","CountryCode":"VE","CountryName":"Venezuela","Confirmed":175.0,"Deaths":9.0,"Latitude":"6.423750","Longitude":"-66.589730","Population":28515829},{"Date":"2020-04-11","Key":"VG","CountryCode":"VG","CountryName":"British Virgin Islands","Confirmed":3.0,"Deaths":0.0,"Latitude":"18.420695","Longitude":"-64.639968","Population":30030},{"Date":"2020-04-11","Key":"VI","CountryCode":"VI","CountryName":"United States Virgin Islands","Confirmed":50.0,"Deaths":1.0,"Latitude":"18.335765","Longitude":"-64.896335","Population":null},{"Date":"2020-04-11","Key":"VN","CountryCode":"VN","CountryName":"Vietnam","Confirmed":255.0,"Deaths":0.0,"Latitude":"14.058324","Longitude":"108.277199","Population":96462106},{"Date":"2020-04-11","Key":"XK","CountryCode":"XK","CountryName":"Kosovo","Confirmed":250.0,"Deaths":7.0,"Latitude":"42.602636","Longitude":"20.902977","Population":null},{"Date":"2020-04-11","Key":"YE","CountryCode":"YE","CountryName":"Yemen","Confirmed":1.0,"Deaths":0.0,"Latitude":"15.552727","Longitude":"48.516388","Population":29161922},{"Date":"2020-04-11","Key":"ZA","CountryCode":"ZA","CountryName":"South Africa","Confirmed":2003.0,"Deaths":24.0,"Latitude":"-30.559482","Longitude":"22.937506","Population":58558270},{"Date":"2020-04-11","Key":"ZM","CountryCode":"ZM","CountryName":"Zambia","Confirmed":40.0,"Deaths":2.0,"Latitude":"-13.133897","Longitude":"27.849332","Population":17861030},{"Date":"2020-04-11","Key":"ZW","CountryCode":"ZW","CountryName":"Zimbabwe","Confirmed":11.0,"Deaths":3.0,"Latitude":"-19.015438","Longitude":"29.154857","Population":14645468},{"Date":"2020-04-12","Key":"ES","CountryCode":"ES","CountryName":"Spain","Confirmed":161852.0,"Deaths":16353.0,"Latitude":"40.463667","Longitude":"-3.749220","Population":46736776}]